[{"name": "Northeast Medical Group Urology - Milford", "address": "849 Boston Post Rd Suite 205, Milford, CT 06460", "city": "Milford", "state": "Connecticut", "state_code": "CT", "phone": "+1 203-375-3456", "website": "https://www.northeastmedicalgroup.org/locations/milford-849-boston-post-road-urology", "rating": "", "reviews": "", "place_id": "ChIJfd7GsFd16IkRVlOsZ0o7Ess", "latitude": 41.2311559, "longitude": -73.0533956, "subtypes": "Urology clinic"}, {"name": "Kenneth Weisman, MD", "address": "538 Litchfield St, Torrington, CT 06790", "city": "Torrington", "state": "Connecticut", "state_code": "CT", "phone": "+1 860-496-8990", "website": "https://hartfordhealthcaremedicalgroup.org/KennethWeisman", "rating": 4.8, "reviews": 124, "place_id": "ChIJf1Qqy2TMSYgRyWctpdMYMrI", "latitude": 41.7923385, "longitude": -73.1311643, "subtypes": "Urologist"}, {"name": "Paul Pyo, MD", "address": "455 Lewis Ave #210, Meriden, CT 06451", "city": "Meriden", "state": "Connecticut", "state_code": "CT", "phone": "+1 203-238-1241", "website": "https://hartfordhealthcaremedicalgroup.org/PaulPyo", "rating": 4.9, "reviews": 292, "place_id": "ChIJK4hp1xzK54kR67_lAOmUZhw", "latitude": 41.5493, "longitude": -72.80105379999999, "subtypes": "Urologist"}, {"name": "Hartford HealthCare Tallwood Urology & Kidney Institute", "address": "5 Dayton Rd #202, Waterford, CT 06385", "city": "Waterford", "state": "Connecticut", "state_code": "CT", "phone": "+1 860-443-0622", "website": "https://hartfordhealthcare.org/services/urology-kidney/locations/hartford-healthcare-medical-group/196-parkway-south-suite-201a-waterford", "rating": 3.4, "reviews": 15, "place_id": "ChIJ-yXT0FsO5okRk-Xlc_0nL-U", "latitude": 41.37241119999999, "longitude": -72.1341158, "subtypes": "Urology clinic"}, {"name": "Yale Urology", "address": "800 Howard Ave # 3, New Haven, CT 06519", "city": "New Haven", "state": "Connecticut", "state_code": "CT", "phone": "+1 203-785-2815", "website": "http://urology.yale.edu/%3Futm_source%3DGMBSocialClimb%26utm_medium%3DYaleUrology", "rating": 2.6, "reviews": 30, "place_id": "ChIJPbL2i1HY54kRvnN0xpkR8Ww", "latitude": 41.302584, "longitude": -72.936415, "subtypes": "Urology clinic"}, {"name": "Northeast Medical Group - Urology - Trumbull", "address": "160 Hawley Ln, Trumbull, CT 06611", "city": "Trumbull", "state": "Connecticut", "state_code": "CT", "phone": "+1 203-375-3456", "website": "https://www.northeastmedicalgroup.org/locations/trumbull-160-hawley-lane-urology", "rating": 4.2, "reviews": 21, "place_id": "ChIJgwITT5AL6IkRwqMQp2Op3GI", "latitude": 41.2347841, "longitude": -73.14944059999999, "subtypes": "Urology clinic"}, {"name": "Charlotte Hungerford Hospital Adult & Pediatric Urology", "address": "538 Litchfield St Suite 102, Torrington, CT 06790", "city": "Torrington", "state": "Connecticut", "state_code": "CT", "phone": "+1 860-496-8990", "website": "https://hartfordhealthcare.org/services/urology-kidney/locations/charlotte-hungerford-hospital", "rating": 5, "reviews": 2, "place_id": "ChIJJ1KLtk2Y54kR2ID2y6Jmzbg", "latitude": 41.7923664, "longitude": -73.1339425, "subtypes": "Urology clinic"}, {"name": "Kenneth Weisman, MD", "address": "538 Litchfield St, Torrington, CT 06790", "city": "Torrington", "state": "Connecticut", "state_code": "CT", "phone": "+1 860-496-8990", "website": "https://hartfordhealthcaremedicalgroup.org/KennethWeisman", "rating": 4.8, "reviews": 124, "place_id": "ChIJf1Qqy2TMSYgRyWctpdMYMrI", "latitude": 41.7923385, "longitude": -73.1311643, "subtypes": "Urologist"}, {"name": "James Nolan, MD", "address": "538 Litchfield St, Torrington, CT 06790", "city": "Torrington", "state": "Connecticut", "state_code": "CT", "phone": "+1 860-496-8990", "website": "https://hartfordhealthcaremedicalgroup.org/JamesNolan", "rating": 4.7, "reviews": 15, "place_id": "ChIJRWHMjVeZ54kRs3rC9mXzzlo", "latitude": 41.7923664, "longitude": -73.1339425, "subtypes": "Urologist"}, {"name": "Brian McLeod, MD", "address": "584 Norwich Rd #100, Plainfield, CT 06374", "city": "Plainfield", "state": "Connecticut", "state_code": "CT", "phone": "+1 860-564-9250", "website": "https://hartfordhealthcaremedicalgroup.org/BrianMcleod", "rating": 4.8, "reviews": 108, "place_id": "ChIJg7AKqlbV5YkRG39aekYd26U", "latitude": 41.6813049, "longitude": -71.9124145, "subtypes": "Urologist"}, {"name": "Bristol Health Urology", "address": "15 Riverside Ave, Bristol, CT 06010", "city": "Bristol", "state": "Connecticut", "state_code": "CT", "phone": "+1 860-585-6944", "website": "", "rating": 4.6, "reviews": 31, "place_id": "ChIJL0ym6v2754kRB0WpwFLdF7o", "latitude": 41.6714279, "longitude": -72.94336, "subtypes": "Urologist"}, {"name": "Jonathan Bernie, M.D.", "address": "12 Elmcrest Terrace #1, Norwalk, CT 06850", "city": "Norwalk", "state": "Connecticut", "state_code": "CT", "phone": "+1 203-853-4200", "website": "https://www.norwalkurology.com/physicians/jonathan-bernie/", "rating": 4.5, "reviews": 60, "place_id": "ChIJ97HdAdUd6IkRWpW75cHrQiA", "latitude": 41.1097176, "longitude": -73.42034199999999, "subtypes": "Urologist"}, {"name": "Urology Associates of Norwalk", "address": "12 Elmcrest Terrace #1, Norwalk, CT 06850", "city": "Norwalk", "state": "Connecticut", "state_code": "CT", "phone": "+1 203-853-4200", "website": "https://www.norwalkurology.com/", "rating": 4.1, "reviews": 77, "place_id": "ChIJ97HdAdUd6IkRjpj4BaRtWeY", "latitude": 41.1097275, "longitude": -73.42032329999999, "subtypes": "Urologist"}, {"name": "Jonathan Bernie, M.D.", "address": "12 Elmcrest Terrace #1, Norwalk, CT 06850", "city": "Norwalk", "state": "Connecticut", "state_code": "CT", "phone": "+1 203-853-4200", "website": "https://www.norwalkurology.com/physicians/jonathan-bernie/", "rating": 4.5, "reviews": 60, "place_id": "ChIJ97HdAdUd6IkRWpW75cHrQiA", "latitude": 41.1097176, "longitude": -73.42034199999999, "subtypes": "Urologist"}, {"name": "Batter Stephen J MD", "address": "12 Elmcrest Terrace #1, Norwalk, CT 06850", "city": "Norwalk", "state": "Connecticut", "state_code": "CT", "phone": "+1 203-853-4200", "website": "http://www.norwalkurology.com/", "rating": 3.5, "reviews": 26, "place_id": "ChIJ97HdAdUd6IkRpSx4qT4UgZ8", "latitude": 41.1097239, "longitude": -73.4203421, "subtypes": "Urologist"}, {"name": "Dr. Scott R. Serels, MD", "address": "12 Elmcrest Terrace #1, Norwalk, CT 06850", "city": "Norwalk", "state": "Connecticut", "state_code": "CT", "phone": "+1 203-853-4200", "website": "https://www.norwalkurology.com/physicians/scott-r-serels/", "rating": 4.1, "reviews": 17, "place_id": "ChIJ97HdAdUd6IkR_sFswBLKPvI", "latitude": 41.1097239, "longitude": -73.4203421, "subtypes": "Urologist"}, {"name": "Northeast Medical Group Urology - Fairfield", "address": "52 Beach Rd STE 205, Fairfield, CT 06824", "city": "Fairfield", "state": "Connecticut", "state_code": "CT", "phone": "+1 475-330-6406", "website": "https://www.northeastmedicalgroup.org/locations/fairfield-52-beach-road-suite-205-urology", "rating": "", "reviews": "", "place_id": "ChIJdVQxZ-gR6IkRfZulr7cXuC0", "latitude": 41.1444176, "longitude": -73.2519204, "subtypes": "Urology clinic"}, {"name": "Northeast Medical Group Urology - Fairfield", "address": "1152 Kings Hwy Cutoff, Fairfield, CT 06824", "city": "Fairfield", "state": "Connecticut", "state_code": "CT", "phone": "+1 203-256-5500", "website": "https://www.northeastmedicalgroup.org/locations/fairfield-1152-kings-highway-cutoff-urology", "rating": 3, "reviews": 2, "place_id": "ChIJHb7l_5UP6IkRNVF-qdx9Uxw", "latitude": 41.1519556, "longitude": -73.2449798, "subtypes": "Urology clinic"}, {"name": "Kenneth A. Kingsly, MD", "address": "1152 Kings Hwy Cutoff, Fairfield, CT 06824", "city": "Fairfield", "state": "Connecticut", "state_code": "CT", "phone": "+1 203-256-5500", "website": "https://www.northeastmedicalgroup.org/physicians/kenneth-a-kingsly", "rating": 4.5, "reviews": 2, "place_id": "ChIJUwZfbyUQ6IkRsPu7iGn3hMg", "latitude": 41.1519556, "longitude": -73.2449798, "subtypes": "Urologist"}, {"name": "Paul J. Ceplenski, MD", "address": "1 Lake St, New Britain, CT 06052", "city": "New Britain", "state": "Connecticut", "state_code": "CT", "phone": "+1 860-826-4453", "website": "https://www.starlingphysicians.com/physician/paul-j-ceplenski-md/", "rating": 4.9, "reviews": 414, "place_id": "ChIJIbhEbc6z54kRfafZosROyTM", "latitude": 41.6685534, "longitude": -72.7918226, "subtypes": "Urologist"}, {"name": "Ceplenski Paul J MD", "address": "375 Willard Ave, Newington, CT 06111", "city": "Newington", "state": "Connecticut", "state_code": "CT", "phone": "+1 860-826-4453", "website": "http://www.starlingphysicians.com/", "rating": "", "reviews": "", "place_id": "ChIJj0UF1mat54kR_cGZI9HB05U", "latitude": 41.7075015, "longitude": -72.7366218, "subtypes": "Urologist"}, {"name": "Adine Regan, MD", "address": "499 Farmington Ave #220, Farmington, CT 06032", "city": "Farmington", "state": "Connecticut", "state_code": "CT", "phone": "+1 860-678-7300", "website": "https://hartfordhealthcaremedicalgroup.org/AdineRegan", "rating": 4.9, "reviews": 142, "place_id": "ChIJ8dqU8yut54kRBtvPBr3-Npw", "latitude": 41.7265706, "longitude": -72.8030486, "subtypes": "Urologist"}, {"name": "Anoop Meraney, MD", "address": "85 Seymour St Suite 416, Hartford, CT 06106", "city": "Hartford", "state": "Connecticut", "state_code": "CT", "phone": "+1 860-947-8500", "website": "https://hartfordhealthcaremedicalgroup.org/AnoopMeraney", "rating": 4.9, "reviews": 90, "place_id": "ChIJJ8Jmvk1T5okR8Kpnksvg3dY", "latitude": 41.7544767, "longitude": -72.6820975, "subtypes": "Urologist"}, {"name": "Starling Physicians: Dr. Raphael M. Cooper", "address": "1 Lake St suite building b, New Britain, CT 06052", "city": "New Britain", "state": "Connecticut", "state_code": "CT", "phone": "+1 860-826-4453", "website": "https://www.starlingphysicians.com/physician/dr-raphael-cooper/", "rating": 4.9, "reviews": 483, "place_id": "ChIJ8x9s8Y-z54kRp7G95clLz0Y", "latitude": 41.66871, "longitude": -72.79124, "subtypes": "Urologist"}, {"name": "Jill M. Peters-Gee, MD", "address": "499 Farmington Ave #220, Farmington, CT 06032", "city": "Farmington", "state": "Connecticut", "state_code": "CT", "phone": "+1 860-678-7300", "website": "http://www.womenshealthspecialtycare.com/", "rating": 4.9, "reviews": 218, "place_id": "ChIJ_y6uGQiu54kRNFHQyUzusys", "latitude": 41.7265344, "longitude": -72.8029261, "subtypes": "Urologist"}, {"name": "Steven J. Shichman, MD", "address": "85 Seymour St Suite 416, Hartford, CT 06106", "city": "Hartford", "state": "Connecticut", "state_code": "CT", "phone": "+1 860-947-8500", "website": "https://hartfordhealthcaremedicalgroup.org/StevenShichman", "rating": 4.9, "reviews": 112, "place_id": "ChIJZ6_-S2tT5okRONIaYlmEKmA", "latitude": 41.7545087, "longitude": -72.6816703, "subtypes": "Urologist"}, {"name": "Arthur Tarantino, MD", "address": "330 Western Blvd 2nd floor, Glastonbury, CT 06033", "city": "Glastonbury", "state": "Connecticut", "state_code": "CT", "phone": "+1 860-947-8500", "website": "https://hartfordhealthcaremedicalgroup.org/ArthurTarantino", "rating": 4.7, "reviews": 118, "place_id": "ChIJ_yh6KihR5okRzvzjuc2w3fU", "latitude": 41.720994, "longitude": -72.586574, "subtypes": "Urologist"}, {"name": "Greater Hartford Urology Group", "address": "19 Woodland St STE 23, Hartford, CT 06105", "city": "Hartford", "state": "Connecticut", "state_code": "CT", "phone": "+1 860-522-2251", "website": "https://www.greaterhartfordurologygroup.com/", "rating": 3.8, "reviews": 44, "place_id": "ChIJZVP4tg9T5okRMdXDtj1NPLw", "latitude": 41.7686098, "longitude": -72.7024701, "subtypes": "Urology clinic"}, {"name": "Jacquelyne Phanavong, PA-C", "address": "65 Memorial Rd #430, West Hartford, CT 06107", "city": "West Hartford", "state": "Connecticut", "state_code": "CT", "phone": "+1 860-947-8500", "website": "https://hartfordhealthcaremedicalgroup.org/JacquelynePhanavong", "rating": 4.9, "reviews": 43, "place_id": "ChIJS3eKcEet54kRhTn_c9xACFI", "latitude": 41.7596232, "longitude": -72.7398813, "subtypes": "Urologist"}, {"name": "Stein Joshua MD", "address": "375 Willard Ave, Newington, CT 06111", "city": "Newington", "state": "Connecticut", "state_code": "CT", "phone": "+1 860-826-4453", "website": "http://www.starlingphysicians.com/", "rating": "", "reviews": "", "place_id": "ChIJj0UF1mat54kRpD0jGAThqNM", "latitude": 41.7075015, "longitude": -72.7366218, "subtypes": "Urologist"}, {"name": "Abe D'Amato, MD", "address": "85 Seymour St, Hartford, CT 06106", "city": "Hartford", "state": "Connecticut", "state_code": "CT", "phone": "+1 860-947-8500", "website": "", "rating": 4.8, "reviews": 43, "place_id": "ChIJF_AaRXRT5okRH-7A8JdbjuQ", "latitude": 41.7545087, "longitude": -72.6816703, "subtypes": "Urologist"}, {"name": "Anthony Quinn, MD, FACS", "address": "5 Dayton Rd #202, Waterford, CT 06385", "city": "Waterford", "state": "Connecticut", "state_code": "CT", "phone": "+1 860-443-0622", "website": "", "rating": 4.9, "reviews": 91, "place_id": "ChIJ__-_nusR5okRoxTE6cT2K14", "latitude": 41.37241119999999, "longitude": -72.1341158, "subtypes": "Urologist"}, {"name": "Yale Urology: Joseph Brito, MD", "address": "365 Montauk Ave, New London, CT 06320", "city": "New London", "state": "Connecticut", "state_code": "CT", "phone": "+1 844-817-9171", "website": "http://urology.yale.edu/", "rating": 3.5, "reviews": 11, "place_id": "ChIJFxkqqT8P5okR0tktOtcLODU", "latitude": 41.3354497, "longitude": -72.10470049999999, "subtypes": "Urologist"}, {"name": "Hartford HealthCare Tallwood Urology & Kidney Institute", "address": "5 Dayton Rd #202, Waterford, CT 06385", "city": "Waterford", "state": "Connecticut", "state_code": "CT", "phone": "+1 860-443-0622", "website": "https://hartfordhealthcare.org/services/urology-kidney/locations/hartford-healthcare-medical-group/196-parkway-south-suite-201a-waterford", "rating": 3.4, "reviews": 15, "place_id": "ChIJ-yXT0FsO5okRk-Xlc_0nL-U", "latitude": 41.37241119999999, "longitude": -72.1341158, "subtypes": "Urology clinic"}, {"name": "Dmitry Volkin, MD", "address": "5 Dayton Rd #202, Waterford, CT 06385", "city": "Waterford", "state": "Connecticut", "state_code": "CT", "phone": "+1 860-443-0622", "website": "https://hartfordhealthcaremedicalgroup.org/DmitryVolkin", "rating": 4.8, "reviews": 59, "place_id": "ChIJty842E4P5okRukVVtPl8xBo", "latitude": 41.37241119999999, "longitude": -72.1341158, "subtypes": "Urologist"}, {"name": "Tallwood Urology & Kidney Institute", "address": "330 Washington St #350, Norwich, CT 06360", "city": "Norwich", "state": "Connecticut", "state_code": "CT", "phone": "+1 860-886-1956", "website": "https://hartfordhealthcare.org/services/urology-kidney/locations/hartford-healthcare-medical-group/330-washington-street-suite-350-norwich", "rating": 5, "reviews": 2, "place_id": "ChIJhbIkV3Nx5okRZkngkk0UgVY", "latitude": 41.5432232, "longitude": -72.0884767, "subtypes": "Urology clinic"}, {"name": "Sheri Benevides, APRN", "address": "5 Dayton Rd #202, Waterford, CT 06385", "city": "Waterford", "state": "Connecticut", "state_code": "CT", "phone": "+1 860-443-0622", "website": "https://hartfordhealthcaremedicalgroup.org/SheriRyanBenevides%3Futm_campaign%3Dgmb%26utm_medium%3Dorganic%26utm_source%3Dlocal", "rating": 4.9, "reviews": 186, "place_id": "ChIJn3sQmKdR5okRCuPinNGw5eA", "latitude": 41.37241119999999, "longitude": -72.1341158, "subtypes": "Urologist"}, {"name": "Shaun Hager, DO", "address": "5 Dayton Rd #202, Waterford, CT 06385", "city": "Waterford", "state": "Connecticut", "state_code": "CT", "phone": "+1 860-443-0622", "website": "https://hartfordhealthcaremedicalgroup.org/ShaunHager", "rating": 5, "reviews": 13, "place_id": "ChIJGyiEhOIP5okR1D2vhHo1As0", "latitude": 41.37241119999999, "longitude": -72.1341158, "subtypes": "Urologist"}, {"name": "Erin Loughery, APRN, DNP, RNFA", "address": "330 Washington St #350, Norwich, CT 06360", "city": "Norwich", "state": "Connecticut", "state_code": "CT", "phone": "+1 860-886-1956", "website": "https://hartfordhealthcaremedicalgroup.org/ErinLoughery", "rating": 4.9, "reviews": 129, "place_id": "ChIJ9cRil3Rx5okRVcJgVq8DcY8", "latitude": 41.5432232, "longitude": -72.0884767, "subtypes": "Urologist"}, {"name": "David Crawley, MD", "address": "5 Dayton Rd #203, Waterford, CT 06385", "city": "Waterford", "state": "Connecticut", "state_code": "CT", "phone": "+1 860-443-0622", "website": "https://hartfordhealthcaremedicalgroup.org/DavidCrawley", "rating": 4.8, "reviews": 133, "place_id": "ChIJ__-_nusR5okRI6zBf29Gvoo", "latitude": 41.37241119999999, "longitude": -72.1341158, "subtypes": "Urologist"}, {"name": "Steven Schoenberger, MD, FACS", "address": "196 Waterford Pkwy S #201a, Waterford, CT 06385", "city": "Waterford", "state": "Connecticut", "state_code": "CT", "phone": "+1 860-443-0622", "website": "https://www.lmhospital.org/physicians/steven-l-schoenberger", "rating": 4.8, "reviews": 21, "place_id": "ChIJ__-_nusR5okRe8vCliNI5w0", "latitude": 41.3662517, "longitude": -72.1620682, "subtypes": "Urologist"}, {"name": "Timothy Tran, MD", "address": "Lawrence & Memorial Hospital - Faire, Harbor Building, 365 Montauk Ave 2nd Flr, New London, CT 06320", "city": "New London", "state": "Connecticut", "state_code": "CT", "phone": "+1 203-785-2815", "website": "https://www.yalemedicine.org/specialists/timothy-tran", "rating": 5, "reviews": 6, "place_id": "ChIJI469T7YP5okRlOzUzxK_j2I", "latitude": 41.3363812, "longitude": -72.1056217, "subtypes": "Urologist"}, {"name": "Yale Urology: Joseph Renzulli, MD", "address": "408-340 Montauk Ave, New London, CT 06320", "city": "New London", "state": "Connecticut", "state_code": "CT", "phone": "+1 203-785-2815", "website": "http://urology.yale.edu/", "rating": 3, "reviews": 2, "place_id": "ChIJreLRnEAP5okRrKZ2Yemm_r4", "latitude": 41.33714579999999, "longitude": -72.10368079999999, "subtypes": "Urologist"}, {"name": "Champion Urology", "address": "23 Clara Dr # 204, Mystic, CT 06355", "city": "Mystic", "state": "Connecticut", "state_code": "CT", "phone": "+1 860-572-1643", "website": "", "rating": "", "reviews": "", "place_id": "ChIJYRiRzXUK5okRi0KzEKievK0", "latitude": 41.3702398, "longitude": -71.9551728, "subtypes": "Urology clinic"}, {"name": "Benjamin Beech, MD", "address": "5 Dayton Rd #202, Waterford, CT 06385", "city": "Waterford", "state": "Connecticut", "state_code": "CT", "phone": "+1 860-443-0622", "website": "https://hartfordhealthcaremedicalgroup.org/BenjaminBeech", "rating": 5, "reviews": 3, "place_id": "ChIJV4mceyMP5okRG7yZ-JEjbm0", "latitude": 41.3724111, "longitude": -72.1341158, "subtypes": "Urologist"}, {"name": "Jean Wong, MD", "address": "330 Washington St #350, Norwich, CT 06360", "city": "Norwich", "state": "Connecticut", "state_code": "CT", "phone": "+1 860-886-1956", "website": "https://hartfordhealthcaremedicalgroup.org/JeanWong", "rating": 4.8, "reviews": 84, "place_id": "ChIJU2yBCcPL54kR10dfhP1rvrY", "latitude": 41.5432233, "longitude": -72.0884767, "subtypes": "Urologist"}, {"name": "Brandon Stahl, MD", "address": "330 Washington St #350, Norwich, CT 06360", "city": "Norwich", "state": "Connecticut", "state_code": "CT", "phone": "+1 860-886-1956", "website": "https://hartfordhealthcaremedicalgroup.org/BrandonStahl", "rating": 4.9, "reviews": 146, "place_id": "ChIJ9cRil3Rx5okRymb8z6VHsb0", "latitude": 41.5432232, "longitude": -72.0884767, "subtypes": "Urologist"}, {"name": "Jonathan Telsey, MD", "address": "330 Washington St #350, Norwich, CT 06360", "city": "Norwich", "state": "Connecticut", "state_code": "CT", "phone": "+1 860-886-1956", "website": "https://hartfordhealthcaremedicalgroup.org/JonathanTelsey", "rating": 4.5, "reviews": 76, "place_id": "ChIJzS4SHlBx5okRob906nya0Fc", "latitude": 41.5432232, "longitude": -72.0884767, "subtypes": "Urologist"}, {"name": "Paul Pyo, MD", "address": "455 Lewis Ave #210, Meriden, CT 06451", "city": "Meriden", "state": "Connecticut", "state_code": "CT", "phone": "+1 203-238-1241", "website": "https://hartfordhealthcaremedicalgroup.org/PaulPyo", "rating": 4.9, "reviews": 292, "place_id": "ChIJK4hp1xzK54kR67_lAOmUZhw", "latitude": 41.5493, "longitude": -72.80105379999999, "subtypes": "Urologist"}, {"name": "Urology Associates of Connecticut", "address": "51-53 Kenosia Ave, Danbury, CT 06810", "city": "Danbury", "state": "Connecticut", "state_code": "CT", "phone": "+1 203-748-0330", "website": "http://connecticuturology.com/", "rating": 4.7, "reviews": 1223, "place_id": "ChIJ1xCLXRNV3YkR94QQPAwJN5w", "latitude": 41.3756777, "longitude": -73.491826, "subtypes": "Urologist"}, {"name": "Sandra Glenney, APRN", "address": "330 Washington St #350, Norwich, CT 06360", "city": "Norwich", "state": "Connecticut", "state_code": "CT", "phone": "+1 860-886-1956", "website": "https://hartfordhealthcaremedicalgroup.org/SandraGlenney", "rating": 4.8, "reviews": 58, "place_id": "ChIJD5iuBJtx5okRdjq_wbcqNuM", "latitude": 41.5432232, "longitude": -72.0884767, "subtypes": "Urologist"}, {"name": "Katherine Rotker, MD", "address": "Lawrence & Memorial Hospital, 365 Montauk Avenue, Faire Harbour Pl Building, New London, CT 06320", "city": "New London", "state": "Connecticut", "state_code": "CT", "phone": "+1 877-925-3637", "website": "https://www.yalemedicine.org/specialists/katherine-rotker", "rating": 5, "reviews": 3, "place_id": "ChIJPZD1XvUP5okRn3qW7UZPI_s", "latitude": 41.3363812, "longitude": -72.1056217, "subtypes": "Urologist"}, {"name": "Richard Fraser, MD", "address": "196 Waterford Pkwy S #201a, Waterford, CT 06385", "city": "Waterford", "state": "Connecticut", "state_code": "CT", "phone": "+1 860-443-0622", "website": "", "rating": 4.6, "reviews": 8, "place_id": "ChIJ__-_nusR5okR8q0yOXSlqdA", "latitude": 41.3662517, "longitude": -72.1620682, "subtypes": "Urologist"}, {"name": "Champion Urology: Leddy Franklin F MD", "address": "23 Clara Dr # 204, Mystic, CT 06355", "city": "Mystic", "state": "Connecticut", "state_code": "CT", "phone": "", "website": "", "rating": "", "reviews": "", "place_id": "ChIJYRiRzXUK5okR6IFMfKcx3JE", "latitude": 41.3700743, "longitude": -71.95491419999999, "subtypes": "Urologist"}, {"name": "Middlesex Health Urology - Middletown", "address": "410 Saybrook Rd Lower Level, Middletown, CT 06457", "city": "Middletown", "state": "Connecticut", "state_code": "CT", "phone": "+1 860-358-2270", "website": "http://middlesexhealth.org/location-finder/middlesex-health-urology-middletown", "rating": 2.7, "reviews": 21, "place_id": "ChIJnwolkQRK5okRiuKJz2ivqmY", "latitude": 41.5451126, "longitude": -72.6278214, "subtypes": "Urologist"}, {"name": "Joshua Stein, MD", "address": "360 Tolland Turnpike #3b, Manchester, CT 06042", "city": "Manchester", "state": "Connecticut", "state_code": "CT", "phone": "+1 860-643-2731", "website": "https://hartfordhealthcaremedicalgroup.org/JoshuaStein", "rating": 4.8, "reviews": 211, "place_id": "ChIJe9s1MQlX5okRyBNIgrii9JY", "latitude": 41.8100894, "longitude": -72.5216906, "subtypes": "Urologist"}, {"name": "Yale Medicine Urology", "address": "55 Holly Hill Ln Ste 110, Greenwich, CT 06830", "city": "Greenwich", "state": "Connecticut", "state_code": "CT", "phone": "+1 877-925-3637", "website": "https://www.yalemedicine.org/departments/urology", "rating": 3.9, "reviews": 7, "place_id": "ChIJlRgGTI_xwokR3geAH3BvDrs", "latitude": 41.0162895, "longitude": -73.6466533, "subtypes": "Urology clinic"}, {"name": "Trinity Health Of New England - Urology", "address": "490 Blue Hills Ave 4th Floor, Hartford, CT 06112", "city": "Hartford", "state": "Connecticut", "state_code": "CT", "phone": "+1 203-709-8326", "website": "https://www.trinityhealthofne.org/location/trinity-health-of-new-england-medical-group-urology", "rating": 4.8, "reviews": 9, "place_id": "ChIJc0Qs4S8N54kRtYQ4WEblnak", "latitude": 41.8000519, "longitude": -72.6945989, "subtypes": "Urologist"}, {"name": "Kenneth Weisman, MD", "address": "538 Litchfield St, Torrington, CT 06790", "city": "Torrington", "state": "Connecticut", "state_code": "CT", "phone": "+1 860-496-8990", "website": "https://hartfordhealthcaremedicalgroup.org/KennethWeisman", "rating": 4.8, "reviews": 124, "place_id": "ChIJf1Qqy2TMSYgRyWctpdMYMrI", "latitude": 41.7923385, "longitude": -73.1311643, "subtypes": "Urologist"}, {"name": "G Trono, MD", "address": "490 Blue Hills Ave 4th Floor, Hartford, CT 06112", "city": "Hartford", "state": "Connecticut", "state_code": "CT", "phone": "+1 203-709-8326", "website": "https://www.trinityhealthofne.org/provider/g-thomas-trono-jr-md-urology", "rating": 5, "reviews": 7, "place_id": "ChIJiUSp17VV5okRKy1fJS8S6Lk", "latitude": 41.8000519, "longitude": -72.6945989, "subtypes": "Urologist"}, {"name": "Anthony DiStefano, MD", "address": "360 Tolland Turnpike #3b, Manchester, CT 06042", "city": "Manchester", "state": "Connecticut", "state_code": "CT", "phone": "+1 860-643-2731", "website": "https://hartfordhealthcaremedicalgroup.org/AnthonyDistefano", "rating": 4.7, "reviews": 84, "place_id": "ChIJqdwslfVX5okRp6jAdpgCLMM", "latitude": 41.810161, "longitude": -72.5217971, "subtypes": "Urologist"}, {"name": "David Rosenberg, MD", "address": "360 Tolland Turnpike, Manchester, CT 06042", "city": "Manchester", "state": "Connecticut", "state_code": "CT", "phone": "+1 860-643-2731", "website": "https://hartfordhealthcaremedicalgroup.org/DavidRosenberg", "rating": 4.9, "reviews": 173, "place_id": "ChIJu7j4KzT25okRgriWZk_XEmk", "latitude": 41.8100894, "longitude": -72.5216906, "subtypes": "Urologist"}, {"name": "Jillian Ferraguto, APRN", "address": "330 Western Blvd 2nd floor, Glastonbury, CT 06033", "city": "Glastonbury", "state": "Connecticut", "state_code": "CT", "phone": "+1 860-947-8500", "website": "https://hartfordhealthcaremedicalgroup.org/JillianFerraguto", "rating": 4.8, "reviews": 35, "place_id": "ChIJ0zJ8d4tR5okRMSU2rqjFlls", "latitude": 41.7203842, "longitude": -72.5868777, "subtypes": "Urologist"}, {"name": "Dr. David Crawley", "address": "330 Washington St #350, Norwich, CT 06360", "city": "Norwich", "state": "Connecticut", "state_code": "CT", "phone": "+1 860-886-1956", "website": "https://hartfordhealthcaremedicalgroup.org/find-a-doctor/physician-detail/DavidCrawley", "rating": 5, "reviews": 1, "place_id": "ChIJzYWqn3Rx5okRvgapad_3lPA", "latitude": 41.5432233, "longitude": -72.0884767, "subtypes": "Urologist"}, {"name": "Regan Adine MD", "address": "31 Sycamore St STE 202, Glastonbury, CT 06033", "city": "Glastonbury", "state": "Connecticut", "state_code": "CT", "phone": "+1 860-678-7300", "website": "http://womenshealthct.com/", "rating": 4.9, "reviews": 104, "place_id": "ChIJ_81RcppR5okRDnKp9eQenBw", "latitude": 41.712678, "longitude": -72.59818779999999, "subtypes": "Urologist"}, {"name": "Hartford Urology Group", "address": "300 Hebron Ave STE 207, Glastonbury, CT 06033", "city": "Glastonbury", "state": "Connecticut", "state_code": "CT", "phone": "+1 860-659-0585", "website": "https://www.greaterhartfordurologygroup.com/", "rating": 2.8, "reviews": 4, "place_id": "ChIJ-U1Bl5pR5okR1dkDlGfB2wI", "latitude": 41.7128713, "longitude": -72.6013933, "subtypes": "Urology clinic"}, {"name": "Eric Katz, MD", "address": "85 Seymour St Suite 416, Hartford, CT 06106", "city": "Hartford", "state": "Connecticut", "state_code": "CT", "phone": "+1 860-947-8500", "website": "https://hartfordhealthcaremedicalgroup.org/EricKatz", "rating": 4.9, "reviews": 55, "place_id": "ChIJ83A8c55T5okRh78tdQJ2qJI", "latitude": 41.7545087, "longitude": -72.6816703, "subtypes": "Urologist"}, {"name": "Associated Urologists", "address": "7 Keynote Dr, Vernon, CT 06066", "city": "Vernon", "state": "Connecticut", "state_code": "CT", "phone": "+1 860-871-7610", "website": "", "rating": 2, "reviews": 1, "place_id": "ChIJu7j4KzT25okR0CzMkPaskbM", "latitude": 41.834136, "longitude": -72.46820029999999, "subtypes": "Urologist"}, {"name": "Prime Healthcare: Elevate Urology", "address": "730 Hebron Ave suite 10, Glastonbury, CT 06033", "city": "Glastonbury", "state": "Connecticut", "state_code": "CT", "phone": "+1 860-266-5550", "website": "http://elevateurology.com/", "rating": 5, "reviews": 9, "place_id": "ChIJux7VIgBR5okRYJxMn4w9cLo", "latitude": 41.7151586, "longitude": -72.5842105, "subtypes": "Urologist"}, {"name": "Shaun Hager", "address": "330 Washington St #350, Norwich, CT 06360", "city": "Norwich", "state": "Connecticut", "state_code": "CT", "phone": "+1 860-886-1956", "website": "", "rating": 5, "reviews": 1, "place_id": "ChIJzYWqn3Rx5okRWRNm0TieDpE", "latitude": 41.5432233, "longitude": -72.0884767, "subtypes": "Urologist"}, {"name": "Dr. David Ahlborn", "address": "85 Seymour St Suite 416, Hartford, CT 06106", "city": "Hartford", "state": "Connecticut", "state_code": "CT", "phone": "+1 860-524-8643", "website": "", "rating": 5, "reviews": 31, "place_id": "ChIJS8sFNmtT5okRSwiGq3eTgHQ", "latitude": 41.7545087, "longitude": -72.6816703, "subtypes": "Urologist"}, {"name": "Associated Urologists PC", "address": "360 Tolland Turnpike, Manchester, CT 06042", "city": "Manchester", "state": "Connecticut", "state_code": "CT", "phone": "+1 860-643-2731", "website": "", "rating": 3.4, "reviews": 5, "place_id": "ChIJoctvP9hZ5okRD08d2HNNaMU", "latitude": 41.8100647, "longitude": -72.5217724, "subtypes": "Urologist"}, {"name": "Amy Trowbridge, APRN", "address": "85 Seymour St Suite 416, Hartford, CT 06106", "city": "Hartford", "state": "Connecticut", "state_code": "CT", "phone": "+1 860-947-8500", "website": "https://hartfordhealthcaremedicalgroup.org/AmyTrowbridge", "rating": 5, "reviews": 23, "place_id": "ChIJD3BoYtNT5okRNb-zFIzvqhg", "latitude": 41.7545087, "longitude": -72.6816703, "subtypes": "Urologist"}, {"name": "Hartford HealthCare Medical Group", "address": "376 Tolland Turnpike #202, Manchester, CT 06042", "city": "Manchester", "state": "Connecticut", "state_code": "CT", "phone": "+1 860-947-8500", "website": "https://hartfordhealthcare.org/services/cancer-care/locations/manchester", "rating": 2.7, "reviews": 7, "place_id": "ChIJi2o_qJlX5okR-b_kjgqJ6eA", "latitude": 41.8100911, "longitude": -72.5228518, "subtypes": "Urology clinic"}, {"name": "Peter Bosco, MD", "address": "19 Woodland St STE 23, Hartford, CT 06105", "city": "Hartford", "state": "Connecticut", "state_code": "CT", "phone": "+1 860-522-2251", "website": "http://www.greaterhartfordurologygroup.com/", "rating": 3.7, "reviews": 6, "place_id": "ChIJk64mllFT5okRFcH3kI_AK0U", "latitude": 41.7687192, "longitude": -72.70283409999999, "subtypes": "Urologist"}, {"name": "Herter Geoffrey E MD", "address": "520 Saybrook Rd, Middletown, CT 06457", "city": "Middletown", "state": "Connecticut", "state_code": "CT", "phone": "+1 860-347-4258", "website": "", "rating": "", "reviews": "", "place_id": "ChIJnwolkQRK5okRO9fW33poVlo", "latitude": 41.5413943, "longitude": -72.6221161, "subtypes": "Urologist"}, {"name": "Franklin Friedman", "address": "326 Washington St, Norwich, CT 06360", "city": "Norwich", "state": "Connecticut", "state_code": "CT", "phone": "+1 860-545-7609", "website": "", "rating": 5, "reviews": 1, "place_id": "ChIJ97TWhXRx5okRWlrkVle1Q34", "latitude": 41.5425414, "longitude": -72.0888772, "subtypes": "Urologist"}, {"name": "Wagner Joseph R MD", "address": "85 Seymour St Suite 416, Hartford, CT 06106", "city": "Hartford", "state": "Connecticut", "state_code": "CT", "phone": "+1 860-947-8500", "website": "http://www.hartfordmedicalgroup.com/", "rating": 5, "reviews": 2, "place_id": "ChIJZ6_-S2tT5okRKailWnta98c", "latitude": 41.7545043, "longitude": -72.6812432, "subtypes": "Urologist"}, {"name": "Dr. Douglas H. Viets, MD", "address": "85 Seymour St # 505, Hartford, CT 06106", "city": "Hartford", "state": "Connecticut", "state_code": "CT", "phone": "+1 860-947-8500", "website": "http://www.hartfordmedicalgroup.com/", "rating": 5, "reviews": 1, "place_id": "ChIJZ6_-S2tT5okRXqueehkcvJM", "latitude": 41.7545043, "longitude": -72.6812432, "subtypes": "Urologist"}, {"name": "Dr. Carlos Medina", "address": "85 Seymour St, Hartford, CT 06106", "city": "Hartford", "state": "Connecticut", "state_code": "CT", "phone": "+1 860-837-7500", "website": "", "rating": 5, "reviews": 1, "place_id": "ChIJq6rqM2tT5okR2nI0P2EVwiY", "latitude": 41.7544767, "longitude": -72.6820975, "subtypes": "Urologist"}, {"name": "Jennifer Wilcox, APRN", "address": "85 Seymour St #525, Hartford, CT 06106", "city": "Hartford", "state": "Connecticut", "state_code": "CT", "phone": "+1 860-972-4338", "website": "https://hartfordhealthcare.org/JenniferWilcox", "rating": 4.9, "reviews": 22, "place_id": "ChIJq8bJQU1T5okRoGmWpaP5z4o", "latitude": 41.7544905, "longitude": -72.6816703, "subtypes": "Urologist"}, {"name": "Shanta Shepherd", "address": "730 Hebron Ave suite 10, Glastonbury, CT 06033", "city": "Glastonbury", "state": "Connecticut", "state_code": "CT", "phone": "+1 860-266-5550", "website": "http://elevateurology.com/", "rating": 5, "reviews": 4, "place_id": "ChIJjZN6llFT5okRIkxKOL6rL2o", "latitude": 41.7153828, "longitude": -72.58432499999999, "subtypes": "Urologist"}, {"name": "Tallwood Urology & Kidney Institute", "address": "360 Tolland Turnpike #3b, Manchester, CT 06040", "city": "Manchester", "state": "Connecticut", "state_code": "CT", "phone": "+1 860-643-2731", "website": "https://hartfordhealthcare.org/services/urology-kidney/locations/hartford-healthcare-medical-group/360-tolland-turnpike-suite-3b-manchester", "rating": 1, "reviews": 5, "place_id": "ChIJ0zUH5-ZX5okRGhvruqowaC4", "latitude": 41.8100894, "longitude": -72.5216906, "subtypes": "Urology clinic"}, {"name": "Hartford HealthCare Medical Group - Urology", "address": "85 Seymour St Suite 604, Hartford, CT 06106", "city": "Hartford", "state": "Connecticut", "state_code": "CT", "phone": "+1 860-947-8500", "website": "http://www.hartfordmedicalgroup.com/", "rating": 1, "reviews": 6, "place_id": "ChIJwSQ4SWtT5okRAAOjroaXQtE", "latitude": 41.7545127, "longitude": -72.68131489999999, "subtypes": "Urology clinic"}, {"name": "Dr. Johnny A. Chang, MD", "address": "538 Litchfield St Suite 102, Torrington, CT 06790", "city": "Torrington", "state": "Connecticut", "state_code": "CT", "phone": "+1 860-496-8990", "website": "https://weence.com/medical/doctors/torrington-1/dr-johnny-a-chang-md/", "rating": 3.3, "reviews": 16, "place_id": "ChIJ9flsEkyY54kRdUcWBhbsurk", "latitude": 41.7923664, "longitude": -73.1339424, "subtypes": "Urologist"}, {"name": "Shanta Shepherd", "address": "300 Hebron Ave, Glastonbury, CT 06033", "city": "Glastonbury", "state": "Connecticut", "state_code": "CT", "phone": "+1 860-522-2251", "website": "", "rating": 5, "reviews": 2, "place_id": "ChIJ4_CZnppR5okRn0hteT6tvxA", "latitude": 41.7129406, "longitude": -72.601484, "subtypes": "Urologist"}, {"name": "G. Thomas Trono, MD", "address": "19 Woodland St STE 23, Hartford, CT 06105", "city": "Hartford", "state": "Connecticut", "state_code": "CT", "phone": "+1 860-522-2251", "website": "http://www.greaterhartfordurologygroup.com/", "rating": 3.4, "reviews": 5, "place_id": "ChIJk64mllFT5okRypMFxSOh_OE", "latitude": 41.7686098, "longitude": -72.7024701, "subtypes": "Urologist"}, {"name": "Brad St. Martin, MD", "address": "330 Washington St #350, Norwich, CT 06360", "city": "Norwich", "state": "Connecticut", "state_code": "CT", "phone": "+1 860-972-4338", "website": "https://hartfordhealthcaremedicalgroup.org/BradStmartin", "rating": 4.9, "reviews": 16, "place_id": "ChIJQUNOCQZx5okRIjOI8HSUVmw", "latitude": 41.5432233, "longitude": -72.0884767, "subtypes": "Urologist"}, {"name": "Urology Associates-Danbury: Broder Stanford R MD", "address": "53 Kenosia Ave, Danbury, CT 06810", "city": "Danbury", "state": "Connecticut", "state_code": "CT", "phone": "+1 203-748-0330", "website": "http://danburyurology.com/", "rating": 3.6, "reviews": 8, "place_id": "ChIJ1xCLXRNV3YkR88WBNGB0LGY", "latitude": 41.3756776, "longitude": -73.491826, "subtypes": "Urologist"}, {"name": "Kai Hammerich, MD PhD", "address": "71 Haynes St, Manchester, CT 06040", "city": "Manchester", "state": "Connecticut", "state_code": "CT", "phone": "+1 860-647-4721", "website": "https://www.echn.org/physicians/kai-hans-hammerich/", "rating": 3.4, "reviews": 14, "place_id": "ChIJN-XtBjO654kRUSoalZDcCLU", "latitude": 41.7819971, "longitude": -72.5255243, "subtypes": "Urologist"}, {"name": "Urology Clinic", "address": "Williams St, Hartford, CT 06120", "city": "Hartford", "state": "Connecticut", "state_code": "CT", "phone": "", "website": "", "rating": "", "reviews": "", "place_id": "ChIJaW7Ay59U5okRPRW19FPqBbA", "latitude": 41.7747648, "longitude": -72.6833941, "subtypes": "Urology clinic"}, {"name": "Mccullough T Casey MD", "address": "330 Washington St #350, Norwich, CT 06360", "city": "Norwich", "state": "Connecticut", "state_code": "CT", "phone": "+1 860-886-1956", "website": "", "rating": 1, "reviews": 1, "place_id": "ChIJ-1iqn3Rx5okRW3VH95hE_eY", "latitude": 41.5432233, "longitude": -72.0884767, "subtypes": "Urologist"}, {"name": "Albertsen Peter C MD", "address": "263 Farmington Ave, Farmington, CT 06030", "city": "Farmington", "state": "Connecticut", "state_code": "CT", "phone": "+1 860-679-2000", "website": "", "rating": 2.7, "reviews": 10, "place_id": "ChIJma6b_dyt54kRPWRXpBjyIxE", "latitude": 41.7303916, "longitude": -72.7906525, "subtypes": "Urologist"}, {"name": "Wiseman Dana MD", "address": "40 Wagon Rd, Glastonbury, CT 06033", "city": "Glastonbury", "state": "Connecticut", "state_code": "CT", "phone": "+1 860-657-4800", "website": "", "rating": 5, "reviews": 1, "place_id": "ChIJ88x_fcFR5okRz_mVAD-7BtQ", "latitude": 41.6963889, "longitude": -72.5877812, "subtypes": "Urologist"}, {"name": "Yale Urology", "address": "800 Howard Ave # 3, New Haven, CT 06519", "city": "New Haven", "state": "Connecticut", "state_code": "CT", "phone": "+1 203-785-2815", "website": "http://urology.yale.edu/%3Futm_source%3DGMBSocialClimb%26utm_medium%3DYaleUrology", "rating": 2.6, "reviews": 30, "place_id": "ChIJPbL2i1HY54kRvnN0xpkR8Ww", "latitude": 41.302584, "longitude": -72.936415, "subtypes": "Urology clinic"}, {"name": "Cynthia P Leung", "address": "330 Western Blvd Floor two, Glastonbury, CT 06033", "city": "Glastonbury", "state": "Connecticut", "state_code": "CT", "phone": "+1 860-657-4723", "website": "", "rating": 5, "reviews": 1, "place_id": "ChIJQ1xwCwpR5okRgIiWNwI_X5U", "latitude": 41.7210584, "longitude": -72.5865639, "subtypes": "Urologist"}, {"name": "Urology Specialists, P.C.", "address": "1320 W Main St bldg 2, Waterbury, CT 06708", "city": "Waterbury", "state": "Connecticut", "state_code": "CT", "phone": "+1 203-757-8361", "website": "", "rating": 2.7, "reviews": 27, "place_id": "ChIJh-3IQXHq54kR3vkQ_QOn7Rk", "latitude": 41.5514357, "longitude": -73.06642219999999, "subtypes": "Urology clinic"}, {"name": "Manetti Guy J MD", "address": "51-53 Kenosia Ave, Danbury, CT 06810", "city": "Danbury", "state": "Connecticut", "state_code": "CT", "phone": "+1 203-748-0330", "website": "http://danburyurology.com/", "rating": "", "reviews": "", "place_id": "ChIJ7dLEhBRV3YkR41UJeJJul7A", "latitude": 41.375812, "longitude": -73.49099799999999, "subtypes": "Urologist"}, {"name": "Kosto Bernard MD", "address": "455 Lewis Ave # 210, Meriden, CT 06451", "city": "Meriden", "state": "Connecticut", "state_code": "CT", "phone": "+1 203-886-0036", "website": "http://www.connecticutgi.org/", "rating": "", "reviews": "", "place_id": "ChIJK2iTugLK54kR4ltdH0ULHGA", "latitude": 41.5493533, "longitude": -72.8007712, "subtypes": "Urologist"}, {"name": "Dr. Geoffrey E. Herter, MD", "address": "14 Jones Hollow Rd, Marlborough, CT 06447", "city": "Marlborough", "state": "Connecticut", "state_code": "CT", "phone": "+1 860-295-8217", "website": "", "rating": "", "reviews": "", "place_id": "ChIJeaOS7e9E5okRqkyzpYH6E4s", "latitude": 41.6339479, "longitude": -72.4608106, "subtypes": "Urologist"}, {"name": "Dr. James C. Boyle, MD", "address": "19 Woodland St STE 23, Hartford, CT 06105", "city": "Hartford", "state": "Connecticut", "state_code": "CT", "phone": "+1 860-522-2251", "website": "", "rating": "", "reviews": "", "place_id": "ChIJk64mllFT5okRqw0GUdCl2DQ", "latitude": 41.7686098, "longitude": -72.7024701, "subtypes": "Urologist"}, {"name": "Dr. Bernard Kosto, MD", "address": "85 Seymour St # 505, Hartford, CT 06106", "city": "Hartford", "state": "Connecticut", "state_code": "CT", "phone": "+1 860-947-8500", "website": "http://www.hartfordmedicalgroup.com/", "rating": "", "reviews": "", "place_id": "ChIJZ6_-S2tT5okRKLhHHVmi08o", "latitude": 41.7545043, "longitude": -72.6812432, "subtypes": "Urologist"}, {"name": "Dr. Hugh A. Kennedy, MD", "address": "19 Woodland St STE 23, Hartford, CT 06105", "city": "Hartford", "state": "Connecticut", "state_code": "CT", "phone": "+1 860-522-2251", "website": "http://www.stfranciscare.org/", "rating": "", "reviews": "", "place_id": "ChIJk64mllFT5okR0ZilJafqhnc", "latitude": 41.7686098, "longitude": -72.7024701, "subtypes": "Urologist"}, {"name": "Dr. Richard Kershen", "address": "80 Seymour St, Hartford, CT 06115", "city": "Hartford", "state": "Connecticut", "state_code": "CT", "phone": "+1 860-545-2791", "website": "", "rating": 3, "reviews": 2, "place_id": "ChIJhSrKTmtT5okRvWMAP6bYfZc", "latitude": 41.7545043, "longitude": -72.6812432, "subtypes": "Urologist"}, {"name": "Breanna Guglielmi, APRN", "address": "85 Seymour St #416, Hartford, CT 06106", "city": "Hartford", "state": "Connecticut", "state_code": "CT", "phone": "+1 860-947-8500", "website": "https://hartfordhealthcaremedicalgroup.org/BreannaGuglielmi", "rating": "", "reviews": "", "place_id": "ChIJpbCVNENT5okRXDoa7qcM78s", "latitude": 41.7546796, "longitude": -72.6796209, "subtypes": "Urologist"}, {"name": "Joseph Wagner", "address": "360 Tolland Turnpike Fl 3, Manchester, CT 06042", "city": "Manchester", "state": "Connecticut", "state_code": "CT", "phone": "+1 860-643-2731", "website": "", "rating": "", "reviews": "", "place_id": "ChIJPcF0lfVX5okRTjRC01SsvCg", "latitude": 41.8100374, "longitude": -72.5218623, "subtypes": "Urologist"}, {"name": "Courtney K. Rowe, MD", "address": "282 Washington St, Hartford, CT 06106", "city": "Hartford", "state": "Connecticut", "state_code": "CT", "phone": "+1 860-545-9395", "website": "https://www.connecticutchildrens.org/about-us/find-a-doctor/courtney-rowe-md/", "rating": 5, "reviews": 2, "place_id": "ChIJ9V5lHk5T5okRm-zTBeXNOv4", "latitude": 41.7532738, "longitude": -72.6815347, "subtypes": "Pediatric urologist"}, {"name": "Tallwood Urology & Kidney Institute - Urology", "address": "7 Elm St #307, Enfield, CT 06082", "city": "Enfield", "state": "Connecticut", "state_code": "CT", "phone": "+1 860-947-8500", "website": "https://hartfordhealthcare.org/services/urology-kidney/locations/hartford-healthcare-medical-group/7-elm-street-suite-307-enfield", "rating": 2, "reviews": 1, "place_id": "ChIJcdcwc-Dl5okRu31SBIdL2UE", "latitude": 41.998634, "longitude": -72.5927203, "subtypes": "Urologist"}, {"name": "Peter Bosco, MD", "address": "300 Hebron Ave STE 207, Glastonbury, CT 06033", "city": "Glastonbury", "state": "Connecticut", "state_code": "CT", "phone": "+1 860-659-0585", "website": "https://www.greaterhartfordurologygroup.com/", "rating": 3.7, "reviews": 3, "place_id": "ChIJ-U1Bl5pR5okRZkKVMdg77eo", "latitude": 41.7129607, "longitude": -72.6016583, "subtypes": "Urologist"}, {"name": "Burcu Kuruca, APRN", "address": "7 Elm St #307, Enfield, CT 06082", "city": "Enfield", "state": "Connecticut", "state_code": "CT", "phone": "+1 860-253-3380", "website": "https://hartfordhealthcaremedicalgroup.org/BurcuKuruca", "rating": 5, "reviews": 27, "place_id": "ChIJ0Vi5X97l5okRJLTX_F4_Ihw", "latitude": 41.998634, "longitude": -72.5927203, "subtypes": "Urologist"}, {"name": "Dr. Laurie A. Loiacono, MD", "address": "114 Woodland St # 1, Hartford, CT 06105", "city": "Hartford", "state": "Connecticut", "state_code": "CT", "phone": "+1 860-714-4000", "website": "http://www.stfranciscare.org/", "rating": "", "reviews": "", "place_id": "ChIJmTsEwFdT5okRngop43SOpUs", "latitude": 41.77475, "longitude": -72.69950899999999, "subtypes": "Urologist"}, {"name": "Stuart Kesler", "address": "80 Seymour St, Hartford, CT 06115", "city": "Hartford", "state": "Connecticut", "state_code": "CT", "phone": "+1 860-545-2791", "website": "", "rating": "", "reviews": "", "place_id": "ChIJhSrKTmtT5okRaQ_EBEExcXQ", "latitude": 41.7545043, "longitude": -72.6812432, "subtypes": "Urologist"}, {"name": "Dr. Stuart S. Kesler, MD", "address": "330 Western Blvd, Glastonbury, CT 06033", "city": "Glastonbury", "state": "Connecticut", "state_code": "CT", "phone": "+1 860-947-8500", "website": "http://www.hartfordmedicalgroup.com/", "rating": 2.3, "reviews": 3, "place_id": "ChIJQ1xwCwpR5okRHZWy4ncCZYk", "latitude": 41.7203607, "longitude": -72.5869335, "subtypes": "Urologist"}, {"name": "Dr. Jeffrey Steinberg, MD", "address": "1000 Asylum Ave, Hartford, CT 06105", "city": "Hartford", "state": "Connecticut", "state_code": "CT", "phone": "+1 860-714-5237", "website": "", "rating": "", "reviews": "", "place_id": "ChIJ92EVVldT5okRfgzbzw5AU8I", "latitude": 41.7728999, "longitude": -72.69862499999999, "subtypes": "Urologist"}, {"name": "Dr. Arthur Tarantino", "address": "85 Seymour St Suite 416, Hartford, CT 06106", "city": "Hartford", "state": "Connecticut", "state_code": "CT", "phone": "+1 860-478-8500", "website": "https://hartfordhospital.org/find-a-doctor/physician-detail/ArthurTarantino", "rating": 1, "reviews": 1, "place_id": "ChIJS8sFNmtT5okRz1tVrI7Hxco", "latitude": 41.7545087, "longitude": -72.6816703, "subtypes": "Urologist"}, {"name": "Di Stefano Anthony MD", "address": "360 Tolland Turnpike, Manchester, CT 06042", "city": "Manchester", "state": "Connecticut", "state_code": "CT", "phone": "+1 860-871-7610", "website": "", "rating": "", "reviews": "", "place_id": "ChIJMc11n_VX5okRV1eqr3nWsk0", "latitude": 41.809142, "longitude": -72.521889, "subtypes": "Urologist"}, {"name": "Brooke Harnisch", "address": "263 Farmington Ave, Farmington, CT 06032", "city": "Farmington", "state": "Connecticut", "state_code": "CT", "phone": "+1 860-679-4100", "website": "https://facultydirectory.uchc.edu/profile%3FprofileId%3DHarnisch-Brooke", "rating": 1, "reviews": 1, "place_id": "ChIJDQk6ocKt54kRayTnEr8PcXo", "latitude": 41.7327995, "longitude": -72.79110589999999, "subtypes": "Urologist"}, {"name": "Michael Goltzman", "address": "19 Woodland St STE 23, Hartford, CT 06105", "city": "Hartford", "state": "Connecticut", "state_code": "CT", "phone": "+1 860-522-2251", "website": "https://www.greaterhartfordurologygroup.com/our-team/michael-goltzman-md-ms/", "rating": "", "reviews": "", "place_id": "ChIJ4T1d2mdT5okRMxyWTPvU6VM", "latitude": 41.7686098, "longitude": -72.7024701, "subtypes": "Urologist"}, {"name": "Dr. R J. Graydon, MD", "address": "330 Western Blvd, Glastonbury, CT 06033", "city": "Glastonbury", "state": "Connecticut", "state_code": "CT", "phone": "+1 860-947-8500", "website": "http://www.hartfordmedicalgroup.com/", "rating": "", "reviews": "", "place_id": "ChIJQ1xwCwpR5okRX4HPQePmzbk", "latitude": 41.7203607, "longitude": -72.5869335, "subtypes": "Urologist"}, {"name": "La Montagne Arthur E MD", "address": "116 E Center St # 19, Manchester, CT 06040", "city": "Manchester", "state": "Connecticut", "state_code": "CT", "phone": "+1 860-643-2731", "website": "", "rating": "", "reviews": "", "place_id": "ChIJoctvP9hZ5okREMDe3lU-bZ0", "latitude": 41.7760716, "longitude": -72.5186877, "subtypes": "Urologist"}, {"name": "Anoop Meraney", "address": "330 Western Blvd #200, Glastonbury, CT 06033", "city": "Glastonbury", "state": "Connecticut", "state_code": "CT", "phone": "+1 860-246-2071", "website": "https://hartfordhospital.org/find-a-doctor/physician-detail/AnoopMeraney", "rating": "", "reviews": "", "place_id": "ChIJm8juEwpR5okR3pL37ltU7as", "latitude": 41.7209526, "longitude": -72.5867189, "subtypes": "Urologist"}, {"name": "Silk Mark R MD", "address": "1000 Asylum Ave # 2101, Hartford, CT 06105", "city": "Hartford", "state": "Connecticut", "state_code": "CT", "phone": "+1 860-522-7134", "website": "", "rating": "", "reviews": "", "place_id": "ChIJ92EVVldT5okRWIuPRKH9AFU", "latitude": 41.77288859999999, "longitude": -72.6987123, "subtypes": "Urologist"}, {"name": "Anne G. Dudley, MD", "address": "282 Washington St, Hartford, CT 06106", "city": "Hartford", "state": "Connecticut", "state_code": "CT", "phone": "+1 860-545-9395", "website": "https://www.connecticutchildrens.org/about-us/find-a-doctor/anne-g-dudley-md/", "rating": "", "reviews": "", "place_id": "ChIJKVKDaCryNIgRKN1L7x_KvOE", "latitude": 41.7532738, "longitude": -72.6815347, "subtypes": "Pediatric urologist"}, {"name": "Dr. Steven L. Shichman, MD", "address": "330 Western Blvd, Glastonbury, CT 06033", "city": "Glastonbury", "state": "Connecticut", "state_code": "CT", "phone": "+1 860-947-8500", "website": "http://www.hartfordmedicalgroup.com/", "rating": "", "reviews": "", "place_id": "ChIJQ1xwCwpR5okRbLqvvmVLBvk", "latitude": 41.7203607, "longitude": -72.5869335, "subtypes": "Urologist"}, {"name": "Dr. Joseph R. Wagner, MD", "address": "330 Western Blvd, Glastonbury, CT 06033", "city": "Glastonbury", "state": "Connecticut", "state_code": "CT", "phone": "+1 860-947-8500", "website": "http://www.hartfordmedicalgroup.com/", "rating": "", "reviews": "", "place_id": "ChIJQ1xwCwpR5okRf9pNxuTK4wQ", "latitude": 41.7203607, "longitude": -72.5869335, "subtypes": "Urologist"}, {"name": "Tallwood Urology & Kidney Institute", "address": "205 Sub Way #200, Milford, CT 06461", "city": "Milford", "state": "Connecticut", "state_code": "CT", "phone": "+1 203-338-8760", "website": "https://hartfordhealthcare.org/services/urology-kidney/locations", "rating": "", "reviews": "", "place_id": "ChIJUU42P1l16IkR_e9i5vC18QM", "latitude": 41.2149368, "longitude": -73.0876376, "subtypes": "Urologist"}, {"name": "Cynthia Leung", "address": "85 Seymour St, Hartford, CT 06106", "city": "Hartford", "state": "Connecticut", "state_code": "CT", "phone": "+1 860-676-4010", "website": "", "rating": "", "reviews": "", "place_id": "ChIJq6rqM2tT5okRjMLrw0IP9zI", "latitude": 41.7544767, "longitude": -72.6820975, "subtypes": "Urologist"}, {"name": "Courtney K. Rowe, MD", "address": "310 Western Blvd, Glastonbury, CT 06033", "city": "Glastonbury", "state": "Connecticut", "state_code": "CT", "phone": "+1 860-545-9395", "website": "https://www.connecticutchildrens.org/about-us/find-a-doctor/courtney-rowe-md/", "rating": "", "reviews": "", "place_id": "ChIJyTiozKVR5okRz8tlwayzWhE", "latitude": 41.7203388, "longitude": -72.5875813, "subtypes": "Pediatric urologist"}, {"name": "Middlesex Health Urology - Marlborough", "address": "14 Jones Hollow Rd, Marlborough, CT 06447", "city": "Marlborough", "state": "Connecticut", "state_code": "CT", "phone": "+1 860-358-2270", "website": "http://middlesexhealth.org/location-finder/middlesex-health-urology-marlborough", "rating": "", "reviews": "", "place_id": "ChIJY2lMQSNF5okRXSOE_x69_jw", "latitude": 41.6339479, "longitude": -72.4608106, "subtypes": "Urologist"}, {"name": "Roland Graydon", "address": "85 Seymour St Suite 416, Hartford, CT 06106", "city": "Hartford", "state": "Connecticut", "state_code": "CT", "phone": "+1 860-246-2071", "website": "", "rating": "", "reviews": "", "place_id": "ChIJS8sFNmtT5okRJ5lHSg1TqQw", "latitude": 41.7545087, "longitude": -72.6816703, "subtypes": "Urologist"}, {"name": "Rodner Robert D MD", "address": "360 Tolland Turnpike #3b, Manchester, CT 06042", "city": "Manchester", "state": "Connecticut", "state_code": "CT", "phone": "+1 860-643-2731", "website": "", "rating": "", "reviews": "", "place_id": "ChIJMc11n_VX5okRCyDZ8JtSdNM", "latitude": 41.810087, "longitude": -72.52176589999999, "subtypes": "Urologist"}, {"name": "Hartford Specialists: Ely III Matthew G MD", "address": "330 Western Blvd # 200, Glastonbury, CT 06033", "city": "Glastonbury", "state": "Connecticut", "state_code": "CT", "phone": "+1 860-947-8500", "website": "", "rating": "", "reviews": "", "place_id": "ChIJQ1xwCwpR5okRfm4UhRZXsNM", "latitude": 41.7203842, "longitude": -72.5868777, "subtypes": "Urologist"}, {"name": "Dr. Jeffrey Morgenstern", "address": "80 Seymour St, Hartford, CT 06115", "city": "Hartford", "state": "Connecticut", "state_code": "CT", "phone": "+1 860-545-2791", "website": "", "rating": "", "reviews": "", "place_id": "ChIJhSrKTmtT5okRNRdZppkeHc8", "latitude": 41.7545043, "longitude": -72.6812432, "subtypes": "Urologist"}, {"name": "Laudone Vincent P MD", "address": "85 Seymour St Suite 416, Hartford, CT 06106", "city": "Hartford", "state": "Connecticut", "state_code": "CT", "phone": "+1 860-947-8500", "website": "http://www.hartfordhealthcaremedicalgroup.org/", "rating": "", "reviews": "", "place_id": "ChIJZ6_-S2tT5okREC85DCNmW0s", "latitude": 41.7545043, "longitude": -72.6812432, "subtypes": "Urologist"}, {"name": "Berlin Bert B MD", "address": "85 Seymour St, Hartford, CT 06106", "city": "Hartford", "state": "Connecticut", "state_code": "CT", "phone": "+1 860-246-6589", "website": "http://www.jeffersonradiology.com/", "rating": "", "reviews": "", "place_id": "ChIJZ6_-S2tT5okR2Ga9GuwO3U4", "latitude": 41.7545043, "longitude": -72.6812432, "subtypes": "Urologist"}, {"name": "Dr. Katherine S. Rhee, MD", "address": "330 Western Blvd # 200, Glastonbury, CT 06033", "city": "Glastonbury", "state": "Connecticut", "state_code": "CT", "phone": "+1 860-947-8500", "website": "http://www.hartfordmedicalgroup.com/", "rating": "", "reviews": "", "place_id": "ChIJQ1xwCwpR5okRIyqBPw-IG6A", "latitude": 41.7203842, "longitude": -72.5868777, "subtypes": "Urologist"}, {"name": "Rhee Katherine MD", "address": "85 Seymour St Suite 416, Hartford, CT 06106", "city": "Hartford", "state": "Connecticut", "state_code": "CT", "phone": "+1 860-246-6589", "website": "http://www.jeffersonradiology.com/", "rating": "", "reviews": "", "place_id": "ChIJZ6_-S2tT5okRlo7Msz0ZOb0", "latitude": 41.7545043, "longitude": -72.6812432, "subtypes": "Urologist"}, {"name": "Richard T. Kershen, MD", "address": "65 Memorial Rd #430, West Hartford, CT 06107", "city": "West Hartford", "state": "Connecticut", "state_code": "CT", "phone": "+1 860-947-8500", "website": "https://hartfordhealthcaremedicalgroup.org/RichardKershen", "rating": 4.8, "reviews": 107, "place_id": "ChIJWW4iaCSt54kR11y08nneMEY", "latitude": 41.7596232, "longitude": -72.7398813, "subtypes": "Urologist"}, {"name": "Jared Bieniek, MD", "address": "10 Birdseye Rd, Farmington, CT 06032", "city": "Farmington", "state": "Connecticut", "state_code": "CT", "phone": "+1 860-678-5700", "website": "https://hartfordhealthcaremedicalgroup.org/JaredBieniek", "rating": 4.8, "reviews": 119, "place_id": "ChIJuYhBk2ut54kRuu53M5tN1dg", "latitude": 41.7244525, "longitude": -72.8046749, "subtypes": "Urologist"}, {"name": "Gjertson Carl K MD", "address": "263 Farmington Ave, Farmington, CT 06030", "city": "Farmington", "state": "Connecticut", "state_code": "CT", "phone": "+1 860-679-4100", "website": "", "rating": 5, "reviews": 4, "place_id": "ChIJma6b_dyt54kRNmxoRBORjvo", "latitude": 41.73111859999999, "longitude": -72.7917738, "subtypes": "Urologist"}, {"name": "Andrew Chang, MD", "address": "499 Farmington Ave #220, Farmington, CT 06032", "city": "Farmington", "state": "Connecticut", "state_code": "CT", "phone": "+1 860-678-7300", "website": "https://hartfordhealthcaremedicalgroup.org/AndrewChang", "rating": 4.5, "reviews": 2, "place_id": "ChIJUTN0PTKt54kRoT1oQstrtVY", "latitude": 41.7265344, "longitude": -72.8029261, "subtypes": "Urologist"}, {"name": "Tallwood Urology & Kidney Institute", "address": "201 N Mountain Rd Suite 300, Plainville, CT 06062", "city": "Plainville", "state": "Connecticut", "state_code": "CT", "phone": "+1 860-348-2500", "website": "https://hartfordhealthcare.org/services/urology-kidney/locations/hartford-healthcare-medical-group/201-north-mountain-road-suite-300-plainville", "rating": 3, "reviews": 1, "place_id": "ChIJm662rMmx54kRo2O9p3tkcM4", "latitude": 41.6747787, "longitude": -72.8223251, "subtypes": "Urology clinic"}, {"name": "Seema Sheth, MD", "address": "499 Farmington Ave #220, Farmington, CT 06032", "city": "Farmington", "state": "Connecticut", "state_code": "CT", "phone": "+1 860-678-7300", "website": "", "rating": 5, "reviews": 10, "place_id": "ChIJmyAJIp6t54kRIHLMEi65o6U", "latitude": 41.7265706, "longitude": -72.8030486, "subtypes": "Urologist"}, {"name": "Dr. R. James Graydon", "address": "399 Farmington Ave Suite 200, Farmington, CT 06032", "city": "Farmington", "state": "Connecticut", "state_code": "CT", "phone": "+1 860-947-8500", "website": "http://www.hartfordhealthcaremedicalgroup.org/physician_detail.php%3FID%3D16", "rating": 5, "reviews": 2, "place_id": "ChIJixOpyuOt54kRDMzOoo2OTOE", "latitude": 41.7279389, "longitude": -72.8012952, "subtypes": "Urologist"}, {"name": "Hartford HealthCare Medical Group Urology", "address": "10 Birdseye Rd, Farmington, CT 06032", "city": "Farmington", "state": "Connecticut", "state_code": "CT", "phone": "+1 860-947-8500", "website": "http://www.hartfordhealthcaremedicalgroup.org/", "rating": 3.7, "reviews": 3, "place_id": "ChIJixOpyuOt54kRAy_BSCfPY9s", "latitude": 41.7278285, "longitude": -72.80164119999999, "subtypes": "Urologist"}, {"name": "Dr. Robert A. Ave'lallemant, MD", "address": "1 Lake St # 200, New Britain, CT 06052", "city": "New Britain", "state": "Connecticut", "state_code": "CT", "phone": "+1 860-826-4453", "website": "", "rating": 5, "reviews": 1, "place_id": "ChIJIbhEbc6z54kR8kuPpMuYUno", "latitude": 41.668823, "longitude": -72.790916, "subtypes": "Urologist"}, {"name": "Alexandra Gunter, APRN", "address": "499 Farmington Ave #220, Farmington, CT 06032", "city": "Farmington", "state": "Connecticut", "state_code": "CT", "phone": "+1 860-678-7300", "website": "https://hartfordhealthcaremedicalgroup.org/AlexandraGunter", "rating": 4.2, "reviews": 10, "place_id": "ChIJ60XS0LCt54kRA6GAAycJlKQ", "latitude": 41.7265339, "longitude": -72.8028983, "subtypes": "Urologist"}, {"name": "Raxine Christie-Campbell, APRN", "address": "499 Farmington Ave #220, Farmington, CT 06032", "city": "Farmington", "state": "Connecticut", "state_code": "CT", "phone": "", "website": "", "rating": 5, "reviews": 3, "place_id": "ChIJ1V1RVY6t54kR884Y3rh2rbU", "latitude": 41.7265344, "longitude": -72.8029261, "subtypes": "Urologist"}, {"name": "Tallwood Urology & Kidney Institute", "address": "499 Farmington Ave #220, Farmington, CT 06032", "city": "Farmington", "state": "Connecticut", "state_code": "CT", "phone": "+1 860-678-7300", "website": "https://hartfordhealthcaremedicalgroup.org/locations/location-details%3Fid%3Da1P5b00000OXKfrEAH", "rating": 1, "reviews": 4, "place_id": "ChIJqdI6qA-t54kRJ5d6V3junMw", "latitude": 41.7265339, "longitude": -72.8028983, "subtypes": "Urologist"}, {"name": "G. Thomas Trono, MD", "address": "300 Hebron Ave STE 207, Glastonbury, CT 06033", "city": "Glastonbury", "state": "Connecticut", "state_code": "CT", "phone": "+1 860-522-2251", "website": "http://www.greaterhartfordurologygroup.com/", "rating": "", "reviews": "", "place_id": "ChIJ7aS2KRlR5okRm76DlwfsRHo", "latitude": 41.7131183, "longitude": -72.6014146, "subtypes": "Urologist"}, {"name": "Dr. Gary R. Spiegel, MD", "address": "941 Farmington Ave, West Hartford, CT 06107", "city": "West Hartford", "state": "Connecticut", "state_code": "CT", "phone": "+1 860-289-3375", "website": "http://www.jeffersonradiology.com/", "rating": "", "reviews": "", "place_id": "ChIJhbbh6eys54kRsSDWsSaEGhk", "latitude": 41.7620094, "longitude": -72.74080599999999, "subtypes": "Urologist"}, {"name": "Connecticut Surgical Group: Kesler Stuart S MD", "address": "399 Farmington Ave #210, Farmington, CT 06032", "city": "Farmington", "state": "Connecticut", "state_code": "CT", "phone": "+1 860-947-8500", "website": "http://www.hartfordmedicalgroup.com/", "rating": "", "reviews": "", "place_id": "ChIJ_4KBPeGt54kRHeDNLxUI8P4", "latitude": 41.7279389, "longitude": -72.80129529999999, "subtypes": "Urologist"}, {"name": "Anne G. Dudley, MD", "address": "399 Farmington Ave, Farmington, CT 06032", "city": "Farmington", "state": "Connecticut", "state_code": "CT", "phone": "+1 860-545-9395", "website": "https://www.connecticutchildrens.org/about-us/find-a-doctor/anne-g-dudley-md/", "rating": 5, "reviews": 2, "place_id": "ChIJu8eLWpWv54kReocIepB_pzw", "latitude": 41.7280533, "longitude": -72.8011405, "subtypes": "Pediatric urologist"}, {"name": "Dr. Raphael Cooper", "address": "11 South Rd #240, Farmington, CT 06032", "city": "Farmington", "state": "Connecticut", "state_code": "CT", "phone": "+1 860-826-4453", "website": "https://www.starlingphysicians.com/physician/dr-raphael-cooper/", "rating": "", "reviews": "", "place_id": "ChIJ23Fx8OOt54kRZLwN7JxK6p8", "latitude": 41.7281499, "longitude": -72.79899, "subtypes": "Urologist"}, {"name": "Dr. Rafael S. Wurzel, MD", "address": "1 Lake St, New Britain, CT 06052", "city": "New Britain", "state": "Connecticut", "state_code": "CT", "phone": "+1 860-826-4453", "website": "http://www.starlingphysicians.com/", "rating": "", "reviews": "", "place_id": "ChIJIbhEbc6z54kRI3fccAXuA_Q", "latitude": 41.66871, "longitude": -72.7912395, "subtypes": "Urologist"}, {"name": "Jared Bieniek", "address": "330 Western Blvd, Glastonbury, CT 06033", "city": "Glastonbury", "state": "Connecticut", "state_code": "CT", "phone": "+1 860-246-2071", "website": "https://hartfordhealthcaremedicalgroup.org/find-a-doctor/physician-detail/JaredBieniek", "rating": "", "reviews": "", "place_id": "ChIJQ1xwCwpR5okRuclILXgZoLU", "latitude": 41.7203842, "longitude": -72.5868777, "subtypes": "Urologist"}, {"name": "Mr. Brian Mcleod", "address": "24 Windham St, Willimantic, CT 06226", "city": "Willimantic", "state": "Connecticut", "state_code": "CT", "phone": "+1 401-678-6940", "website": "", "rating": "", "reviews": "", "place_id": "ChIJlVQ7ke5j5okRR1nrcKYGFUo", "latitude": 41.7138405, "longitude": -72.2195847, "subtypes": "Urologist"}, {"name": "Brian McLeod, MD", "address": "584 Norwich Rd #100, Plainfield, CT 06374", "city": "Plainfield", "state": "Connecticut", "state_code": "CT", "phone": "+1 860-564-9250", "website": "https://hartfordhealthcaremedicalgroup.org/BrianMcleod", "rating": 4.8, "reviews": 108, "place_id": "ChIJg7AKqlbV5YkRG39aekYd26U", "latitude": 41.6813049, "longitude": -71.9124145, "subtypes": "Urologist"}, {"name": "Associated Northwest Urology", "address": "120 Park Lane Rd # A202, New Milford, CT 06776", "city": "New Milford", "state": "Connecticut", "state_code": "CT", "phone": "+1 860-354-3584", "website": "", "rating": 5, "reviews": 1, "place_id": "ChIJaTfM1lv054kRy3Xorlyg6zA", "latitude": 41.6061743, "longitude": -73.40280179999999, "subtypes": "Urologist"}, {"name": "Stephen C. Yu, MD", "address": "120 Park Lane Rd # A202, New Milford, CT 06776", "city": "New Milford", "state": "Connecticut", "state_code": "CT", "phone": "+1 860-354-3584", "website": "https://findcare.nuvancehealth.org/provider/Stephen%2520C.%2520Yu/1746139%3Fy_source%3D1_MjM5MTY0ODYtNzE1LWxvY2F0aW9uLndlYnNpdGU%253D", "rating": 3.2, "reviews": 6, "place_id": "ChIJaTfM1lv054kRPQTXMxXx1M0", "latitude": 41.60611919999999, "longitude": -73.4030111, "subtypes": "Urologist"}, {"name": "John Griffith, MD", "address": "201 N Mountain Rd #201, New Britain, CT 06062", "city": "New Britain", "state": "Connecticut", "state_code": "CT", "phone": "+1 860-348-2500", "website": "https://hartfordhealthcaremedicalgroup.org/JohnJGriffith", "rating": 4.8, "reviews": 129, "place_id": "ChIJhyqYO89X5okRewUiOPqlk3g", "latitude": 41.6748012, "longitude": -72.8223477, "subtypes": "Urologist"}, {"name": "Bristol Health Urology", "address": "15 Riverside Ave, Bristol, CT 06010", "city": "Bristol", "state": "Connecticut", "state_code": "CT", "phone": "+1 860-585-6944", "website": "", "rating": 4.6, "reviews": 31, "place_id": "ChIJL0ym6v2754kRB0WpwFLdF7o", "latitude": 41.6714279, "longitude": -72.94336, "subtypes": "Urologist"}, {"name": "Paul J. Ceplenski, MD", "address": "209 Main St C, Southington, CT 06489", "city": "Southington", "state": "Connecticut", "state_code": "CT", "phone": "+1 860-826-4453", "website": "https://www.starlingphysicians.com/physician/paul-j-ceplenski-md/", "rating": "", "reviews": "", "place_id": "ChIJE4ugUJa354kRhfa4al0fkd0", "latitude": 41.5975122, "longitude": -72.8773476, "subtypes": "Urologist"}, {"name": "Trinity Health Of New England - Urology", "address": "1154 Highland Ave, Cheshire, CT 06410", "city": "Cheshire", "state": "Connecticut", "state_code": "CT", "phone": "+1 203-709-8326", "website": "https://www.trinityhealthofne.org/location/cheshire-primary-care", "rating": 5, "reviews": 7, "place_id": "ChIJdTq2CWjJ54kR79LqqX88j7o", "latitude": 41.5299962, "longitude": -72.8944976, "subtypes": "Urologist"}, {"name": "Evan Shreck, MD", "address": "455 Lewis Ave # 210, Meriden, CT 06451", "city": "Meriden", "state": "Connecticut", "state_code": "CT", "phone": "+1 203-238-1241", "website": "https://hartfordhealthcaremedicalgroup.org/EvanShreck", "rating": 4.9, "reviews": 100, "place_id": "ChIJ7dNah3fL54kR3iFyKsd2dhM", "latitude": 41.54932669999999, "longitude": -72.8009125, "subtypes": "Urologist"}, {"name": "Urology Center of Grove Hill: Stein Joshua MD", "address": "209 Main St #2, Southington, CT 06489", "city": "Southington", "state": "Connecticut", "state_code": "CT", "phone": "+1 860-826-4453", "website": "http://www.starlingphysicians.com/", "rating": "", "reviews": "", "place_id": "ChIJE4ugUJa354kREEVI-n28Yf8", "latitude": 41.5975229, "longitude": -72.87750249999999, "subtypes": "Urologist"}, {"name": "Peter Daddario", "address": "167 Main St Suite, Southington, CT 06489", "city": "Southington", "state": "Connecticut", "state_code": "CT", "phone": "+1 860-426-0252", "website": "", "rating": 1, "reviews": 1, "place_id": "ChIJ__8vu5e354kRvXl4h65xTyw", "latitude": 41.5987081, "longitude": -72.8773283, "subtypes": "Urologist"}, {"name": "Richard S. Allen, MD", "address": "455 Lewis Ave #205, Meriden, CT 06451", "city": "Meriden", "state": "Connecticut", "state_code": "CT", "phone": "+1 203-238-1241", "website": "", "rating": 4.8, "reviews": 63, "place_id": "ChIJnXWkrQLK54kR5MwxXZeXRvM", "latitude": 41.5493986, "longitude": -72.8007586, "subtypes": "Urologist"}, {"name": "Kai Hammerich, MD", "address": "167 Main St, Southington, CT 06489", "city": "Southington", "state": "Connecticut", "state_code": "CT", "phone": "+1 860-585-6944", "website": "https://www.bristolhealth.org/Providers/Kai-Hammerich", "rating": "", "reviews": "", "place_id": "ChIJvSR4GF6354kRSkpNC7aEJNU", "latitude": 41.5987081, "longitude": -72.8773283, "subtypes": "Urologist"}, {"name": "Dr. Michael A. Fischman, MD", "address": "360 N Main St, Southington, CT 06489", "city": "Southington", "state": "Connecticut", "state_code": "CT", "phone": "+1 860-621-8300", "website": "", "rating": "", "reviews": "", "place_id": "ChIJRfsyZ3W354kRipQtKTUYAAk", "latitude": 41.6105896, "longitude": -72.877279, "subtypes": "Urologist"}, {"name": "Kathryn Wagner, MD", "address": "455 Lewis Ave #205, Meriden, CT 06451", "city": "Meriden", "state": "Connecticut", "state_code": "CT", "phone": "+1 203-238-1241", "website": "https://hartfordhealthcaremedicalgroup.org/KathrynEWagner", "rating": 4.9, "reviews": 71, "place_id": "ChIJGd6dA4jL54kRWMZm6B_wInk", "latitude": 41.5493986, "longitude": -72.8007586, "subtypes": "Urologist"}, {"name": "Marissa Schwartz, APRN", "address": "201 N Mountain Rd Suite 300, Plainville, CT 06062", "city": "Plainville", "state": "Connecticut", "state_code": "CT", "phone": "+1 860-348-2500", "website": "https://hartfordhealthcaremedicalgroup.org/MarissaSchwartz", "rating": 4.7, "reviews": 10, "place_id": "ChIJhVQ0MKix54kR_IvNDmXZ9rQ", "latitude": 41.674782, "longitude": -72.8223436, "subtypes": "Urologist"}, {"name": "Shuo-Chieh Wu, MD", "address": "201 N Mountain Rd Suite 300, Plainville, CT 06062", "city": "Plainville", "state": "Connecticut", "state_code": "CT", "phone": "+1 860-348-2500", "website": "https://hartfordhealthcaremedicalgroup.org/ShuoChiehWu", "rating": 5, "reviews": 1, "place_id": "ChIJPdsur42x54kRXq9oCHunEfY", "latitude": 41.6748012, "longitude": -72.8223477, "subtypes": "Urologist"}, {"name": "Ave'lallement Robert A MD", "address": "209 Main St, Southington, CT 06489", "city": "Southington", "state": "Connecticut", "state_code": "CT", "phone": "+1 860-826-4453", "website": "http://www.starlingphysicians.com/", "rating": "", "reviews": "", "place_id": "ChIJj4ygUJa354kRMUeIb_A7zoQ", "latitude": 41.5975122, "longitude": -72.8773477, "subtypes": "Urologist"}, {"name": "Kurz Kenneth R MD", "address": "680 S Main St, Cheshire, CT 06410", "city": "Cheshire", "state": "Connecticut", "state_code": "CT", "phone": "+1 203-250-8955", "website": "", "rating": "", "reviews": "", "place_id": "ChIJ_XvmKPHF54kRqxC1wGkAZIQ", "latitude": 41.4855798, "longitude": -72.9049382, "subtypes": "Urologist"}, {"name": "Pregenzer Urology", "address": "345 N Main St STE 200, West Hartford, CT 06117", "city": "West Hartford", "state": "Connecticut", "state_code": "CT", "phone": "+1 860-962-6600", "website": "https://www.pregenzerurology.com/", "rating": 4.8, "reviews": 62, "place_id": "ChIJD_2u3nZT5okReDVmq6wGNSg", "latitude": 41.785189, "longitude": -72.7479087, "subtypes": "Urologist"}, {"name": "Joseph R. Wagner, MD", "address": "10 Birdseye Rd, Farmington, CT 06032", "city": "Farmington", "state": "Connecticut", "state_code": "CT", "phone": "+1 860-678-5700", "website": "https://hartfordhealthcaremedicalgroup.org/JosephWagner", "rating": 4.9, "reviews": 169, "place_id": "ChIJXbcs47Ct54kRQzmMMfiUmMY", "latitude": 41.7243586, "longitude": -72.80471779999999, "subtypes": "Urologist"}, {"name": "Cynthia Leung, MD", "address": "385 W Main St, Avon, CT 06001", "city": "Avon", "state": "Connecticut", "state_code": "CT", "phone": "+1 860-947-8500", "website": "https://hartfordhealthcaremedicalgroup.org/CynthiaLeung", "rating": 4.5, "reviews": 85, "place_id": "ChIJISAKVIbl5okRknjKPsNywSc", "latitude": 41.815292, "longitude": -72.8641943, "subtypes": "Urologist"}, {"name": "Trinity Health Of New England Medical Group - Urogynecology", "address": "580 Cottage Grove Rd # 207, Bloomfield, CT 06002", "city": "Bloomfield", "state": "Connecticut", "state_code": "CT", "phone": "+1 860-286-2996", "website": "https://www.trinityhealthofne.org/location/trinity-health-of-new-england-medical-group-urogynecology-3", "rating": 4.9, "reviews": 69, "place_id": "ChIJJSKMSHar54kRl4L7uJJANa8", "latitude": 41.81814869999999, "longitude": -72.72691379999999, "subtypes": "Urologist"}, {"name": "Ryan Dorin, MD", "address": "852 Cottage Grove Rd, Bloomfield, CT 06002", "city": "Bloomfield", "state": "Connecticut", "state_code": "CT", "phone": "+1 203-709-8326", "website": "https://www.trinityhealthofne.org/provider/ryan-p-dorin-md-urology", "rating": 4.9, "reviews": 40, "place_id": "ChIJiThEWbmr54kRrAk-tcNKXxo", "latitude": 41.8173293, "longitude": -72.7397098, "subtypes": "Urologist"}, {"name": "Stephanie Caminiti, APRN", "address": "10 Birdseye Rd #100, Farmington, CT 06032", "city": "Farmington", "state": "Connecticut", "state_code": "CT", "phone": "+1 860-947-8500", "website": "https://hartfordhealthcaremedicalgroup.org/StephanieCaminiti", "rating": 4.9, "reviews": 35, "place_id": "ChIJid4BN1NT5okR5rSEOVxGmho", "latitude": 41.7244525, "longitude": -72.8046749, "subtypes": "Urologist"}, {"name": "Tallwood Men's Health", "address": "10 Birdseye Rd #100, Farmington, CT 06032", "city": "Farmington", "state": "Connecticut", "state_code": "CT", "phone": "+1 860-678-5700", "website": "https://hartfordhealthcaremedicalgroup.org/locations/location-details%3Fid%3Da1P0a00000CaBuZEAV", "rating": 2.3, "reviews": 7, "place_id": "ChIJEzmDw1Ov54kRGRDilNzGnCs", "latitude": 41.7244525, "longitude": -72.8046749, "subtypes": "Urologist"}, {"name": "Michael Karellas, MD", "address": "55 Holly Hill Ln, Greenwich, CT 06830", "city": "Greenwich", "state": "Connecticut", "state_code": "CT", "phone": "+1 877-925-3637", "website": "https://www.yalemedicine.org/specialists/michael-karellas%3Futm_source%3DGMBSocialClimb%26utm_medium%3DMichaelKarellas%252CMD", "rating": 4.8, "reviews": 81, "place_id": "ChIJlwdRK5WZwokRxurSK1uyXcE", "latitude": 41.0163022, "longitude": -73.646728, "subtypes": "Urologist"}, {"name": "Nicholas Stroumbakis, MD", "address": "55 Holly Hill Ln Ste 130, Greenwich, CT 06830", "city": "Greenwich", "state": "Connecticut", "state_code": "CT", "phone": "+1 203-785-2815", "website": "https://www.yalemedicine.org/specialists/nicholas-stroumbakis", "rating": 3.8, "reviews": 27, "place_id": "ChIJMSy9XUeYwokRx5CzUOrQkTY", "latitude": 41.0162895, "longitude": -73.6466533, "subtypes": "Urologist"}, {"name": "Urology Clinic Of Greenwich Pc", "address": "31 River Rd, Cos Cob, CT 06807", "city": "Cos Cob", "state": "Connecticut", "state_code": "CT", "phone": "+1 203-863-1180", "website": "", "rating": "", "reviews": "", "place_id": "ChIJSQieT42YwokR2vzHGMgOU-A", "latitude": 41.0358656, "longitude": -73.59479189999999, "subtypes": "Urology clinic"}, {"name": "Stamford Health Medical Group Urology", "address": "75 Holly Hill Ln Suite 202, Greenwich, CT 06830", "city": "Greenwich", "state": "Connecticut", "state_code": "CT", "phone": "+1 203-276-8545", "website": "https://www.stamfordhealth.org/locations/ct/greenwich/stamford-health-medical-group-urology/11142765/%3Futm_source%3Dgoogle%26utm_medium%3Dorganic%26utm_campaign%3DYext", "rating": "", "reviews": "", "place_id": "ChIJ6ZRg_2qZwokRaDUbJK2V7Rg", "latitude": 41.0159662, "longitude": -73.6474759, "subtypes": "Urologist"}, {"name": "Brown William C MD", "address": "1385 E Putnam Ave, Old Greenwich, CT 06870", "city": "Old Greenwich", "state": "Connecticut", "state_code": "CT", "phone": "+1 203-863-1180", "website": "", "rating": 3.5, "reviews": 8, "place_id": "ChIJSQieT42YwokRvz-nUhXo-RA", "latitude": 41.04508329999999, "longitude": -73.57215459999999, "subtypes": "Urologist"}, {"name": "Stamford Urology", "address": "80 Mill River St # 2400, Stamford, CT 06902", "city": "Stamford", "state": "Connecticut", "state_code": "CT", "phone": "+1 203-356-9391", "website": "http://www.stamfordurology.com/", "rating": 3.7, "reviews": 3, "place_id": "ChIJS5gNFuWhwokRunjUfeY_q0g", "latitude": 41.054919, "longitude": -73.5460976, "subtypes": "Urology clinic"}, {"name": "Dr. James Rosoff", "address": "55 Holly Hill Ln, Greenwich, CT 06830", "city": "Greenwich", "state": "Connecticut", "state_code": "CT", "phone": "+1 203-863-4670", "website": "", "rating": "", "reviews": "", "place_id": "ChIJz0kLRNGZwokR4eaAW46mozA", "latitude": 41.0162895, "longitude": -73.6466533, "subtypes": "Urologist"}, {"name": "Sarah Lambert", "address": "500 West Putnam Avenue Ste 2, Greenwich, CT 06830", "city": "Greenwich", "state": "Connecticut", "state_code": "CT", "phone": "+1 203-785-2815", "website": "", "rating": "", "reviews": "", "place_id": "ChIJ__8_ydOZwokR_SztAISOdLw", "latitude": 41.0179263, "longitude": -73.64525069999999, "subtypes": "Urologist"}, {"name": "Michael John Nurzia, MD", "address": "80 Mill River St # 1400, Stamford, CT 06902", "city": "Stamford", "state": "Connecticut", "state_code": "CT", "phone": "+1 203-356-9391", "website": "https://www.northwell.edu/find-care/find-a-doctor/dr-michael-john-nurzia-md-1477692093%3Futm_source%3Dprovider_listing%26utm_medium%3Dpartner%26utm_campaign%3Dyext", "rating": 4, "reviews": 23, "place_id": "ChIJn-W-2-uhwokRyoRP8_MVkBc", "latitude": 41.0550824, "longitude": -73.5460219, "subtypes": "Urologist"}, {"name": "Greenwich Urological Associates", "address": "49 Lake Ave, Greenwich, CT 06830", "city": "Greenwich", "state": "Connecticut", "state_code": "CT", "phone": "+1 203-869-1285", "website": "", "rating": 3, "reviews": 4, "place_id": "ChIJMSy9XUeYwokRE6eDKfPcd2Y", "latitude": 41.0347181, "longitude": -73.631321, "subtypes": "Urologist"}, {"name": "Michael Karellas, MD", "address": "260 Long Ridge Rd, Stamford, CT 06902", "city": "Stamford", "state": "Connecticut", "state_code": "CT", "phone": "+1 877-925-3637", "website": "https://www.yalemedicine.org/specialists/michael-karellas%3Futm_source%3DGMBSocialClimb%26utm_medium%3DMichaelKarellas%252CMD", "rating": 5, "reviews": 23, "place_id": "ChIJW_HqREehwokRoywwT2l1o4o", "latitude": 41.0793728, "longitude": -73.5548117, "subtypes": "Urologist"}, {"name": "Stamford Health Medical Group Urology", "address": "29 Hospital Plaza Ste 407, Stamford, CT 06902", "city": "Stamford", "state": "Connecticut", "state_code": "CT", "phone": "+1 203-276-8545", "website": "https://www.stamfordhealth.org/locations/ct/stamford/stamford-health-medical-group-urology/11140278/%3Futm_source%3Dgoogle%26utm_medium%3Dorganic%26utm_campaign%3DYext", "rating": 3.7, "reviews": 3, "place_id": "ChIJZWHZuvuhwokRxiLaTE2hGh4", "latitude": 41.0543201, "longitude": -73.5515571, "subtypes": "Urologist"}, {"name": "Sarah Lambert", "address": "55 Holly Hill Ln Ste 110, Greenwich, CT 06830", "city": "Greenwich", "state": "Connecticut", "state_code": "CT", "phone": "+1 203-785-2815", "website": "", "rating": "", "reviews": "", "place_id": "ChIJz0kLRNGZwokRGKN0BZzEUXQ", "latitude": 41.0162895, "longitude": -73.6466533, "subtypes": "Urologist"}, {"name": "Conner C. Brown", "address": "29 Hospital Plaza Ste 407, Stamford, CT 06902", "city": "Stamford", "state": "Connecticut", "state_code": "CT", "phone": "+1 203-276-8545", "website": "https://www.stamfordhealth.org/find-a-doctor/conner-brown/%3Futm_source%3Dgoogle%26utm_medium%3Dorganic%26utm_campaign%3DYext", "rating": 5, "reviews": 1, "place_id": "ChIJB7BDbzqhwokRC2ZMNAt8vkc", "latitude": 41.0534647, "longitude": -73.55124409999999, "subtypes": "Urologist"}, {"name": "Murphy James MD", "address": "23 Maple Ave, Greenwich, CT 06830", "city": "Greenwich", "state": "Connecticut", "state_code": "CT", "phone": "+1 203-869-0451", "website": "", "rating": "", "reviews": "", "place_id": "ChIJpdNQSEKYwokRQ4SlbPy_fY8", "latitude": 41.0361972, "longitude": -73.6222294, "subtypes": "Urologist"}, {"name": "Dr. Vincent J. Tumminello, MD", "address": "90 Morgan St # 301, Stamford, CT 06905", "city": "Stamford", "state": "Connecticut", "state_code": "CT", "phone": "+1 203-323-6050", "website": "", "rating": 5, "reviews": 1, "place_id": "ChIJRyqWvuqhwokRMxkLlCYfFig", "latitude": 41.0643883, "longitude": -73.5365925, "subtypes": "Urologist"}, {"name": "Dr. Bridget I. Earle, MD", "address": "5 Perryridge Rd, Greenwich, CT 06830", "city": "Greenwich", "state": "Connecticut", "state_code": "CT", "phone": "+1 203-863-3685", "website": "", "rating": "", "reviews": "", "place_id": "ChIJJfFrUkeYwokRY4etVrl5ZPU", "latitude": 41.034308, "longitude": -73.630196, "subtypes": "Urologist"}, {"name": "Santarosa Richard P MD", "address": "80 Mill River St # 2400, Stamford, CT 06902", "city": "Stamford", "state": "Connecticut", "state_code": "CT", "phone": "+1 203-356-9391", "website": "http://stamfordurology.com/", "rating": 3.2, "reviews": 13, "place_id": "ChIJjzOQPfqhwokRWwQVNPswPvk", "latitude": 41.0549191, "longitude": -73.5460976, "subtypes": "Urologist"}, {"name": "Dr. Alan Schrager", "address": "5 Perryridge Rd, Greenwich, CT 06830", "city": "Greenwich", "state": "Connecticut", "state_code": "CT", "phone": "+1 914-934-3664", "website": "", "rating": "", "reviews": "", "place_id": "ChIJ____oziYwokRsYuvGt4IJzU", "latitude": 41.0335545, "longitude": -73.6304401, "subtypes": "Urologist"}, {"name": "Tallwood Urology & Kidney Institute", "address": "455 Lewis Ave #210, Meriden, CT 06062", "city": "Meriden", "state": "Connecticut", "state_code": "CT", "phone": "+1 203-238-1241", "website": "https://hartfordhealthcare.org/services/urology-kidney/locations/hartford-healthcare-medical-group/455-lewis-ave-suite-210-meriden", "rating": "", "reviews": "", "place_id": "ChIJvzeqNijL54kRS0aZrzykl0E", "latitude": 41.5493, "longitude": -72.80105379999999, "subtypes": "Urology clinic"}, {"name": "Urology Group, P.C.", "address": "9 Washington Rd, Hamden, CT 06518", "city": "Hamden", "state": "Connecticut", "state_code": "CT", "phone": "+1 203-732-2651", "website": "", "rating": 5, "reviews": 1, "place_id": "ChIJH0DlXX_Q54kRnXhl--gl0_E", "latitude": 41.3834487, "longitude": -72.8983635, "subtypes": "Urologist"}, {"name": "Jennifer Sullivan, PA-C", "address": "455 Lewis Ave # 210, Meriden, CT 06451", "city": "Meriden", "state": "Connecticut", "state_code": "CT", "phone": "+1 203-238-1241", "website": "https://hartfordhealthcaremedicalgroup.org/JenniferLSullivan", "rating": 4.9, "reviews": 19, "place_id": "ChIJf5UVy_fL54kRcY3w038UPHw", "latitude": 41.5493266, "longitude": -72.8009125, "subtypes": "Urologist"}, {"name": "Dr. Kenneth R. Kurz, MD", "address": "455 Lewis Ave # 210, Meriden, CT 06451", "city": "Meriden", "state": "Connecticut", "state_code": "CT", "phone": "+1 203-238-1241", "website": "", "rating": "", "reviews": "", "place_id": "ChIJiySjrQLK54kR4OmcKkj1lAg", "latitude": 41.5493533, "longitude": -72.8007712, "subtypes": "Urologist"}, {"name": "Urology Center", "address": "2200 Whitney Ave # 280A, Hamden, CT 06518", "city": "Hamden", "state": "Connecticut", "state_code": "CT", "phone": "+1 203-288-3526", "website": "", "rating": "", "reviews": "", "place_id": "ChIJ75cFqH7a54kR5gNAHFkLWds", "latitude": 41.376728, "longitude": -72.904673, "subtypes": "Urologist"}, {"name": "Trinity Health Of New England - Urology", "address": "1579 Straits Turnpike STE 2A, Middlebury, CT 06762", "city": "Middlebury", "state": "Connecticut", "state_code": "CT", "phone": "+1 203-709-8326", "website": "https://www.trinityhealthofne.org/location/trinity-health-of-new-england-medical-group-urology-2", "rating": 4.7, "reviews": 260, "place_id": "ChIJcfK0gHDr54kRSTeFAeOiLec", "latitude": 41.5519073, "longitude": -73.0950009, "subtypes": "Urologist"}, {"name": "Northeast Medical Group - Urology - Trumbull", "address": "160 Hawley Ln, Trumbull, CT 06611", "city": "Trumbull", "state": "Connecticut", "state_code": "CT", "phone": "+1 203-375-3456", "website": "https://www.northeastmedicalgroup.org/locations/trumbull-160-hawley-lane-urology", "rating": 4.2, "reviews": 21, "place_id": "ChIJgwITT5AL6IkRwqMQp2Op3GI", "latitude": 41.2347841, "longitude": -73.14944059999999, "subtypes": "Urology clinic"}, {"name": "Yale Urology: Marianne Passarelli, MD", "address": "330 Orchard St #164, New Haven, CT 06511", "city": "New Haven", "state": "Connecticut", "state_code": "CT", "phone": "+1 203-785-2815", "website": "http://urology.yale.edu/", "rating": 2.7, "reviews": 7, "place_id": "ChIJv2Si9KrZ54kRN34Hf6ZfxPM", "latitude": 41.3120311, "longitude": -72.94463259999999, "subtypes": "Urologist"}, {"name": "Urology Associates of Norwalk", "address": "12 Elmcrest Terrace #1, Norwalk, CT 06850", "city": "Norwalk", "state": "Connecticut", "state_code": "CT", "phone": "+1 203-853-4200", "website": "https://www.norwalkurology.com/", "rating": 4.1, "reviews": 77, "place_id": "ChIJ97HdAdUd6IkRjpj4BaRtWeY", "latitude": 41.1097275, "longitude": -73.42032329999999, "subtypes": "Urologist"}, {"name": "Ryan Dorin", "address": "455 Lewis Ave # 210, Meriden, CT 06451", "city": "Meriden", "state": "Connecticut", "state_code": "CT", "phone": "+1 203-238-1241", "website": "", "rating": "", "reviews": "", "place_id": "ChIJ4XnP0BzK54kRXaJuzGm0zFk", "latitude": 41.54932669999999, "longitude": -72.8009125, "subtypes": "Urologist"}, {"name": "Dr. Stephen B. Siegel, MD", "address": "435 Lewis Ave # 205, Meriden, CT 06451", "city": "Meriden", "state": "Connecticut", "state_code": "CT", "phone": "+1 203-379-0605", "website": "", "rating": "", "reviews": "", "place_id": "ChIJST4aUx3K54kRY-5G-4PZ8tc", "latitude": 41.5493063, "longitude": -72.8011451, "subtypes": "Urologist"}, {"name": "Kaufman Jeremy D MD", "address": "160 Hawley Ln #002, Trumbull, CT 06611", "city": "Trumbull", "state": "Connecticut", "state_code": "CT", "phone": "+1 203-375-3456", "website": "https://www.northeastmedicalgroup.org/physicians/jeremy-d-kaufman", "rating": 4.3, "reviews": 9, "place_id": "ChIJgwITT5AL6IkRXwk8vQgyHd0", "latitude": 41.2348332, "longitude": -73.1494271, "subtypes": "Urologist"}, {"name": "Northeast Medical Group Urology - Milford", "address": "849 Boston Post Rd Suite 205, Milford, CT 06460", "city": "Milford", "state": "Connecticut", "state_code": "CT", "phone": "+1 203-375-3456", "website": "https://www.northeastmedicalgroup.org/locations/milford-849-boston-post-road-urology", "rating": "", "reviews": "", "place_id": "ChIJfd7GsFd16IkRVlOsZ0o7Ess", "latitude": 41.2311559, "longitude": -73.0533956, "subtypes": "Urology clinic"}, {"name": "Anthony Kim, M.D.", "address": "455 Lewis Ave #205, Meriden, CT 06451", "city": "Meriden", "state": "Connecticut", "state_code": "CT", "phone": "+1 203-379-0605", "website": "", "rating": "", "reviews": "", "place_id": "ChIJST4aUx3K54kRTMIhW48cB50", "latitude": 41.5495597, "longitude": -72.8004634, "subtypes": "Urologist"}, {"name": "Dr. Edward B. Paraiso Jr, MD", "address": "160 Hawley Ln #002, Trumbull, CT 06611", "city": "Trumbull", "state": "Connecticut", "state_code": "CT", "phone": "+1 203-375-3456", "website": "https://www.northeastmedicalgroup.org/physicians/edward-b-paraiso", "rating": 3.3, "reviews": 12, "place_id": "ChIJgwITT5AL6IkRfwoH0kOikE0", "latitude": 41.2348332, "longitude": -73.1494271, "subtypes": "Urologist"}, {"name": "Sagar M. Phatak, M.D.", "address": "455 Lewis Ave #205, Meriden, CT 06451", "city": "Meriden", "state": "Connecticut", "state_code": "CT", "phone": "+1 203-379-0605", "website": "", "rating": "", "reviews": "", "place_id": "ChIJST4aUx3K54kRky99nyxh0gY", "latitude": 41.5492376, "longitude": -72.800671, "subtypes": "Urologist"}, {"name": "Flanagan Michael J MD", "address": "435 Lewis Ave # 205, Meriden, CT 06451", "city": "Meriden", "state": "Connecticut", "state_code": "CT", "phone": "+1 203-379-0605", "website": "", "rating": "", "reviews": "", "place_id": "ChIJST4aUx3K54kRX81xx4jQ_Ic", "latitude": 41.5493063, "longitude": -72.8011451, "subtypes": "Urologist"}, {"name": "Northeast Medical Group Urology - Fairfield", "address": "1152 Kings Hwy Cutoff, Fairfield, CT 06824", "city": "Fairfield", "state": "Connecticut", "state_code": "CT", "phone": "+1 203-256-5500", "website": "https://www.northeastmedicalgroup.org/locations/fairfield-1152-kings-highway-cutoff-urology", "rating": 3, "reviews": 2, "place_id": "ChIJHb7l_5UP6IkRNVF-qdx9Uxw", "latitude": 41.1519556, "longitude": -73.2449798, "subtypes": "Urology clinic"}, {"name": "Northeast Medical Group Urology - Fairfield", "address": "52 Beach Rd STE 205, Fairfield, CT 06824", "city": "Fairfield", "state": "Connecticut", "state_code": "CT", "phone": "+1 475-330-6406", "website": "https://www.northeastmedicalgroup.org/locations/fairfield-52-beach-road-suite-205-urology", "rating": "", "reviews": "", "place_id": "ChIJdVQxZ-gR6IkRfZulr7cXuC0", "latitude": 41.1444176, "longitude": -73.2519204, "subtypes": "Urology clinic"}, {"name": "Kenneth A. Kingsly, MD", "address": "1152 Kings Hwy Cutoff, Fairfield, CT 06824", "city": "Fairfield", "state": "Connecticut", "state_code": "CT", "phone": "+1 203-256-5500", "website": "https://www.northeastmedicalgroup.org/physicians/kenneth-a-kingsly", "rating": 4.5, "reviews": 2, "place_id": "ChIJUwZfbyUQ6IkRsPu7iGn3hMg", "latitude": 41.1519556, "longitude": -73.2449798, "subtypes": "Urologist"}, {"name": "Dr. Steven Kardos, MD", "address": "1145 Kings Hwy Cutoff, Fairfield, CT 06824", "city": "Fairfield", "state": "Connecticut", "state_code": "CT", "phone": "+1 203-256-5500", "website": "https://www.northeastmedicalgroup.org/physicians/steven-v-kardos.aspx%3FparentId%3D4b5b329c-48f8-478a-ad32-6443ed3b15ca", "rating": 4.6, "reviews": 11, "place_id": "ChIJR-FrQlLY54kRZMvnv7Qhn7c", "latitude": 41.1515997, "longitude": -73.2433185, "subtypes": "Urologist"}, {"name": "Keith O'Brien, MD", "address": "2660 Main St #117, Bridgeport, CT 06606", "city": "Bridgeport", "state": "Connecticut", "state_code": "CT", "phone": "+1 203-338-8760", "website": "https://hartfordhealthcaremedicalgroup.org/KeithRObrien", "rating": 4.8, "reviews": 125, "place_id": "ChIJW8FOloAN6IkR4g8Eowx7GbA", "latitude": 41.19897659999999, "longitude": -73.201562, "subtypes": "Urologist"}, {"name": "Tallwood Men's Health", "address": "1262 Post Rd, Fairfield, CT 06824", "city": "Fairfield", "state": "Connecticut", "state_code": "CT", "phone": "+1 860-678-5700", "website": "https://hartfordhealthcare.org/services/tallwood-mens-health/locations", "rating": 5, "reviews": 3, "place_id": "ChIJEQnNBVwR6IkRu14B5QlRsk0", "latitude": 41.1432402, "longitude": -73.2553884, "subtypes": "Urologist"}, {"name": "Matthew Goland-Van Ryn, MD - Urology - Northeast Medical Group", "address": "1152 Kings Hwy Cutoff, Fairfield, CT 06824", "city": "Fairfield", "state": "Connecticut", "state_code": "CT", "phone": "+1 203-256-5500", "website": "https://www.northeastmedicalgroup.org/physicians/matthew-l-goland_van-ryn", "rating": 3, "reviews": 7, "place_id": "ChIJ8ZE2C6AR6IkRY0zQceNi78s", "latitude": 41.1519556, "longitude": -73.2449798, "subtypes": "Urologist"}, {"name": "Greater Bridgeport Urology", "address": "425 Post Rd # 204, Fairfield, CT 06824", "city": "Fairfield", "state": "Connecticut", "state_code": "CT", "phone": "+1 203-254-1576", "website": "http://www.northeastmedicalgroup.org/", "rating": 1, "reviews": 1, "place_id": "ChIJUwZfbyUQ6IkRRpkJd_pqEJU", "latitude": 41.15040339999999, "longitude": -73.24333779999999, "subtypes": "Urologist"}, {"name": "Robert P. Weinstein, M.D.", "address": "52 Beach Rd STE 205, Fairfield, CT 06824", "city": "Fairfield", "state": "Connecticut", "state_code": "CT", "phone": "+1 203-375-3456", "website": "", "rating": 3.6, "reviews": 5, "place_id": "ChIJP2x7Ez4Q6IkR_m0Q8ckEACo", "latitude": 41.14436389999999, "longitude": -73.2521502, "subtypes": "Urologist"}, {"name": "Pediatric Urology Associates, PC", "address": "4 Corporate Dr, Shelton, CT 06484", "city": "Shelton", "state": "Connecticut", "state_code": "CT", "phone": "+1 860-409-0413", "website": "http://www.pedsurology.com/", "rating": 1, "reviews": 1, "place_id": "ChIJ7ZLeX_QK6IkRNzF9bXyBN-k", "latitude": 41.27619199999999, "longitude": -73.1305526, "subtypes": "Pediatric urologist"}, {"name": "Southern Connecticut Urological Associates", "address": "111 New Haven Ave, Derby, CT 06418", "city": "Derby", "state": "Connecticut", "state_code": "CT", "phone": "+1 203-736-4816", "website": "https://www.griffinhealth.org/find-a-doctor/Locations%3Fname%3DSouthern%2BConnecticut%2BUrological%2BAssociates%26id%3D88", "rating": 3, "reviews": 1, "place_id": "ChIJHdjKLoLg54kRYLWJuqIWMpU", "latitude": 41.3107177, "longitude": -73.0763283, "subtypes": "Urologist"}, {"name": "Rivera Arnold D C MD", "address": "111 New Haven Ave UNIT 5, Derby, CT 06418", "city": "Derby", "state": "Connecticut", "state_code": "CT", "phone": "+1 203-736-4816", "website": "https://rymaps.xyz/business/rivera-arnold-d-c-md-1okr3k", "rating": 4.5, "reviews": 24, "place_id": "ChIJqQbuSILg54kRTVKfCznYycA", "latitude": 41.3110442, "longitude": -73.07689859999999, "subtypes": "Urologist"}, {"name": "Dr John Makari MD", "address": "4 Corporate Dr, Shelton, CT 06484", "city": "Shelton", "state": "Connecticut", "state_code": "CT", "phone": "+1 860-409-0413", "website": "http://www.pedsurology.com/", "rating": "", "reviews": "", "place_id": "ChIJEz_XXvQK6IkRbZsCZiw_z8A", "latitude": 41.2761597, "longitude": -73.13086369999999, "subtypes": "Urologist"}, {"name": "Dr. Richard E. Colman, MD", "address": "330 Washington St, Norwich, CT 06360", "city": "Norwich", "state": "Connecticut", "state_code": "CT", "phone": "+1 860-886-1956", "website": "", "rating": "", "reviews": "", "place_id": "ChIJ-1iqn3Rx5okRaKx2Lwnj7mQ", "latitude": 41.5432233, "longitude": -72.0884767, "subtypes": "Urologist"}, {"name": "Tallwood Urology & Kidney Institute", "address": "2660 Main St #117, Bridgeport, CT 06606", "city": "Bridgeport", "state": "Connecticut", "state_code": "CT", "phone": "+1 203-338-8760", "website": "https://hartfordhealthcare.org/services/urology-kidney/locations/hartford-healthcare-medical-group/2600-main-street-suite-117-bridgeport", "rating": 2.8, "reviews": 4, "place_id": "ChIJTdPsERAP6IkRZY4RM4hw69w", "latitude": 41.1992492, "longitude": -73.20174399999999, "subtypes": "Urology clinic"}, {"name": "John Graham Jr., MD", "address": "2660 Main St #117, Bridgeport, CT 06606", "city": "Bridgeport", "state": "Connecticut", "state_code": "CT", "phone": "+1 203-338-8760", "website": "https://hartfordhealthcaremedicalgroup.org/JohnNGrahamJr", "rating": 4.8, "reviews": 55, "place_id": "ChIJx3O7VSxbwokRJTY_VRfaOKE", "latitude": 41.1989765, "longitude": -73.201562, "subtypes": "Urologist"}, {"name": "Jeffrey Small, MD", "address": "4695 Main St, Bridgeport, CT 06606", "city": "Bridgeport", "state": "Connecticut", "state_code": "CT", "phone": "+1 203-372-4419", "website": "", "rating": 4.1, "reviews": 37, "place_id": "ChIJk0dxCNAO6IkR7EUBTI6IAuY", "latitude": 41.2243758, "longitude": -73.21959989999999, "subtypes": "Urologist"}, {"name": "Christine Liaw, MD", "address": "2660 Main St #117, Bridgeport, CT 06606", "city": "Bridgeport", "state": "Connecticut", "state_code": "CT", "phone": "+1 203-338-8760", "website": "https://hartfordhealthcaremedicalgroup.org/ChristineLiaw", "rating": 4.6, "reviews": 35, "place_id": "ChIJVU3TpqMP6IkR2p8wTpajRRI", "latitude": 41.19897659999999, "longitude": -73.201562, "subtypes": "Urologist"}, {"name": "Jeffrey Ranta, MD", "address": "2660 Main St #117, Bridgeport, CT 06606", "city": "Bridgeport", "state": "Connecticut", "state_code": "CT", "phone": "", "website": "", "rating": 4.4, "reviews": 25, "place_id": "ChIJjblWZ_cP6IkRWvFEj0Fd1tw", "latitude": 41.19897659999999, "longitude": -73.201562, "subtypes": "Urologist"}, {"name": "St. Vincent's Urology Center of Fairfield County", "address": "4695 Main St #19, Bridgeport, CT 06606", "city": "Bridgeport", "state": "Connecticut", "state_code": "CT", "phone": "+1 203-382-2441", "website": "", "rating": "", "reviews": "", "place_id": "ChIJ6y5jcNAO6IkRQOJU4b5SVJc", "latitude": 41.22420169999999, "longitude": -73.2196651, "subtypes": "Urologist"}, {"name": "Eileen Dorney, PA-C", "address": "2660 E Main St #117, Bridgeport, CT 06606", "city": "Bridgeport", "state": "Connecticut", "state_code": "CT", "phone": "+1 203-338-8760", "website": "https://hartfordhealthcaremedicalgroup.org/EileenDorney", "rating": 4.6, "reviews": 25, "place_id": "ChIJU3hgY_oN6IkRZqpfkzGdJjQ", "latitude": 41.2111992, "longitude": -73.1786363, "subtypes": "Urologist"}, {"name": "Northeast Medical Group Urology - Trumbull", "address": "Suite EP1, 5520 Park Ave #200, Trumbull, CT 06611", "city": "Trumbull", "state": "Connecticut", "state_code": "CT", "phone": "+1 203-256-5500", "website": "https://www.northeastmedicalgroup.org/locations/trumbull-5520-park-avenue-suite-ep1-200-urology", "rating": "", "reviews": "", "place_id": "ChIJFeLGd08P6IkRjVKA_5Xi0Vc", "latitude": 41.2274976, "longitude": -73.242323, "subtypes": "Urology clinic"}, {"name": "Armm Milton F MD", "address": "3180 Main St # 305, Bridgeport, CT 06606", "city": "Bridgeport", "state": "Connecticut", "state_code": "CT", "phone": "+1 203-371-8651", "website": "", "rating": 1.9, "reviews": 8, "place_id": "ChIJ9RMKM5MO6IkRm3f17DazeIk", "latitude": 41.20550739999999, "longitude": -73.205308, "subtypes": "Urologist"}, {"name": "Robert P. Weinstein, M.D.", "address": "160 Hawley Ln #002, Trumbull, CT 06611", "city": "Trumbull", "state": "Connecticut", "state_code": "CT", "phone": "+1 203-375-3456", "website": "https://www.northeastmedicalgroup.org/physicians/robert-p-weinstein", "rating": 4.6, "reviews": 22, "place_id": "ChIJgwITT5AL6IkRjrv136MB3UY", "latitude": 41.2348332, "longitude": -73.1494271, "subtypes": "Urologist"}, {"name": "Brittany Berk, MD", "address": "1262 Post Rd, Fairfield, CT 06824", "city": "Fairfield", "state": "Connecticut", "state_code": "CT", "phone": "+1 203-338-8760", "website": "https://hartfordhealthcaremedicalgroup.org/BrittanyBerk", "rating": 5, "reviews": 4, "place_id": "ChIJGdWgToAR6IkRyUXHsvgkTL4", "latitude": 41.1432568, "longitude": -73.2553369, "subtypes": "Urologist"}, {"name": "Benjamin Rudnick, MD", "address": "160 Hawley Ln, Trumbull, CT 06611", "city": "Trumbull", "state": "Connecticut", "state_code": "CT", "phone": "+1 203-375-3456", "website": "", "rating": 5, "reviews": 7, "place_id": "ChIJAQDAjVr6wokREo_p8I_9yns", "latitude": 41.2347841, "longitude": -73.1494405, "subtypes": "Urologist"}, {"name": "Nicholas A. Viner, M.D.", "address": "160 Hawley Ln #002, Trumbull, CT 06611", "city": "Trumbull", "state": "Connecticut", "state_code": "CT", "phone": "+1 203-375-3456", "website": "", "rating": 5, "reviews": 1, "place_id": "ChIJgwITT5AL6IkRTSQQWY2JzpU", "latitude": 41.2348493, "longitude": -73.1494298, "subtypes": "Urologist"}, {"name": "NICHOLAS A VINER", "address": "226 Mill Hill Ave, Bridgeport, CT 06610", "city": "Bridgeport", "state": "Connecticut", "state_code": "CT", "phone": "+1 833-275-9644", "website": "", "rating": "", "reviews": "", "place_id": "ChIJx54ajjMM6IkR8puxg6hMr78", "latitude": 41.1895221, "longitude": -73.1651554, "subtypes": "Urologist"}, {"name": "KENNETH ALAN KINGSLY", "address": "226 Mill Hill Ave, Bridgeport, CT 06610", "city": "Bridgeport", "state": "Connecticut", "state_code": "CT", "phone": "+1 833-275-9644", "website": "", "rating": "", "reviews": "", "place_id": "ChIJx54ajjMM6IkRPvg7xBXkfrY", "latitude": 41.1895221, "longitude": -73.1651554, "subtypes": "Urologist"}, {"name": "Jeremy Kaufman", "address": "267 Grant St, Bridgeport, CT 066102805", "city": "Bridgeport", "state": "Connecticut", "state_code": "CT", "phone": "", "website": "", "rating": "", "reviews": "", "place_id": "ChIJq6ramDMM6IkRW1el4EnVav4", "latitude": 41.1890895, "longitude": -73.16579949999999, "subtypes": "Urologist"}, {"name": "Kaufman Jeremy D MD", "address": "52 Beach Rd STE 205, Fairfield, CT 06824", "city": "Fairfield", "state": "Connecticut", "state_code": "CT", "phone": "+1 203-255-6825", "website": "", "rating": 5, "reviews": 1, "place_id": "ChIJP2x7Ez4Q6IkR3KYb5Puy_Nk", "latitude": 41.1443638, "longitude": -73.2521502, "subtypes": "Urologist"}, {"name": "Urological Associates-Bridgprt", "address": "52 Beach Rd, Fairfield, CT 06824", "city": "Fairfield", "state": "Connecticut", "state_code": "CT", "phone": "+1 203-255-6825", "website": "", "rating": "", "reviews": "", "place_id": "ChIJGaGEET4Q6IkRpUb0nJeDJwk", "latitude": 41.1443752, "longitude": -73.25208909999999, "subtypes": "Urologist"}, {"name": "Yale Urology: Daniel Kellner, MD", "address": "330 Orchard St # 164, New Haven, CT 06511", "city": "New Haven", "state": "Connecticut", "state_code": "CT", "phone": "+1 203-785-2815", "website": "http://urology.yale.edu/", "rating": 5, "reviews": 7, "place_id": "ChIJv2Si9KrZ54kRLR4x3YHpZjc", "latitude": 41.310398, "longitude": -72.9429948, "subtypes": "Urologist"}, {"name": "Dr. Michael Leapman", "address": "800 Howard Ave Fl 3, New Haven, CT 06519", "city": "New Haven", "state": "Connecticut", "state_code": "CT", "phone": "+1 203-785-2815", "website": "https://www.yalemedicine.org/specialists/michael-leapman%3Futm_source%3DGMBSocialClimb%26utm_medium%3DMichaelLeapman%252CMD%252CMHS", "rating": 4.9, "reviews": 64, "place_id": "ChIJb6-skVHY54kRnCQ6VwKhUyE", "latitude": 41.302257, "longitude": -72.9362726, "subtypes": "Urologist"}, {"name": "David G. Hesse, MD", "address": "330 Orchard St # 164, New Haven, CT 06511", "city": "New Haven", "state": "Connecticut", "state_code": "CT", "phone": "+1 203-785-2815", "website": "http://urology.yale.edu/", "rating": 4.2, "reviews": 5, "place_id": "ChIJUydRbavZ54kREe6lrdYx-Rc", "latitude": 41.3104924, "longitude": -72.9416772, "subtypes": "Urologist"},