[{"name": "Canby-Hagino Edith Dr", "address": "888 S King St, Honolulu, HI 96813", "city": "Honolulu", "state": "Hawaii", "state_code": "HI", "phone": "+1 808-522-4301", "website": "https://www.hawaiipacifichealth.org/straub/services/urology/", "rating": 5, "reviews": 2, "place_id": "ChIJFUsW0-ZtAHwReHNX1R5whAI", "latitude": 21.3025814, "longitude": -157.8501322, "subtypes": "Urologist"}, {"name": "Dr. Edith Canby-Hagino", "address": "98-151 Pali Momi St #142, Aiea, HI 96701", "city": "Aiea", "state": "Hawaii", "state_code": "HI", "phone": "+1 808-483-6400", "website": "https://www.hawaiipacifichealth.org/find-a-physician/search-results/Edith-Canby-Hagino/1401", "rating": "", "reviews": "", "place_id": "ChIJIcTbj01vAHwRdtAlsEsXqZU", "latitude": 21.3818259, "longitude": -157.9397221, "subtypes": "Urologist"}, {"name": "Kim Charles MD", "address": "98-151 Pali Momi St #142, Aiea, HI 96701", "city": "Aiea", "state": "Hawaii", "state_code": "HI", "phone": "+1 808-488-3400", "website": "https://www.hawaiipacifichealth.org/find-a-physician/search-results/Charles-Kim/234", "rating": 5, "reviews": 1, "place_id": "ChIJ8bFoEE1vAHwRAKdr8MMEF54", "latitude": 21.381765, "longitude": -157.939833, "subtypes": "Urologist"}, {"name": "Urology Associates: Lee Stephen C MD", "address": "98-1079 Moanalua Rd # 630, Aiea, HI 96701", "city": "Aiea", "state": "Hawaii", "state_code": "HI", "phone": "+1 808-488-3400", "website": "", "rating": "", "reviews": "", "place_id": "ChIJ8bFoEE1vAHwRT7dgSxpqr4w", "latitude": 21.3834586, "longitude": -157.9383976, "subtypes": "Urologist"}, {"name": "Canby-Hagino Edith Dr", "address": "888 S King St, Honolulu, HI 96813", "city": "Honolulu", "state": "Hawaii", "state_code": "HI", "phone": "+1 808-522-4301", "website": "https://www.hawaiipacifichealth.org/straub/services/urology/", "rating": 5, "reviews": 2, "place_id": "ChIJFUsW0-ZtAHwReHNX1R5whAI", "latitude": 21.3025814, "longitude": -157.8501322, "subtypes": "Urologist"}, {"name": "Lee Stephen C MD", "address": "98-1079 Moanalua Rd #480, Aiea, HI 96701", "city": "Aiea", "state": "Hawaii", "state_code": "HI", "phone": "+1 808-488-3400", "website": "", "rating": "", "reviews": "", "place_id": "ChIJXZEqPNZtAHwRj9KQfoOrDLM", "latitude": 21.3216288, "longitude": -157.8559476, "subtypes": "Urologist"}, {"name": "Dr. Edith Canby-Hagino", "address": "98-151 Pali Momi St #142, Aiea, HI 96701", "city": "Aiea", "state": "Hawaii", "state_code": "HI", "phone": "+1 808-483-6400", "website": "https://www.hawaiipacifichealth.org/find-a-physician/search-results/Edith-Canby-Hagino/1401", "rating": "", "reviews": "", "place_id": "ChIJIcTbj01vAHwRdtAlsEsXqZU", "latitude": 21.3818259, "longitude": -157.9397221, "subtypes": "Urologist"}, {"name": "Robert Carlile, MD", "address": "642 Ulukahiki St #103, Kailua, HI 96734", "city": "Kailua", "state": "Hawaii", "state_code": "HI", "phone": "+1 808-263-5174", "website": "https://doctors.adventisthealth.org/provider/Robert%2BG%2BCarlile/1340027", "rating": 5, "reviews": 7, "place_id": "ChIJDUgIW95tAHwRHss5PtCRMo4", "latitude": 21.3809008, "longitude": -157.7577732, "subtypes": "Urologist"}, {"name": "James Ng", "address": "98-1079 Moanalua Rd #480, Aiea, HI 96701", "city": "Aiea", "state": "Hawaii", "state_code": "HI", "phone": "+1 808-485-6000", "website": "", "rating": "", "reviews": "", "place_id": "ChIJo0YoEU1vAHwRxl0GKuk-e90", "latitude": 21.3834874, "longitude": -157.9383976, "subtypes": "Urologist"}, {"name": "Dr. Randal A. Aaberg, MD", "address": "3288 Moanalua Rd, Honolulu, HI 96819", "city": "Honolulu", "state": "Hawaii", "state_code": "HI", "phone": "+1 808-432-8000", "website": "https://healthy.kaiserpermanente.org/health/care/!ut/p/c5/dYzdEkJAGECfpSf4Po2Ky5VJll3EUm6MfhjylzEMT58eoHNuzxyIYbVJxyJPh6Jt0gquEO-TE_UdTZMIokZlNBnhlx2liIoM0Wr8a_APBIFCnFftfb1FKCeiVKbW8utJlKHHH_noD5ltD7rdi4UG84HaqtnPR-Uzi_dghTcJzcQKuOEy3VtYaWwZz1w_fAqNkA53TgD83NYv6GrVrRWy-QJrXTE7/dl3/d3/L2dBISEvZ0FBIS9nQSEh/", "rating": 5, "reviews": 1, "place_id": "ChIJ6QMPTtluAHwRDL4T6ojG0L4", "latitude": 21.3632544, "longitude": -157.9000128, "subtypes": "Urologist"}, {"name": "Urology Associates", "address": "321 N Kuakini St STE 612, Honolulu, HI 96817", "city": "Honolulu", "state": "Hawaii", "state_code": "HI", "phone": "+1 808-523-7577", "website": "", "rating": "", "reviews": "", "place_id": "ChIJXZEqPNZtAHwR1E3p0fpsQU4", "latitude": 21.3216288, "longitude": -157.8559476, "subtypes": "Urologist"}, {"name": "Vincent Ortolano, MD, FACS", "address": "4353 Waialo Rd, Eleele, HI 96705", "city": "Eleele", "state": "Hawaii", "state_code": "HI", "phone": "+1 808-335-0579", "website": "https://kauai.hhsc.org/physicians-and-providers/vincent-ortolano-md-facs/", "rating": "", "reviews": "", "place_id": "ChIJ___it5TgBnwRu9lFz2_W5ao", "latitude": 21.9018885, "longitude": -159.5868846, "subtypes": "Urologist"}, {"name": "Aloha Urology", "address": "3-3295 Kuhio Hwy, Lihue, HI 96766", "city": "Lihue", "state": "Hawaii", "state_code": "HI", "phone": "+1 808-599-7779", "website": "https://www.alohaurology.com/", "rating": "", "reviews": "", "place_id": "ChIJB0TcZMQfB3wREHY1toM_7I4", "latitude": 21.9828675, "longitude": -159.3674178, "subtypes": "Urologist"}, {"name": "Dr. Peter Tran", "address": "3-3420 Kuhio Hwy # B, Lihue, HI 96766", "city": "Lihue", "state": "Hawaii", "state_code": "HI", "phone": "+1 808-245-1500", "website": "https://www.hawaiipacifichealth.org/find-a-physician/search-results/Peter-Tran/1455", "rating": "", "reviews": "", "place_id": "ChIJk5fSHmIeB3wR3wmI2RzVu-w", "latitude": 21.9857403, "longitude": -159.3655958, "subtypes": "Urologist"}, {"name": "Dr. Carrie Fitzgerald", "address": "3-3420 Kuhio Hwy # B, Lihue, HI 96766", "city": "Lihue", "state": "Hawaii", "state_code": "HI", "phone": "+1 808-245-1500", "website": "", "rating": 1, "reviews": 1, "place_id": "ChIJk5fSHmIeB3wRS3ol4wFkae4", "latitude": 21.9857403, "longitude": -159.3655958, "subtypes": "Urologist"}, {"name": "Dr. William E. Bodenstab, MD", "address": "3-3420B Kuhio Hwy # B, Lihue, HI 96766", "city": "Lihue", "state": "Hawaii", "state_code": "HI", "phone": "+1 808-245-1100", "website": "", "rating": "", "reviews": "", "place_id": "ChIJTzKs6GEeB3wRukdt_c4qS4Y", "latitude": 21.9856957, "longitude": -159.3646515, "subtypes": "Urologist"}, {"name": "Queen's Health Care Center: Blake Randall MD", "address": "3-3295 Kuhio Hwy # 203, Lihue, HI 96766", "city": "Lihue", "state": "Hawaii", "state_code": "HI", "phone": "+1 808-246-4707", "website": "", "rating": "", "reviews": "", "place_id": "ChIJO2x5sIkeB3wRhzyExy-iwm0", "latitude": 21.9828164, "longitude": -159.3674515, "subtypes": "Urologist"}, {"name": "ISLAND UROLOGY", "address": "670 Ponahawai St RM 217, Hilo, HI 96720", "city": "Hilo", "state": "Hawaii", "state_code": "HI", "phone": "+1 808-933-9202", "website": "https://www.islandurologyhawaii.com/", "rating": 5, "reviews": 1, "place_id": "ChIJ0YU5uLK0U3kRJ2zX9H6kE-A", "latitude": 19.7143408, "longitude": -155.096592, "subtypes": "Urologist"}, {"name": "Dr. Sergei Tikhonenkov, MD", "address": "128 Lehua St, Wahiawa, HI 96786", "city": "Wahiawa", "state": "Hawaii", "state_code": "HI", "phone": "+1 808-621-4120", "website": "", "rating": "", "reviews": "", "place_id": "ChIJKU6AgvJdAHwR6zm6Q7YCHuQ", "latitude": 21.4988318, "longitude": -158.026279, "subtypes": "Urologist"}, {"name": "Urology Consultant", "address": "91-2139 Fort Weaver Rd #205, Ewa Beach, HI 96706", "city": "Ewa Beach", "state": "Hawaii", "state_code": "HI", "phone": "+1 808-677-6787", "website": "", "rating": 1, "reviews": 1, "place_id": "ChIJdd3wrGtkAHwRhHp_gL0IQ8M", "latitude": 21.3717932, "longitude": -158.0271577, "subtypes": "Urologist"}, {"name": "Dr. Conrad D. Sheff, MD", "address": "91-6570 Kapolei Pkwy, Ewa Beach, HI 96706", "city": "Ewa Beach", "state": "Hawaii", "state_code": "HI", "phone": "", "website": "", "rating": "", "reviews": "", "place_id": "ChIJSQInPclkAHwRjk_uKt4uuX8", "latitude": 21.3138378, "longitude": -158.0195044, "subtypes": "Urologist"}, {"name": "CARLILE, ROBERT, MD", "address": "91-2139 Fort Weaver Rd #205, Ewa Beach, HI 96706", "city": "Ewa Beach", "state": "Hawaii", "state_code": "HI", "phone": "+1 808-523-9400", "website": "", "rating": "", "reviews": "", "place_id": "ChIJaZaUq2tkAHwR3OLht14qmQw", "latitude": 21.3717932, "longitude": -158.0271577, "subtypes": "Urologist"}, {"name": "Maui Urology, llc", "address": "1883 Mill St, Wailuku, HI 96793", "city": "Wailuku", "state": "Hawaii", "state_code": "HI", "phone": "+1 808-242-8765", "website": "http://www.mauiurology.com/", "rating": 4.4, "reviews": 21, "place_id": "ChIJwe2w-qPTVHkRO07iI6_d7fo", "latitude": 20.8915809, "longitude": -156.5003692, "subtypes": "Urology clinic"}, {"name": "Soren Carlsen", "address": "1883 Mill St Ste A, Wailuku, HI 96793", "city": "Wailuku", "state": "Hawaii", "state_code": "HI", "phone": "+1 808-242-8765", "website": "https://mauiurology.com/about-us", "rating": "", "reviews": "", "place_id": "ChIJ__87QUDTVHkRK751NxENfXw", "latitude": 20.8915809, "longitude": -156.5003692, "subtypes": "Urologist"}, {"name": "Dr. Benjamin T. Shurtleff, MD", "address": "80 Mahalani St, Wailuku, HI 96793", "city": "Wailuku", "state": "Hawaii", "state_code": "HI", "phone": "+1 808-243-6000", "website": "https://healthy.kaiserpermanente.org/hawaii/provider/benjamin-shurtleff-3550933%23/map", "rating": 5, "reviews": 1, "place_id": "ChIJt4QnrCLTVHkRnhybBp7-Jxs", "latitude": 20.8873799, "longitude": -156.4869752, "subtypes": "Urologist"}, {"name": "Dr. Todd H. Hoekstra, MD", "address": "80 Mahalani St, Wailuku, HI 96793", "city": "Wailuku", "state": "Hawaii", "state_code": "HI", "phone": "+1 808-243-6000", "website": "", "rating": "", "reviews": "", "place_id": "ChIJt4QnrCLTVHkRBdaMkWheqv8", "latitude": 20.8873852, "longitude": -156.4869523, "subtypes": "Urologist"}, {"name": "Dr. Joseph P. Ha, MD", "address": "2180 Main St #100x, Wailuku, HI 96793", "city": "Wailuku", "state": "Hawaii", "state_code": "HI", "phone": "+1 808-242-6464", "website": "", "rating": "", "reviews": "", "place_id": "ChIJ1ywYfmnTVHkR0yNyMsdcm4o", "latitude": 20.8874065, "longitude": -156.504733, "subtypes": "Urologist"}, {"name": "Urological Surgeons of Hawaii", "address": "Physicians Office Building 2, 1329 Lusitana St Suite B5, Honolulu, HI 96813", "city": "Honolulu", "state": "Hawaii", "state_code": "HI", "phone": "+1 808-536-2306", "website": "http://urologyhawaii.com/", "rating": 5, "reviews": 1, "place_id": "ChIJ_4TkbN5tAHwR5A_JU3WTB8U", "latitude": 21.3076091, "longitude": -157.8520883, "subtypes": "Urology clinic"}, {"name": "Island Urology", "address": "1329 Lusitana St, Honolulu, HI 96813", "city": "Honolulu", "state": "Hawaii", "state_code": "HI", "phone": "+1 808-536-2306", "website": "", "rating": 5, "reviews": 2, "place_id": "ChIJXfHBbN5tAHwRvuAa1PEHMus", "latitude": 21.3076091, "longitude": -157.8520883, "subtypes": "Urologist"}, {"name": "Roytman Tim MD", "address": "1329 Lusitana St #406, Honolulu, HI 96813", "city": "Honolulu", "state": "Hawaii", "state_code": "HI", "phone": "+1 808-599-7779", "website": "http://www.alohaurology.com/", "rating": 4.6, "reviews": 26, "place_id": "ChIJXfHBbN5tAHwRNIYIKsFE5Rk", "latitude": 21.3076091, "longitude": -157.8520883, "subtypes": "Urologist"}, {"name": "Aloha Urology", "address": "1329 Lusitana St #406, Honolulu, HI 96813", "city": "Honolulu", "state": "Hawaii", "state_code": "HI", "phone": "+1 808-599-7779", "website": "https://www.alohaurology.com/", "rating": 4.1, "reviews": 11, "place_id": "ChIJXfHBbN5tAHwRyqcFRaqPfq8", "latitude": 21.3075426, "longitude": -157.8520456, "subtypes": "Urology clinic"}, {"name": "Dr. Steve Rivera", "address": "888 S King St, Honolulu, HI 96813", "city": "Honolulu", "state": "Hawaii", "state_code": "HI", "phone": "+1 808-522-4000", "website": "https://www.hawaiipacifichealth.org/find-a-physician/search-results/Steve-Rivera/1664", "rating": 5, "reviews": 2, "place_id": "ChIJVVVl2OZtAHwRgES5Vsy5H0U", "latitude": 21.3025814, "longitude": -157.8501322, "subtypes": "Urologist"}, {"name": "Dr. Raine G. Fukuda, MD", "address": "405 N Kuakini St STE 1103, Honolulu, HI 96817", "city": "Honolulu", "state": "Hawaii", "state_code": "HI", "phone": "+1 808-521-8288", "website": "http://www.rainefukudaurology.com/", "rating": 4.5, "reviews": 4, "place_id": "ChIJEwwytnhuAHwRk3eqU-YNkO0", "latitude": 21.3226506, "longitude": -157.8570249, "subtypes": "Urologist"}, {"name": "Andrew Sun, MD", "address": "1329 Lusitana St #406, Honolulu, HI 96813", "city": "Honolulu", "state": "Hawaii", "state_code": "HI", "phone": "+1 808-599-7779", "website": "https://www.alohaurology.com/", "rating": 5, "reviews": 2, "place_id": "ChIJYyCor9ttAHwRCoz39sRRROM", "latitude": 21.3076091, "longitude": -157.8520883, "subtypes": "Urologist"}, {"name": "Garry Peers, MD", "address": "1329 Lusitana St #406, Honolulu, HI 96813", "city": "Honolulu", "state": "Hawaii", "state_code": "HI", "phone": "+1 808-599-7779", "website": "https://www.alohaurology.com/", "rating": 3.3, "reviews": 6, "place_id": "ChIJXfHBbN5tAHwRC8ESGnm_uQ4", "latitude": 21.3075759, "longitude": -157.852067, "subtypes": "Urologist"}, {"name": "Tikhonenkov Sergei MD", "address": "1329 Lusitana St # 706, Honolulu, HI 96813", "city": "Honolulu", "state": "Hawaii", "state_code": "HI", "phone": "+1 808-536-2306", "website": "https://www.queens.org/providers/1435/sergei-n-tikhonenkov/", "rating": 4.5, "reviews": 20, "place_id": "ChIJXfHBbN5tAHwRUH8vj4jInS8", "latitude": 21.3075359, "longitude": -157.8521078, "subtypes": "Urologist"}, {"name": "Dr. David S. Chou, MD", "address": "888 S King St, Honolulu, HI 96813", "city": "Honolulu", "state": "Hawaii", "state_code": "HI", "phone": "+1 808-522-4301", "website": "https://www.hawaiipacifichealth.org/find-a-physician/search-results/David-Chou/2199", "rating": 3.4, "reviews": 5, "place_id": "ChIJTZLZGoNtAHwR2eIbeJG0LiU", "latitude": 21.3025814, "longitude": -157.8501322, "subtypes": "Urologist"}, {"name": "Aloha Urology", "address": "321 N Kuakini St, Honolulu, HI 96817", "city": "Honolulu", "state": "Hawaii", "state_code": "HI", "phone": "+1 808-599-7779", "website": "https://www.alohaurology.com/", "rating": 4, "reviews": 4, "place_id": "ChIJue9p17VtAHwRtnmCUgHZhCE", "latitude": 21.3215932, "longitude": -157.8563731, "subtypes": "Urologist"}, {"name": "Dr. James C. Ng, MD", "address": "1380 Lusitana St #1004, Honolulu, HI 96813", "city": "Honolulu", "state": "Hawaii", "state_code": "HI", "phone": "+1 808-523-9400", "website": "", "rating": 3, "reviews": 4, "place_id": "ChIJDUgIW95tAHwRDusuwep6WIw", "latitude": 21.3080213, "longitude": -157.852902, "subtypes": "Urologist"}, {"name": "Dr. Alex Belshoff", "address": "1329 Lusitana St #406, Honolulu, HI 96813", "city": "Honolulu", "state": "Hawaii", "state_code": "HI", "phone": "+1 808-599-7779", "website": "https://www.alohaurology.com/", "rating": 5, "reviews": 1, "place_id": "ChIJJ87Gbt5tAHwRNElpn3ib_2o", "latitude": 21.3075759, "longitude": -157.852067, "subtypes": "Urologist"}, {"name": "Dr. Todd A. Miller, MD", "address": "888 S King St # 3, Honolulu, HI 96813", "city": "Honolulu", "state": "Hawaii", "state_code": "HI", "phone": "+1 808-522-4301", "website": "http://www.straubhealth.org/", "rating": 3, "reviews": 2, "place_id": "ChIJ2cvv1OBtAHwRf3nDdwQkyNs", "latitude": 21.3030246, "longitude": -157.8511103, "subtypes": "Urologist"}, {"name": "Lattimer D Gary MD", "address": "Physicians Office Building 2, 1329 Lusitana St SUITE 708, Honolulu, HI 96813", "city": "Honolulu", "state": "Hawaii", "state_code": "HI", "phone": "+1 808-537-5445", "website": "", "rating": 3.9, "reviews": 10, "place_id": "ChIJXfHBbN5tAHwRIPj7eqU_Z50", "latitude": 21.3076091, "longitude": -157.8520883, "subtypes": "Urologist"}, {"name": "Pediatric Urology: Ronald Sutherland MD, Lesli Nicolay MD and Carol B Cambareri APRN", "address": "1401 S Beretania St., Honolulu, HI 96814", "city": "Honolulu", "state": "Hawaii", "state_code": "HI", "phone": "+1 808-983-6633", "website": "https://www.hawaiipacifichealth.org/kapiolani/services/pediatric-urology/", "rating": 5, "reviews": 2, "place_id": "ChIJp41sXultAHwRB3BUrgCvZH4", "latitude": 21.2996402, "longitude": -157.8394022, "subtypes": "Pediatric urologist"}, {"name": "Chinn Stephen K MD", "address": "888 S King St, Honolulu, HI 96813", "city": "Honolulu", "state": "Hawaii", "state_code": "HI", "phone": "+1 808-522-4000", "website": "http://www.straubhealth.org/", "rating": 2, "reviews": 8, "place_id": "ChIJ2cvv1OBtAHwRdj-s-kByNTo", "latitude": 21.3030246, "longitude": -157.8511103, "subtypes": "Urologist"}, {"name": "Sutherland Ronald MD", "address": "Parking lot, 1319 Punahou St, Honolulu, HI 96826", "city": "Honolulu", "state": "Hawaii", "state_code": "HI", "phone": "+1 808-983-6633", "website": "http://www.kapiolani.org/", "rating": 5, "reviews": 3, "place_id": "ChIJ_2bzIuttAHwRdW1Mnsh_zfo", "latitude": 21.299995, "longitude": -157.8333443, "subtypes": "Urologist"}, {"name": "Urology Services", "address": "1301 Punchbowl St #4, Honolulu, HI 96813", "city": "Honolulu", "state": "Hawaii", "state_code": "HI", "phone": "+1 808-547-4100", "website": "", "rating": 5, "reviews": 1, "place_id": "ChIJ1T1Hud9tAHwRxOcT_THubNk", "latitude": 21.3078718, "longitude": -157.8548819, "subtypes": "Urologist"}, {"name": "Urology Care", "address": "1380 Lusitana St # 1008, Honolulu, HI 96813", "city": "Honolulu", "state": "Hawaii", "state_code": "HI", "phone": "+1 808-523-9400", "website": "", "rating": "", "reviews": "", "place_id": "ChIJDUgIW95tAHwRnNstL-yZf5w", "latitude": 21.3080213, "longitude": -157.852902, "subtypes": "Urologist"}, {"name": "Smotherman Jason T MD", "address": "1329 Lusitana St #507, Honolulu, HI 96813", "city": "Honolulu", "state": "Hawaii", "state_code": "HI", "phone": "+1 808-599-7779", "website": "http://www.alohaurology.com/", "rating": 5, "reviews": 2, "place_id": "ChIJXfHBbN5tAHwRru3FO6WFy1s", "latitude": 21.3075359, "longitude": -157.8521078, "subtypes": "Urologist"}, {"name": "Chinn Herbert KW Dr Inc", "address": "1329 Lusitana St # 108, Honolulu, HI 96813", "city": "Honolulu", "state": "Hawaii", "state_code": "HI", "phone": "+1 808-531-0848", "website": "", "rating": 2.7, "reviews": 6, "place_id": "ChIJXfHBbN5tAHwRzCArPz0o98o", "latitude": 21.307536, "longitude": -157.852108, "subtypes": "Urologist"}, {"name": "Pacific Urology, Inc", "address": "1029 Kapahulu Ave, Honolulu, HI 96816", "city": "Honolulu", "state": "Hawaii", "state_code": "HI", "phone": "", "website": "", "rating": "", "reviews": "", "place_id": "ChIJTZLZGoNtAHwRwHqu4-TITKQ", "latitude": 21.2870484, "longitude": -157.8128739, "subtypes": "Urology clinic"}, {"name": "Yee Terry Q MD", "address": "321 N Kuakini St STE 612, Honolulu, HI 96817", "city": "Honolulu", "state": "Hawaii", "state_code": "HI", "phone": "+1 808-523-7577", "website": "", "rating": "", "reviews": "", "place_id": "ChIJXZEqPNZtAHwRu54g7Z_oL84", "latitude": 21.3216288, "longitude": -157.8559476, "subtypes": "Urologist"}, {"name": "TOM S. FENG", "address": "711 Kapiolani Blvd Suite 500, Honolulu, HI 96813", "city": "Honolulu", "state": "Hawaii", "state_code": "HI", "phone": "+1 808-942-8108", "website": "https://healthy.kaiserpermanente.org/hawaii/provider/tom-feng-6058791", "rating": "", "reviews": "", "place_id": "ChIJJfUf7uFtAHwRr00qDJL925Y", "latitude": 21.301318, "longitude": -157.8559533, "subtypes": "Urologist"}, {"name": "Prostate Specialists", "address": "1329 Lusitana St #602, Honolulu, HI 96813", "city": "Honolulu", "state": "Hawaii", "state_code": "HI", "phone": "+1 808-522-5055", "website": "", "rating": "", "reviews": "", "place_id": "ChIJ_4TkbN5tAHwRiswn7t9lpCM", "latitude": 21.3075359, "longitude": -157.8521078, "subtypes": "Urologist"}, {"name": "Dr. Gregory P. Thibault, MD", "address": "1 Jarrett White Rd, TRIPLER AMC, HI 96859", "city": "TRIPLER AMC", "state": "Hawaii", "state_code": "HI", "phone": "+1 808-433-2460", "website": "", "rating": 1, "reviews": 1, "place_id": "ChIJ3xTzLMNuAHwR6KhK7A0_h3E", "latitude": 21.3597645, "longitude": -157.8900314, "subtypes": "Urologist"}, {"name": "Dr. Shawon Akanda", "address": "1329 Lusitana St #406, Honolulu, HI 96813", "city": "Honolulu", "state": "Hawaii", "state_code": "HI", "phone": "+1 808-599-7779", "website": "https://www.alohaurology.com/", "rating": "", "reviews": "", "place_id": "ChIJxR4cpvJtAHwR4ui1C4g0xiU", "latitude": 21.3075759, "longitude": -157.852067, "subtypes": "Urologist"}, {"name": "Stams Ulrich K MD", "address": "1329 Lusitana St # 307, Honolulu, HI 96813", "city": "Honolulu", "state": "Hawaii", "state_code": "HI", "phone": "+1 808-522-5055", "website": "", "rating": 1, "reviews": 1, "place_id": "ChIJXfHBbN5tAHwRVfp85ODg_cQ", "latitude": 21.3075359, "longitude": -157.8521078, "subtypes": "Urologist"}, {"name": "Richard I Tsou Inc", "address": "1329 Lusitana St #406, Honolulu, HI 96813", "city": "Honolulu", "state": "Hawaii", "state_code": "HI", "phone": "+1 808-537-6968", "website": "", "rating": "", "reviews": "", "place_id": "ChIJXfHBbN5tAHwRWCLHA1bu5JI", "latitude": 21.3076091, "longitude": -157.8520883, "subtypes": "Urologist"}, {"name": "BENJAMIN T. SHURTLEFF", "address": "711 Kapiolani Blvd Suite 500, Honolulu, HI 96813", "city": "Honolulu", "state": "Hawaii", "state_code": "HI", "phone": "+1 808-942-8108", "website": "", "rating": "", "reviews": "", "place_id": "ChIJJfUf7uFtAHwRakS6CwaOups", "latitude": 21.301318, "longitude": -157.8559533, "subtypes": "Urologist"}, {"name": "Dr. Timur Roytman", "address": "Physicians Office Building 2, 1329 Lusitana St Suite B5, Honolulu, HI 96813", "city": "Honolulu", "state": "Hawaii", "state_code": "HI", "phone": "+1 808-599-7779", "website": "https://www.alohaurology.com/", "rating": "", "reviews": "", "place_id": "ChIJq6rabt5tAHwR7l0rYdMCTcE", "latitude": 21.3076091, "longitude": -157.8520883, "subtypes": "Urologist"}, {"name": "Kenneth Witmer, MD", "address": "46-001 Kamehameha Hwy Suite 102, Kaneohe, HI 96744", "city": "Kaneohe", "state": "Hawaii", "state_code": "HI", "phone": "+1 808-263-5009", "website": "https://doctors.adventisthealth.org/provider/Kenneth%2BR%2BWitmer/1625868", "rating": 5, "reviews": 7, "place_id": "ChIJpS8-H98VAHwRSKNtPETRk7k", "latitude": 21.4188142, "longitude": -157.8017982, "subtypes": "Urologist"}, {"name": "WILLIAM JOSEPH UTZ", "address": "711 Kapiolani Blvd Suite 500, Honolulu, HI 96813", "city": "Honolulu", "state": "Hawaii", "state_code": "HI", "phone": "+1 808-942-8108", "website": "", "rating": "", "reviews": "", "place_id": "ChIJJfUf7uFtAHwRGlG6KtY2M3s", "latitude": 21.301318, "longitude": -157.8559533, "subtypes": "Urologist"}, {"name": "Dr. Ann M. Aspera, MD", "address": "3288 Moanalua Rd, Honolulu, HI 96819", "city": "Honolulu", "state": "Hawaii", "state_code": "HI", "phone": "+1 808-432-0000", "website": "", "rating": "", "reviews": "", "place_id": "ChIJ6QMPTtluAHwR9DMjpTagzeM", "latitude": 21.363393, "longitude": -157.899511, "subtypes": "Urologist"}, {"name": "Dr. Albert J. Mariani, MD", "address": "3288 Moanalua Rd, Honolulu, HI 96819", "city": "Honolulu", "state": "Hawaii", "state_code": "HI", "phone": "+1 808-432-0000", "website": "", "rating": "", "reviews": "", "place_id": "ChIJ6QMPTtluAHwRrAQc2M0GZmE", "latitude": 21.363393, "longitude": -157.899511, "subtypes": "Urologist"}, {"name": "Dr. Blaine S. Kristo, MD", "address": "3288 Moanalua Rd, Honolulu, HI 96819", "city": "Honolulu", "state": "Hawaii", "state_code": "HI", "phone": "+1 808-432-0000", "website": "", "rating": "", "reviews": "", "place_id": "ChIJ6QMPTtluAHwRd1N3rL3BQms", "latitude": 21.363393, "longitude": -157.899511, "subtypes": "Urologist"}, {"name": "Teruya Kent K MD", "address": "1329 Lusitana St Suite 508, Honolulu, HI 96813", "city": "Honolulu", "state": "Hawaii", "state_code": "HI", "phone": "+1 808-531-1511", "website": "", "rating": "", "reviews": "", "place_id": "ChIJXfHBbN5tAHwR1hO9qL7YQH8", "latitude": 21.3075359, "longitude": -157.8521078, "subtypes": "Urologist"}, {"name": "Froe Felecia MD", "address": "888 S King St, Honolulu, HI 96813", "city": "Honolulu", "state": "Hawaii", "state_code": "HI", "phone": "+1 808-522-4301", "website": "", "rating": "", "reviews": "", "place_id": "ChIJ2cvv1OBtAHwRKqNSzlIV3nc", "latitude": 21.3030246, "longitude": -157.8511103, "subtypes": "Urologist"}, {"name": "Nelson III James H MD", "address": "1329 Lusitana St #602, Honolulu, HI 96813", "city": "Honolulu", "state": "Hawaii", "state_code": "HI", "phone": "+1 808-522-5055", "website": "", "rating": "", "reviews": "", "place_id": "ChIJXfHBbN5tAHwR473lxAq94gk", "latitude": 21.3075359, "longitude": -157.8521078, "subtypes": "Urologist"}, {"name": "Dr. Craig A. Iriye, MD", "address": "888 S King St # 3, Honolulu, HI 96813", "city": "Honolulu", "state": "Hawaii", "state_code": "HI", "phone": "+1 808-522-4000", "website": "", "rating": "", "reviews": "", "place_id": "ChIJ2cvv1OBtAHwRvVLJxqU-idE", "latitude": 21.3030246, "longitude": -157.8511103, "subtypes": "Urologist"}, {"name": "Windward Urology", "address": "30 Aulike St, Kailua, HI 96734", "city": "Kailua", "state": "Hawaii", "state_code": "HI", "phone": "+1 808-261-4884", "website": "", "rating": "", "reviews": "", "place_id": "ChIJJziya9wUAHwR7Sk8d-WFy-c", "latitude": 21.3963223, "longitude": -157.7426439, "subtypes": "Urologist"}, {"name": "Dr. William J. Yarbrough Jr, MD", "address": "1329 Lusitana St #602, Honolulu, HI 96813", "city": "Honolulu", "state": "Hawaii", "state_code": "HI", "phone": "", "website": "", "rating": "", "reviews": "", "place_id": "ChIJXfHBbN5tAHwRPWDYKZQqvFc", "latitude": 21.3075359, "longitude": -157.8521078, "subtypes": "Urologist"}, {"name": "Dr. Robert M. Washecka, MD", "address": "3288 Moanalua Rd, Honolulu, HI 96819", "city": "Honolulu", "state": "Hawaii", "state_code": "HI", "phone": "+1 808-432-0000", "website": "", "rating": "", "reviews": "", "place_id": "ChIJ6QMPTtluAHwR5dzWPhBT2ew", "latitude": 21.363393, "longitude": -157.899511, "subtypes": "Urologist"}, {"name": "Michael DS Uechi Inc", "address": "321 N Kuakini St STE 704, Honolulu, HI 96817", "city": "Honolulu", "state": "Hawaii", "state_code": "HI", "phone": "+1 808-523-7991", "website": "", "rating": "", "reviews": "", "place_id": "ChIJXZEqPNZtAHwRXc4aTKjg_Ws", "latitude": 21.3216288, "longitude": -157.8559476, "subtypes": "Urologist"}, {"name": "East Hawaii Health - Urology", "address": "1285 Waianuenue Ave Second Floor, Hilo, HI 96720", "city": "Hilo", "state": "Hawaii", "state_code": "HI", "phone": "+1 808-932-4240", "website": "https://www.easthawaiihealthclinics.org/urology/", "rating": 2.6, "reviews": 7, "place_id": "ChIJq8gDaK20U3kR8vMHHj3BPrc", "latitude": 19.7169055, "longitude": -155.1134643, "subtypes": "Urologist"}, {"name": "Kaiser Permanente Medical: Hoekstra Todd H MD", "address": "3288 Moanalua Rd, Honolulu, HI 96819", "city": "Honolulu", "state": "Hawaii", "state_code": "HI", "phone": "+1 808-432-0000", "website": "https://healthy.kaiserpermanente.org/hawaii/provider/todd-hoekstra-5549534", "rating": "", "reviews": "", "place_id": "ChIJ6QMPTtluAHwR0DKchRZj1Es", "latitude": 21.363393, "longitude": -157.899511, "subtypes": "Urologist"}, {"name": "Dr. Richard S. Stack, MD", "address": "1 Jarrett White Rd, TRIPLER AMC, HI 96859", "city": "TRIPLER AMC", "state": "Hawaii", "state_code": "HI", "phone": "+1 808-433-2460", "website": "", "rating": "", "reviews": "", "place_id": "ChIJ3xTzLMNuAHwRrHUsdf2zGpc", "latitude": 21.3597645, "longitude": -157.8900314, "subtypes": "Urologist"}, {"name": "Dr. William G. Kennon III, MD", "address": "1 Jarrett White Rd, TRIPLER AMC, HI 96859", "city": "TRIPLER AMC", "state": "Hawaii", "state_code": "HI", "phone": "+1 808-433-2460", "website": "", "rating": "", "reviews": "", "place_id": "ChIJ3xTzLMNuAHwRS0bfOuHpcco", "latitude": 21.3601296, "longitude": -157.8894871, "subtypes": "Urologist"}, {"name": "Island Urology: Blake Randall MD", "address": "1329 Lusitana St #602, Honolulu, HI 96813", "city": "Honolulu", "state": "Hawaii", "state_code": "HI", "phone": "+1 808-522-5055", "website": "", "rating": "", "reviews": "", "place_id": "ChIJXfHBbN5tAHwRp0zGOlUh1uQ", "latitude": 21.3075359, "longitude": -157.8521078, "subtypes": "Urologist"}, {"name": "William G Davis Inc", "address": "1329 Lusitana St # 303, Honolulu, HI 96813", "city": "Honolulu", "state": "Hawaii", "state_code": "HI", "phone": "+1 808-521-8388", "website": "", "rating": "", "reviews": "", "place_id": "ChIJXfHBbN5tAHwR023MC1FiZ6o", "latitude": 21.3075359, "longitude": -157.8521078, "subtypes": "Urologist"}, {"name": "Haines J Glenn MD", "address": "480 Hoopalua Dr, Makawao, HI 96768", "city": "Makawao", "state": "Hawaii", "state_code": "HI", "phone": "+1 808-572-4008", "website": "", "rating": 5, "reviews": 1, "place_id": "ChIJkwUVGezLVHkR_7nF0dytIiM", "latitude": 20.8131953, "longitude": -156.3152574, "subtypes": "Urologist"}, {"name": "Dr. Norman H. Levey, MD", "address": "75-184 Hualalai Rd, Kailua-Kona, HI 96740", "city": "Kailua-Kona", "state": "Hawaii", "state_code": "HI", "phone": "+1 808-327-2900", "website": "", "rating": "", "reviews": "", "place_id": "ChIJbacD6_wOVHkRDLZndHsWVXA", "latitude": 19.6372135, "longitude": -155.9885989, "subtypes": "Urologist"}, {"name": "Alex Belshoff", "address": "91-2135 Fort Weaver Rd, Ewa Beach, HI 967061940", "city": "Ewa Beach", "state": "Hawaii", "state_code": "HI", "phone": "+1 808-777-4176", "website": "", "rating": 1, "reviews": 2, "place_id": "ChIJq_jlsmtkAHwRzIiJzbKSYo8", "latitude": 21.3712168, "longitude": -158.0270025, "subtypes": "Urologist"}, {"name": "Dr. David Kuchenbecker MD", "address": "30 Aulike St #602, Kailua, HI 96734", "city": "Kailua", "state": "Hawaii", "state_code": "HI", "phone": "+1 808-261-4884", "website": "https://www.adventisthealth.org/provider/david-a-kuchenbecker-md-urology", "rating": 1, "reviews": 1, "place_id": "ChIJJziya9wUAHwRpEiOvi1YGmA", "latitude": 21.3963517, "longitude": -157.7425727, "subtypes": "Urologist"}, {"name": "KENNETH R WITMER", "address": "30 Aulike St #602, Kailua, HI 96734", "city": "Kailua", "state": "Hawaii", "state_code": "HI", "phone": "+1 808-263-5014", "website": "", "rating": "", "reviews": "", "place_id": "ChIJ0R6iFNwUAHwRTfk-nh4Kr_Y", "latitude": 21.3963517, "longitude": -157.7425727, "subtypes": "Urologist"}, {"name": "Waipahu'a Outpatient'a Service's", "address": "94-216 Farrington Hwy B2-306, Waipahu, HI 96797", "city": "Waipahu", "state": "Hawaii", "state_code": "HI", "phone": "+1 910-997-5054", "website": "", "rating": "", "reviews": "", "place_id": "ChIJAfuwZo3nVIgRjIfm4W4bfXw", "latitude": 21.3796068, "longitude": -158.0204453, "subtypes": "Urologist"}, {"name": "Dr. Lyric L. Santiago, MD", "address": "East hawaii health clinic, 1285 Waianuenue Ave Second Floor, Hilo, HI 96720", "city": "Hilo", "state": "Hawaii", "state_code": "HI", "phone": "+1 808-932-4240", "website": "https://www.hilomedicalcenter.org/", "rating": 3, "reviews": 2, "place_id": "ChIJq8gDaK20U3kRIoVzGNKTZYY", "latitude": 19.7169166, "longitude": -155.1133632, "subtypes": "Urologist"}, {"name": "Dr. Raithaus's", "address": "670 Ponahawai St, Hilo, HI 96720", "city": "Hilo", "state": "Hawaii", "state_code": "HI", "phone": "+1 808-961-0151", "website": "", "rating": "", "reviews": "", "place_id": "ChIJtUtUuLK0U3kREQgCXL6wjcs", "latitude": 19.7143408, "longitude": -155.096592, "subtypes": "Urologist"}, {"name": "Dr. Richard Stack", "address": "1285 Waianuenue Ave, Hilo, HI 96720", "city": "Hilo", "state": "Hawaii", "state_code": "HI", "phone": "+1 808-932-3940", "website": "https://www.easthawaiihealthclinics.org/urology/", "rating": "", "reviews": "", "place_id": "ChIJq6r6Xru0U3kRVI-G4JniJ2M", "latitude": 19.7169057, "longitude": -155.1133489, "subtypes": "Urologist"}, {"name": "Dr. Lawrence Raithaus", "address": "670 Ponahawai St # 118, Hilo, HI 96720", "city": "Hilo", "state": "Hawaii", "state_code": "HI", "phone": "+1 808-961-0151", "website": "", "rating": "", "reviews": "", "place_id": "ChIJtUtUuLK0U3kRJlZwVXutLmo", "latitude": 19.7143923, "longitude": -155.0966937, "subtypes": "Urologist"}, {"name": "Stams Ulrich K MD", "address": "670 Ponahawai St # 118, Hilo, HI 96720", "city": "Hilo", "state": "Hawaii", "state_code": "HI", "phone": "+1 808-961-0151", "website": "", "rating": "", "reviews": "", "place_id": "ChIJ8cgKubK0U3kRMSlesfXnXX0", "latitude": 19.7143923, "longitude": -155.0966937, "subtypes": "Urologist"}]