[{"name": "Salina Urology Associates PA", "address": "218 S Santa Fe Ave, Salina, KS 67401", "city": "Salina", "state": "Kansas", "state_code": "KS", "phone": "+1 785-827-9635", "website": "https://www.salinaurology.com/", "rating": 4.3, "reviews": 26, "place_id": "ChIJdTP2tPnFvIcRkABLgMaPEtY", "latitude": 38.837402, "longitude": -97.6095156, "subtypes": "Urologist"}, {"name": "KCUC - Overland Park", "address": "10701 Nall Ave, Overland Park, KS 66211", "city": "Overland Park", "state": "Kansas", "state_code": "KS", "phone": "+1 913-338-5585", "website": "https://www.kcuc.com/", "rating": 4.7, "reviews": 1068, "place_id": "ChIJHTKxRULrwIcRDeMB1unasaA", "latitude": 38.9341422, "longitude": -94.6480503, "subtypes": "Urologist"}, {"name": "Kansas City Urology Care", "address": "8551 Bluejacket, Lenexa, KS 66214", "city": "Lenexa", "state": "Kansas", "state_code": "KS", "phone": "", "website": "", "rating": 5, "reviews": 1, "place_id": "ChIJuemW_V7rwIcRSm2p-ws_hjA", "latitude": 38.9735984, "longitude": -94.7100786, "subtypes": "Urology clinic"}, {"name": "Austenfeld Marcus A MD", "address": "3901 Rainbow Blvd # 3016, Kansas City, KS 66160", "city": "Kansas City", "state": "Kansas", "state_code": "KS", "phone": "+1 913-588-5000", "website": "http://www.kumc.edu/", "rating": 4.9, "reviews": 117, "place_id": "ChIJc-0WAy_uwIcRN2Cq-wxOqIg", "latitude": 39.0589176, "longitude": -94.6106885, "subtypes": "Urologist"}, {"name": "KCUC - AdventHealth Shawnee", "address": "7450 Kessler St Suite 110, Merriam, KS 66204", "city": "Merriam", "state": "Kansas", "state_code": "KS", "phone": "+1 913-831-1003", "website": "https://www.kcuc.com/%3Flocation%3Dadvent-health-shawnee-ks", "rating": 4.8, "reviews": 886, "place_id": "ChIJwxxBrI3swIcR136w1noQXqQ", "latitude": 38.9935918, "longitude": -94.6940049, "subtypes": "Urology clinic"}, {"name": "The University of Kansas Department of Urology", "address": "3901 Rainbow Blvd, Kansas City, KS 66103", "city": "Kansas City", "state": "Kansas", "state_code": "KS", "phone": "+1 913-588-6146", "website": "https://urologyku.com/", "rating": 3.7, "reviews": 3, "place_id": "ChIJb-IZlvvvwIcR1jl_rP6JLgk", "latitude": 39.0549889, "longitude": -94.6114094, "subtypes": "Urologist"}, {"name": "The University of Kansas Health System Medical Pavilion Urology", "address": "2000 Olathe Blvd, Kansas City, KS 66160", "city": "Kansas City", "state": "Kansas", "state_code": "KS", "phone": "+1 913-588-6146", "website": "https://www.kansashealthsystem.com/care/specialties/urology%3Futm_source%3Dgmb%26utm_medium%3Dweb%26utm_term%3D%26utm_content%3D%26utm_campaign%3Dkyruus_brandify", "rating": 5, "reviews": 2, "place_id": "ChIJRzES3-fvwIcRRs6HzwH2Nfs", "latitude": 39.0546229, "longitude": -94.608718, "subtypes": "Urology clinic"}, {"name": "Kansas City Urology Care PA", "address": "7450 Kessler St, Merriam, KS 66204", "city": "Merriam", "state": "Kansas", "state_code": "KS", "phone": "+1 913-831-1003", "website": "https://www.kcuc.com/", "rating": 2.8, "reviews": 6, "place_id": "ChIJY-2u3ZbtwIcRwiJxgr5iwmU", "latitude": 38.993744, "longitude": -94.6938138, "subtypes": "Urology clinic"}, {"name": "KCUC - Overland Park Regional", "address": "10550 Quivira Rd #530, Lenexa, KS 66215", "city": "Lenexa", "state": "Kansas", "state_code": "KS", "phone": "+1 913-780-3388", "website": "https://www.kcuc.com/", "rating": 4.4, "reviews": 91, "place_id": "ChIJAee0i8nrwIcRMiemea071bM", "latitude": 38.9371502, "longitude": -94.72529259999999, "subtypes": "Urology clinic"}, {"name": "David A Duchene, MD", "address": "2000 Olathe Blvd, Kansas City, KS 66160", "city": "Kansas City", "state": "Kansas", "state_code": "KS", "phone": "+1 913-588-1227", "website": "https://findadoctor.kansashealthsystem.com/provider/David%2BA%2BDuchene/1220945%3Futm_source%3Dgmb%26utm_medium%3Dweb%26utm_term%3D%26utm_content%3D%26utm_campaign%3Dkyruus_brandify", "rating": 5, "reviews": 4, "place_id": "ChIJOyYWkanrwIcRPVkS3LUDb-4", "latitude": 39.0546157, "longitude": -94.608755, "subtypes": "Urologist"}, {"name": "Advanced Urologic Associates - Overland Park", "address": "12330 Metcalf Ave Suite 500A, Overland Park, KS 66213", "city": "Overland Park", "state": "Kansas", "state_code": "KS", "phone": "+1 913-296-5200", "website": "http://www.saintlukeskc.org/locations/advanced-urologic-associates-overland-park%3Futm_source%3Dyext%26utm_medium%3Dlocal_listing%26utm_campaign%3Dyext_listing", "rating": 4.6, "reviews": 46, "place_id": "ChIJk7PlvBXrwIcRGeM1U2wjpMk", "latitude": 38.9036921, "longitude": -94.6696836, "subtypes": "Urology clinic"}, {"name": "Lindsay Hertzig, MD", "address": "10701 Nall Ave #100, Overland Park, KS 66211", "city": "Overland Park", "state": "Kansas", "state_code": "KS", "phone": "+1 816-444-5525", "website": "http://www.kcuc.com/", "rating": 4.9, "reviews": 551, "place_id": "ChIJIfT0MonlwIcRLyjyUNqtI3k", "latitude": 38.9342761, "longitude": -94.6482135, "subtypes": "Urologist"}, {"name": "Christian A. Hettinger, MD", "address": "10701 Nall Ave #100, Leawood, KS 66211", "city": "Leawood", "state": "Kansas", "state_code": "KS", "phone": "+1 913-338-5585", "website": "http://www.kcuc.com/", "rating": 4.9, "reviews": 632, "place_id": "ChIJG1fPqCvqwIcRa3uO2dOAHVs", "latitude": 38.934044, "longitude": -94.64830909999999, "subtypes": "Urologist"}, {"name": "Urologic Surgery Associates", "address": "10550 S Quivira Rd #530, Overland Park, KS 66215", "city": "Overland Park", "state": "Kansas", "state_code": "KS", "phone": "+1 913-438-3833", "website": "", "rating": 4.7, "reviews": 305, "place_id": "ChIJXyTFByvrwIcR3C6JVTlA7r8", "latitude": 38.9376289, "longitude": -94.72400979999999, "subtypes": "Urologist"}, {"name": "Son Nguyen, MD", "address": "7450 Kessler St Suite 110, Merriam, KS 66204", "city": "Merriam", "state": "Kansas", "state_code": "KS", "phone": "+1 913-831-1003", "website": "http://www.kcuc.com/", "rating": 4.9, "reviews": 453, "place_id": "ChIJwxxBrI3swIcRGvYuyaC85fM", "latitude": 38.9935918, "longitude": -94.6940049, "subtypes": "Urologist"}, {"name": "Andrew Flum, MD", "address": "10701 Nall Ave #100, Overland Park, KS 66211", "city": "Overland Park", "state": "Kansas", "state_code": "KS", "phone": "+1 913-338-5585", "website": "http://www.kcuc.com/", "rating": 4.9, "reviews": 371, "place_id": "ChIJvR-5lSbrwIcRC2uPCw2Aq9k", "latitude": 38.9341278, "longitude": -94.64818369999999, "subtypes": "Urologist"}, {"name": "Susan D. Sweat, MD", "address": "7450 Kessler St Suite 110, Overland Park, KS 66204", "city": "Overland Park", "state": "Kansas", "state_code": "KS", "phone": "+1 913-831-1003", "website": "http://www.kcuc.com/", "rating": 4.9, "reviews": 610, "place_id": "ChIJwxxBrI3swIcRRN2Vf1d-WYE", "latitude": 38.9935918, "longitude": -94.6940049, "subtypes": "Urologist"}, {"name": "Joshua A Broghammer, MD", "address": "2000 Olathe Blvd, Kansas City, KS 66160", "city": "Kansas City", "state": "Kansas", "state_code": "KS", "phone": "+1 913-588-1227", "website": "https://findadoctor.kansashealthsystem.com/provider/Joshua%2BA%2BBroghammer/1220159%3Futm_source%3Dgmb%26utm_medium%3Dweb%26utm_term%3D%26utm_content%3D%26utm_campaign%3Dkyruus_brandify", "rating": 4.1, "reviews": 18, "place_id": "ChIJc-0WAy_uwIcRMQQGR5jgQNQ", "latitude": 39.0546157, "longitude": -94.608755, "subtypes": "Urologist"}, {"name": "Moben Mirza, MD", "address": "2000 Olathe Blvd, Kansas City, KS 66160", "city": "Kansas City", "state": "Kansas", "state_code": "KS", "phone": "+1 913-588-1227", "website": "https://findadoctor.kansashealthsystem.com/provider/Moben%2BMirza/1220900%3Futm_source%3Dgmb%26utm_medium%3Dweb%26utm_term%3D%26utm_content%3D%26utm_campaign%3Dkyruus_brandify", "rating": 5, "reviews": 7, "place_id": "ChIJJYAEd4LrwIcRyKyR5wTkNRs", "latitude": 39.0546157, "longitude": -94.608755, "subtypes": "Urologist"}, {"name": "Jeffrey M Holzbeierlein, MD", "address": "2000 Olathe Blvd, Kansas City, KS 66160", "city": "Kansas City", "state": "Kansas", "state_code": "KS", "phone": "+1 913-588-1227", "website": "https://findadoctor.kansashealthsystem.com/provider/Jeffrey%2BM%2BHolzbeierlein/1220914%3Futm_source%3Dgmb%26utm_medium%3Dweb%26utm_term%3D%26utm_content%3D%26utm_campaign%3Dkyruus_brandify", "rating": 5, "reviews": 5, "place_id": "ChIJ9cojRWLrwIcRaSo-xXaFhIc", "latitude": 39.0546157, "longitude": -94.608755, "subtypes": "Urologist"}, {"name": "Donald A Neff, MD", "address": "2000 Olathe Blvd, Kansas City, KS 66160", "city": "Kansas City", "state": "Kansas", "state_code": "KS", "phone": "+1 913-588-1227", "website": "https://findadoctor.kansashealthsystem.com/provider/Donald%2BA%2BNeff/1220969%3Futm_source%3Dgmb%26utm_medium%3Dweb%26utm_term%3D%26utm_content%3D%26utm_campaign%3Dkyruus_brandify", "rating": 5, "reviews": 2, "place_id": "ChIJuQ9gI_PrwIcRlWQjxezjBIc", "latitude": 39.0546959, "longitude": -94.6087522, "subtypes": "Urologist"}, {"name": "Hadley W Wyre, MD", "address": "2000 Olathe Blvd, Kansas City, KS 66160", "city": "Kansas City", "state": "Kansas", "state_code": "KS", "phone": "+1 913-588-1227", "website": "https://findadoctor.kansashealthsystem.com/provider/Hadley%2BW%2BWyre/1221122%3Futm_source%3Dgmb%26utm_medium%3Dweb%26utm_term%3D%26utm_content%3D%26utm_campaign%3Dkyruus_brandify", "rating": 4.2, "reviews": 6, "place_id": "ChIJW91AaVDvwIcRGX-GAZjl8Kc", "latitude": 39.0546157, "longitude": -94.608755, "subtypes": "Urologist"}, {"name": "Ajay K Nangia, MD", "address": "2000 Olathe Blvd, Kansas City, KS 66160", "city": "Kansas City", "state": "Kansas", "state_code": "KS", "phone": "+1 913-588-1227", "website": "https://findadoctor.kansashealthsystem.com/provider/Ajay%2BK%2BNangia/1220632%3Futm_source%3Dgmb%26utm_medium%3Dweb%26utm_term%3D%26utm_content%3D%26utm_campaign%3Dkyruus_brandify", "rating": 4.2, "reviews": 5, "place_id": "ChIJicReIbHrwIcR4xfcbyfOjvY", "latitude": 39.0546157, "longitude": -94.608755, "subtypes": "Urologist"}, {"name": "Colby E Souders, MD", "address": "2000 Olathe Blvd, Kansas City, KS 66160", "city": "Kansas City", "state": "Kansas", "state_code": "KS", "phone": "+1 913-588-1227", "website": "https://findadoctor.kansashealthsystem.com/provider/Colby%2BE%2BSouders/2338426%3Futm_source%3Dgmb%26utm_medium%3Dweb%26utm_term%3D%26utm_content%3D%26utm_campaign%3Dkyruus_brandify", "rating": 5, "reviews": 1, "place_id": "ChIJaagGEqjvwIcRFQTqUBZQ6b8", "latitude": 39.0546157, "longitude": -94.608755, "subtypes": "Urologist"}, {"name": "Casey G Kowalik, MD", "address": "2000 Olathe Blvd, Kansas City, KS 66160", "city": "Kansas City", "state": "Kansas", "state_code": "KS", "phone": "+1 913-588-1227", "website": "https://findadoctor.kansashealthsystem.com/provider/Casey%2BG%2BKowalik/1221448%3Futm_source%3Dgmb%26utm_medium%3Dweb%26utm_term%3D%26utm_content%3D%26utm_campaign%3Dkyruus_brandify", "rating": 3.7, "reviews": 3, "place_id": "ChIJFYthtYzrwIcRUdTnM6KY1Ww", "latitude": 39.0546157, "longitude": -94.608755, "subtypes": "Urologist"}, {"name": "Tomas L Griebling, MD, MPH", "address": "2000 Olathe Blvd, Kansas City, KS 66160", "city": "Kansas City", "state": "Kansas", "state_code": "KS", "phone": "+1 913-588-1227", "website": "https://findadoctor.kansashealthsystem.com/provider/Tomas%2BL%2BGriebling/1220852%3Futm_source%3Dgmb%26utm_medium%3Dweb%26utm_term%3D%26utm_content%3D%26utm_campaign%3Dkyruus_brandify", "rating": 3.4, "reviews": 5, "place_id": "ChIJwTZiPVrrwIcRxT7AvtQRvro", "latitude": 39.0546157, "longitude": -94.608755, "subtypes": "Urologist"}, {"name": "Dr. Sara Hoestje", "address": "7450 Kessler St Suite 110, Merriam, KS 66204", "city": "Merriam", "state": "Kansas", "state_code": "KS", "phone": "+1 913-831-1003", "website": "https://doctors.saintlukeskc.org/provider/sara-m-hoestje/1457832", "rating": 5, "reviews": 1, "place_id": "ChIJK8-Jqo3swIcRHLqHvAYzeXw", "latitude": 38.9950667, "longitude": -94.6942914, "subtypes": "Urologist"}, {"name": "Mr. William Herre", "address": "9301 W 74th St, Merriam, KS 66204", "city": "Merriam", "state": "Kansas", "state_code": "KS", "phone": "+1 913-831-1003", "website": "", "rating": 5, "reviews": 1, "place_id": "ChIJf0REqo3swIcR2Yr8WScTWCQ", "latitude": 38.9950092, "longitude": -94.6943489, "subtypes": "Urologist"}, {"name": "Hamilton Zachary A MD", "address": "3901 Rainbow Blvd, Kansas City, KS 66160", "city": "Kansas City", "state": "Kansas", "state_code": "KS", "phone": "+1 913-588-5000", "website": "http://www.kumc.edu/", "rating": "", "reviews": "", "place_id": "ChIJc-0WAy_uwIcREHuO4zS1I1c", "latitude": 39.0567173, "longitude": -94.61163859999999, "subtypes": "Urologist"}, {"name": "Dr. Julie L. Wei, MD", "address": "3901 Rainbow Blvd, Kansas City, KS 66103", "city": "Kansas City", "state": "Kansas", "state_code": "KS", "phone": "+1 913-588-5730", "website": "", "rating": "", "reviews": "", "place_id": "ChIJc-0WAy_uwIcREiOdNM-Kd9k", "latitude": 39.0561921, "longitude": -94.6114044, "subtypes": "Urologist"}, {"name": "Dr. Joseph A. Myers, MD", "address": "8919 Parallel Pkwy # 231, Kansas City, KS 66112", "city": "Kansas City", "state": "Kansas", "state_code": "KS", "phone": "+1 913-596-2211", "website": "", "rating": 1, "reviews": 1, "place_id": "ChIJTc2dxG2MwIcREY3wto53CTQ", "latitude": 39.1268333, "longitude": -94.7866433, "subtypes": "Urologist"}, {"name": "Emmott David F MD", "address": "9301 W 74th St #225, Overland Park, KS 66204", "city": "Overland Park", "state": "Kansas", "state_code": "KS", "phone": "+1 913-831-1003", "website": "http://kcurology.com/", "rating": 4, "reviews": 11, "place_id": "ChIJwxxBrI3swIcRhnM1J6JEBd4", "latitude": 38.9950667, "longitude": -94.6942914, "subtypes": "Urologist"}, {"name": "John A Taylor, MD", "address": "4000 Cambridge St, Kansas City, KS 66160", "city": "Kansas City", "state": "Kansas", "state_code": "KS", "phone": "+1 913-588-1227", "website": "https://findadoctor.kansashealthsystem.com/provider/John%2BA%2BTaylor/1221106%3Futm_source%3Dgmb%26utm_medium%3Dweb%26utm_term%3D%26utm_content%3D%26utm_campaign%3Dkyruus_brandify", "rating": "", "reviews": "", "place_id": "ChIJh8BeTmXrwIcR9B-Wudws-dk", "latitude": 39.0563845, "longitude": -94.6085848, "subtypes": "Urologist"}, {"name": "Womble Paul R MD", "address": "3901 Rainbow Blvd, Kansas City, KS 66103", "city": "Kansas City", "state": "Kansas", "state_code": "KS", "phone": "+1 913-588-6381", "website": "http://www.kumc.edu/", "rating": "", "reviews": "", "place_id": "ChIJc-0WAy_uwIcRcUThoc1NZsg", "latitude": 39.0561921, "longitude": -94.6114044, "subtypes": "Urologist"}, {"name": "University of Kansas Physicians Inc: Wieneke Brogha Carrie MD", "address": "3901 Rainbow Blvd, Kansas City, KS 66103", "city": "Kansas City", "state": "Kansas", "state_code": "KS", "phone": "+1 913-588-6200", "website": "https://findadoctor.kansashealthsystem.com/search%3Fname%3DCarrie%2520L%2520Wieneke%2520Broghammer%26sort%3Dnetworks%252Crelevance", "rating": "", "reviews": "", "place_id": "ChIJc-0WAy_uwIcRZtLrvlmriS8", "latitude": 39.0544907, "longitude": -94.6092372, "subtypes": "Urologist"}, {"name": "Dr. Roy K. Oyer", "address": "8919 Parallel Pkwy #550, Kansas City, KS 66112", "city": "Kansas City", "state": "Kansas", "state_code": "KS", "phone": "+1 913-281-8406", "website": "http://www.stjohnleavenworth.com/", "rating": "", "reviews": "", "place_id": "ChIJTc2dxG2MwIcRx46w3vosQus", "latitude": 39.1274152, "longitude": -94.7857155, "subtypes": "Urologist"}, {"name": "NMC Health | Urology Specialists", "address": "800 Medical Center Dr, Newton, KS 67114", "city": "Newton", "state": "Kansas", "state_code": "KS", "phone": "+1 316-804-6200", "website": "https://www.mynmchealth.org/locations/specialty-care/urology-specialists/", "rating": 4.8, "reviews": 69, "place_id": "ChIJ3wukBcoTu4cRVaqbIxUMsl8", "latitude": 38.0240716, "longitude": -97.33199359999999, "subtypes": "Urology clinic"}, {"name": "Faris Azzouni, MD", "address": "800 Medical Center Dr, Newton, KS 67114", "city": "Newton", "state": "Kansas", "state_code": "KS", "phone": "+1 316-804-6200", "website": "https://www.mynmchealth.org/locations/specialty-care/urology-specialists/", "rating": 4.8, "reviews": 57, "place_id": "ChIJ33RNYTcTu4cRQI_wicXalaI", "latitude": 38.0240716, "longitude": -97.33199359999999, "subtypes": "Urologist"}, {"name": "Philippe Nabbout", "address": "700 Medical Center Dr STE 101, Newton, KS 67114", "city": "Newton", "state": "Kansas", "state_code": "KS", "phone": "+1 316-333-1937", "website": "", "rating": 5, "reviews": 2, "place_id": "ChIJV4UgFOsTu4cRUCAcw4-y4Mw", "latitude": 38.0231509, "longitude": -97.3337681, "subtypes": "Urologist"}, {"name": "Urology Clinic of Kansas", "address": "700 Medical Center Dr STE 130, Newton, KS 67114", "city": "Newton", "state": "Kansas", "state_code": "KS", "phone": "+1 316-284-0026", "website": "", "rating": "", "reviews": "", "place_id": "ChIJZQ9bCusTu4cRFjbBLxYhOF8", "latitude": 38.0231403, "longitude": -97.3340726, "subtypes": "Urologist"}, {"name": "KCUC - AdventHealth Shawnee", "address": "7450 Kessler St Suite 110, Merriam, KS 66204", "city": "Merriam", "state": "Kansas", "state_code": "KS", "phone": "+1 913-831-1003", "website": "https://www.kcuc.com/%3Flocation%3Dadvent-health-shawnee-ks", "rating": 4.8, "reviews": 886, "place_id": "ChIJwxxBrI3swIcR136w1noQXqQ", "latitude": 38.9935918, "longitude": -94.6940049, "subtypes": "Urology clinic"}, {"name": "Kansas City Urology Care PA", "address": "7450 Kessler St, Merriam, KS 66204", "city": "Merriam", "state": "Kansas", "state_code": "KS", "phone": "+1 913-831-1003", "website": "https://www.kcuc.com/", "rating": 2.8, "reviews": 6, "place_id": "ChIJY-2u3ZbtwIcRwiJxgr5iwmU", "latitude": 38.993744, "longitude": -94.6938138, "subtypes": "Urology clinic"}, {"name": "Son Nguyen, MD", "address": "7450 Kessler St Suite 110, Merriam, KS 66204", "city": "Merriam", "state": "Kansas", "state_code": "KS", "phone": "+1 913-831-1003", "website": "http://www.kcuc.com/", "rating": 4.9, "reviews": 453, "place_id": "ChIJwxxBrI3swIcRGvYuyaC85fM", "latitude": 38.9935918, "longitude": -94.6940049, "subtypes": "Urologist"}, {"name": "KCUC - Overland Park", "address": "10701 Nall Ave, Overland Park, KS 66211", "city": "Overland Park", "state": "Kansas", "state_code": "KS", "phone": "+1 913-338-5585", "website": "https://www.kcuc.com/", "rating": 4.7, "reviews": 1068, "place_id": "ChIJHTKxRULrwIcRDeMB1unasaA", "latitude": 38.9341422, "longitude": -94.6480503, "subtypes": "Urologist"}, {"name": "Scott A. Montgomery, MD", "address": "7450 Kessler St Suite 110, Merriam, KS 66204", "city": "Merriam", "state": "Kansas", "state_code": "KS", "phone": "+1 913-831-1003", "website": "http://www.kcuc.com/", "rating": 4.9, "reviews": 437, "place_id": "ChIJeZNTTYrswIcRN5WiM4JAQ6Q", "latitude": 38.9935918, "longitude": -94.6940049, "subtypes": "Urologist"}, {"name": "KCUC - Overland Park Regional", "address": "10550 Quivira Rd #530, Lenexa, KS 66215", "city": "Lenexa", "state": "Kansas", "state_code": "KS", "phone": "+1 913-780-3388", "website": "https://www.kcuc.com/", "rating": 4.4, "reviews": 91, "place_id": "ChIJAee0i8nrwIcRMiemea071bM", "latitude": 38.9371502, "longitude": -94.72529259999999, "subtypes": "Urology clinic"}, {"name": "Urologic Surgery Associates", "address": "10550 S Quivira Rd #530, Overland Park, KS 66215", "city": "Overland Park", "state": "Kansas", "state_code": "KS", "phone": "+1 913-438-3833", "website": "", "rating": 4.7, "reviews": 305, "place_id": "ChIJXyTFByvrwIcR3C6JVTlA7r8", "latitude": 38.9376289, "longitude": -94.72400979999999, "subtypes": "Urologist"}, {"name": "Kansas City Urology Care", "address": "8551 Bluejacket, Lenexa, KS 66214", "city": "Lenexa", "state": "Kansas", "state_code": "KS", "phone": "", "website": "", "rating": 5, "reviews": 1, "place_id": "ChIJuemW_V7rwIcRSm2p-ws_hjA", "latitude": 38.9735984, "longitude": -94.7100786, "subtypes": "Urology clinic"}, {"name": "Mr. William Herre", "address": "9301 W 74th St, Merriam, KS 66204", "city": "Merriam", "state": "Kansas", "state_code": "KS", "phone": "+1 913-831-1003", "website": "", "rating": 5, "reviews": 1, "place_id": "ChIJf0REqo3swIcR2Yr8WScTWCQ", "latitude": 38.9950092, "longitude": -94.6943489, "subtypes": "Urologist"}, {"name": "Susan D. Sweat, MD", "address": "7450 Kessler St Suite 110, Overland Park, KS 66204", "city": "Overland Park", "state": "Kansas", "state_code": "KS", "phone": "+1 913-831-1003", "website": "http://www.kcuc.com/", "rating": 4.9, "reviews": 610, "place_id": "ChIJwxxBrI3swIcRRN2Vf1d-WYE", "latitude": 38.9935918, "longitude": -94.6940049, "subtypes": "Urologist"}, {"name": "Advanced Urologic Associates - Overland Park", "address": "12330 Metcalf Ave Suite 500A, Overland Park, KS 66213", "city": "Overland Park", "state": "Kansas", "state_code": "KS", "phone": "+1 913-296-5200", "website": "http://www.saintlukeskc.org/locations/advanced-urologic-associates-overland-park%3Futm_source%3Dyext%26utm_medium%3Dlocal_listing%26utm_campaign%3Dyext_listing", "rating": 4.6, "reviews": 46, "place_id": "ChIJk7PlvBXrwIcRGeM1U2wjpMk", "latitude": 38.9036921, "longitude": -94.6696836, "subtypes": "Urology clinic"}, {"name": "Lindsay Hertzig, MD", "address": "10701 Nall Ave #100, Overland Park, KS 66211", "city": "Overland Park", "state": "Kansas", "state_code": "KS", "phone": "+1 816-444-5525", "website": "http://www.kcuc.com/", "rating": 4.9, "reviews": 551, "place_id": "ChIJIfT0MonlwIcRLyjyUNqtI3k", "latitude": 38.9342761, "longitude": -94.6482135, "subtypes": "Urologist"}, {"name": "Brice D. Weber, Pac", "address": "8901 W 74th St #200, Merriam, KS 66204", "city": "Merriam", "state": "Kansas", "state_code": "KS", "phone": "+1 913-831-1003", "website": "http://www.kcurology.com/", "rating": "", "reviews": "", "place_id": "ChIJeZNTTYrswIcRo8Nns620S5Q", "latitude": 38.9944357, "longitude": -94.689044, "subtypes": "Urologist"}, {"name": "Wichita Urology Group Pa", "address": "7570 W 21st St # 1014A, Wichita, KS 67205", "city": "Wichita", "state": "Kansas", "state_code": "KS", "phone": "+1 316-721-0119", "website": "", "rating": 4.8, "reviews": 391, "place_id": "ChIJK1P7l0DguocR8pMdhHcwpP0", "latitude": 37.7245958, "longitude": -97.43202939999999, "subtypes": "Urology clinic"}, {"name": "Wichita Urology", "address": "2077 N Webb Rd, Wichita, KS 67206", "city": "Wichita", "state": "Kansas", "state_code": "KS", "phone": "+1 316-636-6100", "website": "http://wichitaurology.com/", "rating": 4.8, "reviews": 145, "place_id": "ChIJkT6fgGL9uocR3MYHpPSvT8w", "latitude": 37.721238, "longitude": -97.2277266, "subtypes": "Urology clinic"}, {"name": "Wichita Urology Group", "address": "2626 N Webb Rd, Wichita, KS 67226", "city": "Wichita", "state": "Kansas", "state_code": "KS", "phone": "+1 316-636-6100", "website": "", "rating": 4.7, "reviews": 1576, "place_id": "ChIJSZjW1gv9uocRc6T--XcrfnA", "latitude": 37.7310495, "longitude": -97.2253314, "subtypes": "Urology clinic"}, {"name": "Philippe Nabbout", "address": "2626 N Webb Rd, Wichita, KS 67226", "city": "Wichita", "state": "Kansas", "state_code": "KS", "phone": "+1 316-636-6100", "website": "https://wichitaurology.com/our-team/", "rating": 4.9, "reviews": 68, "place_id": "ChIJ__8_0Qv9uocRY1AGYkMKYIs", "latitude": 37.7310929, "longitude": -97.2252709, "subtypes": "Urologist"}, {"name": "Dr. Ayham J. Farha, MD", "address": "7570 W 21st St # 1014A, Wichita, KS 67205", "city": "Wichita", "state": "Kansas", "state_code": "KS", "phone": "+1 316-721-0119", "website": "", "rating": 4.8, "reviews": 62, "place_id": "ChIJK1P7l0DguocRSBF1RC1O_j4", "latitude": 37.7245242, "longitude": -97.4300212, "subtypes": "Urologist"}, {"name": "Fadi N Joudi MD", "address": "2626 N Webb Rd, Wichita, KS 67226", "city": "Wichita", "state": "Kansas", "state_code": "KS", "phone": "+1 316-636-6100", "website": "", "rating": 5, "reviews": 103, "place_id": "ChIJSZjW1gv9uocRZsj0wp5QrsU", "latitude": 37.7310495, "longitude": -97.2253314, "subtypes": "Urologist"}, {"name": "Jeffrey Davis", "address": "2626 N Webb Rd, Wichita, KS 67226", "city": "Wichita", "state": "Kansas", "state_code": "KS", "phone": "+1 316-636-6100", "website": "", "rating": 4.9, "reviews": 32, "place_id": "ChIJ__8_0Qv9uocRl6U9Giv8pvU", "latitude": 37.7310929, "longitude": -97.2252709, "subtypes": "Urologist"}, {"name": "Patrick A. Houghton, MD", "address": "2626 N Webb Rd, Wichita, KS 67226", "city": "Wichita", "state": "Kansas", "state_code": "KS", "phone": "+1 316-636-6100", "website": "https://healthcare.ascension.org/find-care/provider/1922531383/patrick-houghton", "rating": 4.9, "reviews": 47, "place_id": "ChIJW5oV0Qv9uocRYGCPxB2JkAA", "latitude": 37.7310913, "longitude": -97.2252717, "subtypes": "Urologist"}, {"name": "Byrd Gregory F MD", "address": "2626 N Webb Rd, Wichita, KS 67226", "city": "Wichita", "state": "Kansas", "state_code": "KS", "phone": "+1 316-636-6100", "website": "http://wichitaurology.com/", "rating": 5, "reviews": 46, "place_id": "ChIJSZjW1gv9uocRyNqCstaJ-tU", "latitude": 37.7311041, "longitude": -97.225275, "subtypes": "Urologist"}, {"name": "Dr. George F. Zakharia, MD", "address": "7570 W 21st St # 1014A, Wichita, KS 67205", "city": "Wichita", "state": "Kansas", "state_code": "KS", "phone": "+1 316-721-0119", "website": "", "rating": 4.5, "reviews": 97, "place_id": "ChIJK1P7l0DguocRWI2e1GImpE4", "latitude": 37.7243558, "longitude": -97.4296688, "subtypes": "Urologist"}, {"name": "Richardson Tim A MD", "address": "2626 N Webb Rd, Wichita, KS 67226", "city": "Wichita", "state": "Kansas", "state_code": "KS", "phone": "+1 316-636-6100", "website": "", "rating": 4.8, "reviews": 99, "place_id": "ChIJSZjW1gv9uocRzAkVyteSv1c", "latitude": 37.7310495, "longitude": -97.2253314, "subtypes": "Urologist"}, {"name": "Dr. J. Andrew Jensen", "address": "2626 N Webb Rd, Wichita, KS 67226", "city": "Wichita", "state": "Kansas", "state_code": "KS", "phone": "+1 316-636-6100", "website": "", "rating": 4.7, "reviews": 66, "place_id": "ChIJ__8_0Qv9uocRUaVzN3FpJmU", "latitude": 37.731092, "longitude": -97.2252709, "subtypes": "Urologist"}, {"name": "Dr. Kahlil Saad", "address": "2626 N Webb Rd, Wichita, KS 67226", "city": "Wichita", "state": "Kansas", "state_code": "KS", "phone": "+1 316-636-6100", "website": "https://wichitaurology.com/our-team/", "rating": 5, "reviews": 19, "place_id": "ChIJ__8_0Qv9uocRYX6f6ojkQRY", "latitude": 37.7310929, "longitude": -97.2252709, "subtypes": "Urologist"}, {"name": "Clay Earl Lyddane", "address": "3311 E Murdock St, Wichita, KS 67208", "city": "Wichita", "state": "Kansas", "state_code": "KS", "phone": "+1 316-689-9969", "website": "", "rating": 5, "reviews": 2, "place_id": "ChIJA3_eyRHjuocRYo5uXoGtIL4", "latitude": 37.6967821, "longitude": -97.2963328, "subtypes": "Urologist"}, {"name": "Dr. George Zakharia", "address": "2077N N Webb Rd, Wichita, KS 67226", "city": "Wichita", "state": "Kansas", "state_code": "KS", "phone": "+1 316-636-6100", "website": "", "rating": 3, "reviews": 2, "place_id": "ChIJ__8_0Qv9uocRcsy09pfOi5o", "latitude": 37.6916747, "longitude": -97.2263273, "subtypes": "Urologist"}, {"name": "Fadi N Joudi MD", "address": "7570 W 21st St # 1014A, Wichita, KS 67205", "city": "Wichita", "state": "Kansas", "state_code": "KS", "phone": "+1 316-721-0119", "website": "", "rating": 5, "reviews": 4, "place_id": "ChIJn74KIA3guocR9wLQ25GeR74", "latitude": 37.7245622, "longitude": -97.4319843, "subtypes": "Urologist"}, {"name": "Richard Eric Steinberger, MD", "address": "2626 N Webb Rd, Wichita, KS 67226", "city": "Wichita", "state": "Kansas", "state_code": "KS", "phone": "+1 316-636-6100", "website": "", "rating": 5, "reviews": 1, "place_id": "ChIJo5Q_0Qv9uocR5onVD4kgsvc", "latitude": 37.7310872, "longitude": -97.225275, "subtypes": "Urologist"}, {"name": "Surendra B. Kolla, MD", "address": "2626 N Webb Rd, Wichita, KS 67226", "city": "Wichita", "state": "Kansas", "state_code": "KS", "phone": "+1 316-636-6100", "website": "https://healthcare.ascension.org/find-care/provider/1194952143/surendra-kolla", "rating": 4.6, "reviews": 75, "place_id": "ChIJja9utxHjuocRjlvTxDOfRpI", "latitude": 37.7310913, "longitude": -97.2252717, "subtypes": "Urologist"}, {"name": "Farha Ayham J MD", "address": "2626 N Webb Rd, Wichita, KS 67226", "city": "Wichita", "state": "Kansas", "state_code": "KS", "phone": "+1 316-636-6100", "website": "http://wichitaurology.com/", "rating": 2.6, "reviews": 5, "place_id": "ChIJSZjW1gv9uocRv97TefgMSP4", "latitude": 37.7311041, "longitude": -97.225275, "subtypes": "Urologist"}, {"name": "Dr. James H. Gilbaugh, MD", "address": "9300 East 29th St N #102, Wichita, KS 67226", "city": "Wichita", "state": "Kansas", "state_code": "KS", "phone": "+1 316-687-2112", "website": "http://www.cfrm.net/", "rating": 4.2, "reviews": 10, "place_id": "ChIJSZjW1gv9uocREozS2EqpIoA", "latitude": 37.7385605, "longitude": -97.2298637, "subtypes": "Urologist"}, {"name": "Dr. David J. Backes, MD", "address": "2626 N Webb Rd, Wichita, KS 67226", "city": "Wichita", "state": "Kansas", "state_code": "KS", "phone": "+1 316-636-6100", "website": "", "rating": "", "reviews": "", "place_id": "ChIJSZjW1gv9uocR41jUFcDUVsQ", "latitude": 37.7310495, "longitude": -97.2253314, "subtypes": "Urologist"}, {"name": "Dr. Joseph W. Akornor, MD", "address": "7570 W 21st St # 1014A, Wichita, KS 67205", "city": "Wichita", "state": "Kansas", "state_code": "KS", "phone": "+1 316-721-0119", "website": "", "rating": 1, "reviews": 1, "place_id": "ChIJK1P7l0DguocRtWgj9JtlrQE", "latitude": 37.7243558, "longitude": -97.4296688, "subtypes": "Urologist"}, {"name": "Gerald L. Albert, MD, PhD", "address": "2626 N Webb Rd, Wichita, KS 67226", "city": "Wichita", "state": "Kansas", "state_code": "KS", "phone": "+1 316-636-6100", "website": "http://www.wichitaurology.com/", "rating": 3.8, "reviews": 4, "place_id": "ChIJSZjW1gv9uocR-Fnht-k5KgU", "latitude": 37.7311041, "longitude": -97.225275, "subtypes": "Urologist"}, {"name": "Wichita Urology Group PA: Filick Michelle MD", "address": "7570 W 21st St # 1014A, Wichita, KS 67205", "city": "Wichita", "state": "Kansas", "state_code": "KS", "phone": "+1 316-721-0119", "website": "", "rating": "", "reviews": "", "place_id": "ChIJn74KIA3guocR5FsHChLt-m0", "latitude": 37.7243558, "longitude": -97.4296688, "subtypes": "Urologist"}, {"name": "Gregory Byrd", "address": "2077 N Webb Rd, Wichita, KS 67206", "city": "Wichita", "state": "Kansas", "state_code": "KS", "phone": "+1 316-558-9270", "website": "", "rating": "", "reviews": "", "place_id": "ChIJVVXFIQT9uocROLaOFxgd3Xg", "latitude": 37.7212797, "longitude": -97.2277277, "subtypes": "Urologist"}, {"name": "Dr. Ayham Farha", "address": "2077 N Webb Rd, Wichita, KS 67206", "city": "Wichita", "state": "Kansas", "state_code": "KS", "phone": "+1 316-558-9270", "website": "", "rating": "", "reviews": "", "place_id": "ChIJVVXFIQT9uocR0O1MgdCshzU", "latitude": 37.7212797, "longitude": -97.2277277, "subtypes": "Urologist"}, {"name": "Dr. David J. Backes, MD", "address": "7570 W 21st St # 1014A, Wichita, KS 67205", "city": "Wichita", "state": "Kansas", "state_code": "KS", "phone": "+1 316-721-0119", "website": "", "rating": "", "reviews": "", "place_id": "ChIJK1P7l0DguocRaNFh-sI7F3s", "latitude": 37.7243558, "longitude": -97.4296688, "subtypes": "Urologist"}, {"name": "Gregory F. Byrd, MD", "address": "7570 W 21st St, Wichita, KS 67205", "city": "Wichita", "state": "Kansas", "state_code": "KS", "phone": "+1 316-636-6100", "website": "", "rating": 1, "reviews": 1, "place_id": "ChIJK1P7l0DguocRPMB-7wgTTvU", "latitude": 37.724171, "longitude": -97.4307931, "subtypes": "Urologist"}, {"name": "Ayham J Farha", "address": "550 N Hillside St, Wichita, KS 67214", "city": "Wichita", "state": "Kansas", "state_code": "KS", "phone": "+1 833-258-8036", "website": "", "rating": "", "reviews": "", "place_id": "ChIJsbZUAQ7juocRMcN_kTGhroA", "latitude": 37.6947708, "longitude": -97.2979975, "subtypes": "Urologist"}, {"name": "Dr. Sanford F. Fitzig, MD", "address": "3311 E Murdock St, Wichita, KS 67208", "city": "Wichita", "state": "Kansas", "state_code": "KS", "phone": "+1 316-689-9185", "website": "http://www.viachristiclinic.com/dr_bios/bios_display.php/sanford_fitzig", "rating": "", "reviews": "", "place_id": "ChIJja9utxHjuocRLcI6Bth_yAI", "latitude": 37.6966659, "longitude": -97.2963408, "subtypes": "Urologist"}, {"name": "Francisco Linda L MD", "address": "2630 N Webb Rd #200, Wichita, KS 67226", "city": "Wichita", "state": "Kansas", "state_code": "KS", "phone": "+1 316-636-1234", "website": "", "rating": "", "reviews": "", "place_id": "ChIJv64Jxgv9uocRP3SFokKhUl0", "latitude": 37.7316425, "longitude": -97.2252821, "subtypes": "Urologist"}, {"name": "James Gilbaugh, MD", "address": "Building 1014a, 7570 W 21st St, Wichita, KS 67205", "city": "Wichita", "state": "Kansas", "state_code": "KS", "phone": "+1 316-636-6100", "website": "", "rating": "", "reviews": "", "place_id": "ChIJK1P7l0DguocROLmbS74gZbE", "latitude": 37.724242, "longitude": -97.4296115, "subtypes": "Urologist"}, {"name": "Dr. Richard E. Steinberger, MD", "address": "7570 W 21st St, Wichita, KS 67205", "city": "Wichita", "state": "Kansas", "state_code": "KS", "phone": "+1 316-721-0119", "website": "", "rating": "", "reviews": "", "place_id": "ChIJK1P7l0DguocRXliH13aMoC4", "latitude": 37.7246289, "longitude": -97.4299389, "subtypes": "Urologist"}, {"name": "Hutchinson Urology Associates", "address": "2020 N Waldron St #105, Hutchinson, KS 67502", "city": "Hutchinson", "state": "Kansas", "state_code": "KS", "phone": "+1 620-513-4870", "website": "https://www.hutchregional.com/medical-center/services/urology/%3Futm_source%3DGMBSocialClimb%26utm_medium%3DHutchinsonUrologyAssociates%26scct%3DPN87e56d48d13c2c6df0024f962c640ca8", "rating": 4.1, "reviews": 9, "place_id": "ChIJL5IONVq3pIcRG5MiuMKFzjw", "latitude": 38.0763881, "longitude": -97.893946, "subtypes": "Urology clinic"}, {"name": "William Cho, MD", "address": "2107 N Waldron St, Hutchinson, KS 67502", "city": "Hutchinson", "state": "Kansas", "state_code": "KS", "phone": "+1 620-669-2570", "website": "http://www.hutchclinic.com/", "rating": "", "reviews": "", "place_id": "ChIJ6zNu8OoTu4cRa-S3fN-0gkQ", "latitude": 38.0797921, "longitude": -97.8945868, "subtypes": "Urologist"}, {"name": "Rupp Urology Clinic", "address": "3550 S 4th St #282, Leavenworth, KS 66048", "city": "Leavenworth", "state": "Kansas", "state_code": "KS", "phone": "+1 785-354-7877", "website": "https://ruppurology.com/our-locations/leavenworth-office/", "rating": 1, "reviews": 1, "place_id": "ChIJJdDDX1p9wIcRWHMqenTQjz4", "latitude": 39.2826384, "longitude": -94.9033606, "subtypes": "Urology clinic"}, {"name": "Dr. Joni L. Baeke-Hartong, MD", "address": "4101 S 4th St, Leavenworth, KS 66048", "city": "Leavenworth", "state": "Kansas", "state_code": "KS", "phone": "+1 913-682-2000", "website": "http://www.leavenworth.va.gov/", "rating": "", "reviews": "", "place_id": "ChIJL6gtntF8wIcRXygw0ifVYVM", "latitude": 39.2797604, "longitude": -94.8943288, "subtypes": "Urologist"}, {"name": "Bradley Rupp, MD", "address": "3550 S 4th St #282, Leavenworth, KS 66048", "city": "Leavenworth", "state": "Kansas", "state_code": "KS", "phone": "+1 785-354-7877", "website": "https://ruppurology.com/our-locations/leavenworth-office/", "rating": "", "reviews": "", "place_id": "ChIJU4sXiOh9wIcRDJnuCu5kjw0", "latitude": 39.2826384, "longitude": -94.9033606, "subtypes": "Urologist"}, {"name": "Dr. Mohammad A. Baghal, MD", "address": "3550 S 4th St, Leavenworth, KS 66048", "city": "Leavenworth", "state": "Kansas", "state_code": "KS", "phone": "", "website": "", "rating": "", "reviews": "", "place_id": "ChIJD56Tebd8wIcRCrCtO-bEUSg", "latitude": 39.2827033, "longitude": -94.9033747, "subtypes": "Urologist"}, {"name": "Puderbaugh Steven L DO", "address": "4101 S 4th St, Leavenworth, KS 66048", "city": "Leavenworth", "state": "Kansas", "state_code": "KS", "phone": "+1 913-682-2000", "website": "http://www.leavenworth.va.gov/", "rating": "", "reviews": "", "place_id": "ChIJl583ssp8wIcRknVFj3dVwE8", "latitude": 39.2797604, "longitude": -94.8943288, "subtypes": "Urologist"}, {"name": "ROY K OYER", "address": "3550 S 4th St #141, Leavenworth, KS 66048", "city": "Leavenworth", "state": "Kansas", "state_code": "KS", "phone": "+1 913-772-6046", "website": "https://www.stjohnleavenworth.com/", "rating": "", "reviews": "", "place_id": "ChIJD56Tebd8wIcRwgXmO1gDRc8", "latitude": 39.2827033, "longitude": -94.90337459999999, "subtypes": "Urologist"}, {"name": "Dr. Sara Hoestje", "address": "7450 Kessler St Suite 110, Merriam, KS 66204", "city": "Merriam", "state": "Kansas", "state_code": "KS", "phone": "+1 913-831-1003", "website": "https://doctors.saintlukeskc.org/provider/sara-m-hoestje/1457832", "rating": 5, "reviews": 1, "place_id": "ChIJK8-Jqo3swIcRHLqHvAYzeXw", "latitude": 38.9950667, "longitude": -94.6942914, "subtypes": "Urologist"}, {"name": "Austenfeld Marcus A MD", "address": "3901 Rainbow Blvd # 3016, Kansas City, KS 66160", "city": "Kansas City", "state": "Kansas", "state_code": "KS", "phone": "+1 913-588-5000", "website": "http://www.kumc.edu/", "rating": 4.9, "reviews": 117, "place_id": "ChIJc-0WAy_uwIcRN2Cq-wxOqIg", "latitude": 39.0589176, "longitude": -94.6106885, "subtypes": "Urologist"}, {"name": "Christian A. Hettinger, MD", "address": "10701 Nall Ave #100, Leawood, KS 66211", "city": "Leawood", "state": "Kansas", "state_code": "KS", "phone": "+1 913-338-5585", "website": "http://www.kcuc.com/", "rating": 4.9, "reviews": 632, "place_id": "ChIJG1fPqCvqwIcRa3uO2dOAHVs", "latitude": 38.934044, "longitude": -94.64830909999999, "subtypes": "Urologist"}, {"name": "Dr. Hadley Wyre", "address": "7405 Renner Rd Level 2, Shawnee, KS 66217", "city": "Shawnee", "state": "Kansas", "state_code": "KS", "phone": "+1 877-729-5874", "website": "https://findadoctor.kansashealthsystem.com/provider/hadley-w-wyre/1221122", "rating": "", "reviews": "", "place_id": "ChIJAQDAcKKTwIcR9o2fvJufY8Y", "latitude": 38.9948099, "longitude": -94.7761974, "subtypes": "Urologist"}, {"name": "Dr. Priya Padmanabhan, MD", "address": "7405 Renner Rd Level 2, Shawnee, KS 66217", "city": "Shawnee", "state": "Kansas", "state_code": "KS", "phone": "+1 913-588-8490", "website": "http://www.kufacialplasticsurgery.com/", "rating": "", "reviews": "", "place_id": "ChIJ4aG-eqKTwIcRrqfhj_ddbbM", "latitude": 38.9948514, "longitude": -94.7763789, "subtypes": "Urologist"}, {"name": "Emmott David F MD", "address": "9301 W 74th St #225, Overland Park, KS 66204", "city": "Overland Park", "state": "Kansas", "state_code": "KS", "phone": "+1 913-831-1003", "website": "http://kcurology.com/", "rating": 4, "reviews": 11, "place_id": "ChIJwxxBrI3swIcRhnM1J6JEBd4", "latitude": 38.9950667, "longitude": -94.6942914, "subtypes": "Urologist"}, {"name": "Dr. Julie L. Wei, MD", "address": "7405 Renner Rd Level 2, Shawnee, KS 66217", "city": "Shawnee", "state": "Kansas", "state_code": "KS", "phone": "+1 913-588-8490", "website": "http://www.kufacialplasticsurgery.com/", "rating": "", "reviews": "", "place_id": "ChIJ4aG-eqKTwIcR9DqsusXlTPE", "latitude": 38.9948099, "longitude": -94.7761974, "subtypes": "Urologist"}, {"name": "Dr. William Parker", "address": "7405 Renner Rd Level 2, Shawnee, KS 66217", "city": "Shawnee", "state": "Kansas", "state_code": "KS", "phone": "+1 877-729-5874", "website": "", "rating": "", "reviews": "", "place_id": "ChIJAQDAcKKTwIcRjVSfylygYag", "latitude": 38.9948099, "longitude": -94.7761974, "subtypes": "Urologist"}, {"name": "Sweat D Susan MD", "address": "8901 W 74th St #380, Merriam, KS 66204", "city": "Merriam", "state": "Kansas", "state_code": "KS", "phone": "+1 913-831-1003", "website": "http://www.kcurology.com/", "rating": "", "reviews": "", "place_id": "ChIJ3b4xs4vswIcRBAYWlcASWZ8", "latitude": 38.9944727, "longitude": -94.68898949999999, "subtypes": "Urology clinic"}, {"name": "Associated Urologists PA", "address": "G, 1133 College Ave #100, Manhattan, KS 66502", "city": "Manhattan", "state": "Kansas", "state_code": "KS", "phone": "+1 785-537-8710", "website": "http://www.associatedurologistspa.com/", "rating": 4.3, "reviews": 133, "place_id": "ChIJ-5jSD77NvYcRV8xYd4V4QbE", "latitude": 39.192411, "longitude": -96.6021026, "subtypes": "Urology clinic"}, {"name": "Felipe Rosso", "address": "1133 College Ave Bldg G Ste 100, Manhattan, KS 66502", "city": "Manhattan", "state": "Kansas", "state_code": "KS", "phone": "+1 785-537-8710", "website": "", "rating": 5, "reviews": 7, "place_id": "ChIJVVVVGb7NvYcRGwB7_CDdsog", "latitude": 39.1924385, "longitude": -96.60210529999999, "subtypes": "Urologist"}, {"name": "Apostolos Evangelidis", "address": "1133 College Ave Bldg G Ste 100, Manhattan, KS 66502", "city": "Manhattan", "state": "Kansas", "state_code": "KS", "phone": "+1 785-537-0304", "website": "https://associatedurologistspa.com/our-practice/physicians/dr-apostolos-laki-evangelidis", "rating": 5, "reviews": 3, "place_id": "ChIJVVVVGb7NvYcR6xf2FZoCDKo", "latitude": 39.1925173, "longitude": -96.60219459999999, "subtypes": "Urologist"}, {"name": "William Mauch", "address": "1000 Hospital Dr, McPherson, KS 67460", "city": "McPherson", "state": "Kansas", "state_code": "KS", "phone": "+1 620-241-2250", "website": "https://mcphersoncenterforhealth.org/provider/william-mauch-m-d/", "rating": "", "reviews": "", "place_id": "ChIJVVVV0UBWu4cRDLpPCZz3f6Q", "latitude": 38.378532, "longitude": -97.6713049, "subtypes": "Urologist"}, {"name": "Dr. Clay Lyddane", "address": "310 W Central Ave suite h, Andover, KS 67002", "city": "Andover", "state": "Kansas", "state_code": "KS", "phone": "+1 316-469-5100", "website": "", "rating": 5, "reviews": 2, "place_id": "ChIJAQDQF9_-uocRATbX1r4uWUw", "latitude": 37.6950539, "longitude": -97.1378306, "subtypes": "Urologist"}, {"name": "CORPORATE LAKES UROLOGY Billy B. Perry, MD", "address": "6740 W 121st St #350, Leawood, KS 66209", "city": "Leawood", "state": "Kansas", "state_code": "KS", "phone": "+1 913-948-8365", "website": "http://corporatelakesurology.com/", "rating": 2.3, "reviews": 6, "place_id": "ChIJpemY5RLqwIcRDEMhiZhuWHE", "latitude": 38.907226, "longitude": -94.663952, "subtypes": "Urologist"}, {"name": "Kumc urology", "address": "2000 Olathe Blvd, Kansas City, KS 66103", "city": "Kansas City", "state": "Kansas", "state_code": "KS", "phone": "+1 913-588-6146", "website": "https://www.kansashealthsystem.com/care/specialties/urology", "rating": 3, "reviews": 4, "place_id": "ChIJH-40BKnvwIcRNeyvGuwnQEg", "latitude": 39.0546259, "longitude": -94.60870849999999, "subtypes": "Urology clinic"}, {"name": "Andrew Flum, MD", "address": "10701 Nall Ave #100, Overland Park, KS 66211", "city": "Overland Park", "state": "Kansas", "state_code": "KS", "phone": "+1 913-338-5585", "website": "http://www.kcuc.com/", "rating": 4.9, "reviews": 371, "place_id": "ChIJvR-5lSbrwIcRC2uPCw2Aq9k", "latitude": 38.9341278, "longitude": -94.64818369999999, "subtypes": "Urologist"}, {"name": "Dr. Hadley Wyre", "address": "10710 Nall Ave, Overland Park, KS 66211", "city": "Overland Park", "state": "Kansas", "state_code": "KS", "phone": "+1 913-588-1227", "website": "https://findadoctor.kansashealthsystem.com/provider/hadley-w-wyre/1221122", "rating": 5, "reviews": 1, "place_id": "ChIJEQbTbSzqwIcRstJhqseHabw", "latitude": 38.93336499999999, "longitude": -94.65099939999999, "subtypes": "Urologist"}, {"name": "Mirian Boci, MD", "address": "10550 Quivira Rd #530, Lenexa, KS 66215", "city": "Lenexa", "state": "Kansas", "state_code": "KS", "phone": "+1 913-780-3388", "website": "http://www.kcuc.com/", "rating": 4.8, "reviews": 305, "place_id": "ChIJc_JFNoW9wIcRq9TcYOaO0ZI", "latitude": 38.9371791, "longitude": -94.725325, "subtypes": "Urologist"}, {"name": "Austenfeld Mark S MD", "address": "10701 Nall Ave #100, Leawood, KS 66211", "city": "Leawood", "state": "Kansas", "state_code": "KS", "phone": "+1 816-531-1234", "website": "", "rating": "", "reviews": "", "place_id": "ChIJG1fPqCvqwIcRWtgTPKGyZRY", "latitude": 38.9341691, "longitude": -94.6482975, "subtypes": "Urologist"}, {"name": "Anton Galich", "address": "10550 Quivira Rd #530, Lenexa, KS 66215", "city": "Lenexa", "state": "Kansas", "state_code": "KS", "phone": "+1 913-276-5130", "website": "https://www.kcuc.com/doctor/anton-galich-m-d/", "rating": 3.3, "reviews": 6, "place_id": "ChIJ__-_ByvrwIcRuQ4SZO1rRMc", "latitude": 38.9371721, "longitude": -94.7252468, "subtypes": "Urologist"}, {"name": "William P Parker, MD", "address": "10710 Nall Ave, Overland Park, KS 66211", "city": "Overland Park", "state": "Kansas", "state_code": "KS", "phone": "+1 913-588-1227", "website": "https://findadoctor.kansashealthsystem.com/provider/William%2BP%2BParker/1220655%3Futm_source%3Dgmb%26utm_medium%3Dweb%26utm_term%3D%26utm_content%3D%26utm_campaign%3Dkyruus_brandify", "rating": 5, "reviews": 4, "place_id": "ChIJv9gpYqrrwIcR4NNGr7IAZSM", "latitude": 38.9334134, "longitude": -94.6510538, "subtypes": "Urologist"}, {"name": "Elizabeth A Piontek, MD", "address": "12330 Metcalf Ave Suite 500A, Overland Park, KS 66213", "city": "Overland Park", "state": "Kansas", "state_code": "KS", "phone": "+1 913-296-5200", "website": "http://www.saintlukeskc.org/provider/elizabeth-piontek-1891992228%3Futm_source%3Dyext%26utm_medium%3Dlocal_listing%26utm_campaign%3Dyext_listing", "rating": 5, "reviews": 1, "place_id": "ChIJpT5kFXLqwIcRqKycPFG8G1M", "latitude": 38.9036921, "longitude": -94.6696836, "subtypes": "Urologist"}, {"name": "Dr. Jason Anast", "address": "10701 Nall Ave #100, Overland Park, KS 66211", "city": "Overland Park", "state": "Kansas", "state_code": "KS", "phone": "+1 913-338-5585", "website": "https://www.kcuc.com/doctor/jason-w-anast-m-d/", "rating": 3, "reviews": 2, "place_id": "ChIJp9dJryvqwIcRNCzfs8C0Uq4", "latitude": 38.9341278, "longitude": -94.64818369999999, "subtypes": "Urologist"}, {"name": "Richard J Fantus, MD", "address": "10710 Nall Ave, Overland Park, KS 66211", "city": "Overland Park", "state": "Kansas", "state_code": "KS", "phone": "+1 913-588-1227", "website": "https://findadoctor.kansashealthsystem.com/provider/Richard%2BJ%2BFantus/2304429%3Futm_source%3Dgmb%26utm_medium%3Dweb%26utm_term%3D%26utm_content%3D%26utm_campaign%3Dkyruus_brandify", "rating": 4.2, "reviews": 5, "place_id": "ChIJd_q1mtDrwIcReZXPt_UIa_E", "latitude": 38.93336499999999, "longitude": -94.65099939999999, "subtypes": "Urologist"}, {"name": "David A Duchene, MD", "address": "2000 Olathe Blvd, Kansas City, KS 66160", "city": "Kansas City", "state": "Kansas", "state_code": "KS", "phone": "+1 913-588-1227", "website": "https://findadoctor.kansashealthsystem.com/provider/David%2BA%2BDuchene/1220945%3Futm_source%3Dgmb%26utm_medium%3Dweb%26utm_term%3D%26utm_content%3D%26utm_campaign%3Dkyruus_brandify", "rating": 5, "reviews": 4, "place_id": "ChIJOyYWkanrwIcRPVkS3LUDb-4", "latitude": 39.0546157, "longitude": -94.608755, "subtypes": "Urologist"}, {"name": "Sweat D Susan MD", "address": "10701 Nall Ave #100, Leawood, KS 66211", "city": "Leawood", "state": "Kansas", "state_code": "KS", "phone": "+1 913-831-1003", "website": "http://www.kcurology.com/", "rating": "", "reviews": "", "place_id": "ChIJG1fPqCvqwIcRxKxkQ3qg-70", "latitude": 38.9342117, "longitude": -94.6481822, "subtypes": "Urologist"}, {"name": "Jeffrey M Holzbeierlein, MD", "address": "2000 Olathe Blvd, Kansas City, KS 66160", "city": "Kansas City", "state": "Kansas", "state_code": "KS", "phone": "+1 913-588-1227", "website": "https://findadoctor.kansashealthsystem.com/provider/Jeffrey%2BM%2BHolzbeierlein/1220914%3Futm_source%3Dgmb%26utm_medium%3Dweb%26utm_term%3D%26utm_content%3D%26utm_campaign%3Dkyruus_brandify", "rating": 5, "reviews": 5, "place_id": "ChIJ9cojRWLrwIcRaSo-xXaFhIc", "latitude": 39.0546157, "longitude": -94.608755, "subtypes": "Urologist"}, {"name": "Strickland John T MD", "address": "10701 Nall Ave # 100, Leawood, KS 66211", "city": "Leawood", "state": "Kansas", "state_code": "KS", "phone": "+1 913-831-1003", "website": "http://www.kcurology.com/", "rating": "", "reviews": "", "place_id": "ChIJG1fPqCvqwIcR38Jah2ICNAc", "latitude": 38.932974, "longitude": -94.650961, "subtypes": "Urologist"}, {"name": "Pomeroy Brandon D MD", "address": "10701 Nall Ave #100, Leawood, KS 66211", "city": "Leawood", "state": "Kansas", "state_code": "KS", "phone": "+1 816-531-1234", "website": "", "rating": "", "reviews": "", "place_id": "ChIJG1fPqCvqwIcRk7QxcVV3-HI", "latitude": 38.9342377, "longitude": -94.6481831, "subtypes": "Urologist"}, {"name": "Emmott David F MD", "address": "10701 Nall Ave #100, Leawood, KS 66211", "city": "Leawood", "state": "Kansas", "state_code": "KS", "phone": "+1 913-831-1003", "website": "", "rating": "", "reviews": "", "place_id": "ChIJG1fPqCvqwIcRu4OaITirnoU", "latitude": 38.9339571, "longitude": -94.6483396, "subtypes": "Urologist"}, {"name": "Jason Anast, MD", "address": "20375 W 151st St #409, Olathe, KS 66061", "city": "Olathe", "state": "Kansas", "state_code": "KS", "phone": "+1 913-780-3388", "website": "http://www.kcuc.com/", "rating": 4.8, "reviews": 320, "place_id": "ChIJn_Y5ucK9wIcRSqQ3JHcSERA", "latitude": 38.8528779, "longitude": -94.8240201, "subtypes": "Urologist"}, {"name": "Joshua A Broghammer, MD", "address": "2000 Olathe Blvd, Kansas City, KS 66160", "city": "Kansas City", "state": "Kansas", "state_code": "KS", "phone": "+1 913-588-1227", "website": "https://findadoctor.kansashealthsystem.com/provider/Joshua%2BA%2BBroghammer/1220159%3Futm_source%3Dgmb%26utm_medium%3Dweb%26utm_term%3D%26utm_content%3D%26utm_campaign%3Dkyruus_brandify", "rating": 4.1, "reviews": 18, "place_id": "ChIJc-0WAy_uwIcRMQQGR5jgQNQ", "latitude": 39.0546157, "longitude": -94.608755, "subtypes": "Urologist"}, {"name": "Moben Mirza, MD", "address": "2000 Olathe Blvd, Kansas City, KS 66160", "city": "Kansas City", "state": "Kansas", "state_code": "KS", "phone": "+1 913-588-1227", "website": "https://findadoctor.kansashealthsystem.com/provider/Moben%2BMirza/1220900%3Futm_source%3Dgmb%26utm_medium%3Dweb%26utm_term%3D%26utm_content%3D%26utm_campaign%3Dkyruus_brandify", "rating": 5, "reviews": 7, "place_id": "ChIJJYAEd4LrwIcRyKyR5wTkNRs", "latitude": 39.0546157, "longitude": -94.608755, "subtypes": "Urologist"}, {"name": "Derek Jensen, MD", "address": "12330 Metcalf Ave Suite 500A, Overland Park, KS 66213", "city": "Overland Park", "state": "Kansas", "state_code": "KS", "phone": "+1 913-296-5200", "website": "http://www.saintlukeskc.org/provider/derek-jensen-1982067526%3Futm_source%3Dyext%26utm_medium%3Dlocal_listing%26utm_campaign%3Dyext_listing", "rating": 5, "reviews": 1, "place_id": "ChIJT9Mb1w7rwIcRNjAIYeEzJkY", "latitude": 38.9036921, "longitude": -94.6696836, "subtypes": "Urologist"}, {"name": "Donald A Neff, MD", "address": "2000 Olathe Blvd, Kansas City, KS 66160", "city": "Kansas City", "state": "Kansas", "state_code": "KS", "phone": "+1 913-588-1227", "website": "https://findadoctor.kansashealthsystem.com/provider/Donald%2BA%2BNeff/1220969%3Futm_source%3Dgmb%26utm_medium%3Dweb%26utm_term%3D%26utm_content%3D%26utm_campaign%3Dkyruus_brandify", "rating": 5, "reviews": 2, "place_id": "ChIJuQ9gI_PrwIcRlWQjxezjBIc", "latitude": 39.0546959, "longitude": -94.6087522, "subtypes": "Urologist"}, {"name": "Casey G Kowalik, MD", "address": "2000 Olathe Blvd, Kansas City, KS 66160", "city": "Kansas City", "state": "Kansas", "state_code": "KS", "phone": "+1 913-588-1227", "website": "https://findadoctor.kansashealthsystem.com/provider/Casey%2BG%2BKowalik/1221448%3Futm_source%3Dgmb%26utm_medium%3Dweb%26utm_term%3D%26utm_content%3D%26utm_campaign%3Dkyruus_brandify", "rating": 3.7, "reviews": 3, "place_id": "ChIJFYthtYzrwIcRUdTnM6KY1Ww", "latitude": 39.0546157, "longitude": -94.608755, "subtypes": "Urologist"}, {"name": "Danica N May, MD", "address": "2000 Olathe Blvd, Kansas City, KS 66160", "city": "Kansas City", "state": "Kansas", "state_code": "KS", "phone": "+1 913-588-1227", "website": "https://findadoctor.kansashealthsystem.com/provider/Danica%2BN%2BMay/1220453%3Futm_source%3Dgmb%26utm_medium%3Dweb%26utm_term%3D%26utm_content%3D%26utm_campaign%3Dkyruus_brandify", "rating": 3, "reviews": 4, "place_id": "ChIJN0nDFQfrwIcRDOOE4gpd38U", "latitude": 39.0546157, "longitude": -94.608755, "subtypes": "Urologist"}, {"name": "James S McIntosh, MD", "address": "12330 Metcalf Ave Suite 500A, Overland Park, KS 66213", "city": "Overland Park", "state": "Kansas", "state_code": "KS", "phone": "+1 913-296-5200", "website": "http://www.saintlukeskc.org/provider/james-mcintosh-1083738116%3Futm_source%3Dyext%26utm_medium%3Dlocal_listing%26utm_campaign%3Dyext_listing", "rating": 5, "reviews": 1, "place_id": "ChIJ_RTjL_rrwIcRPw3_lX40TlU", "latitude": 38.9036921, "longitude": -94.6696836, "subtypes": "Urologist"}, {"name": "Dunia T Khaled, MD", "address": "10710 Nall Ave, Overland Park, KS 66211", "city": "Overland Park", "state": "Kansas", "state_code": "KS", "phone": "+1 913-574-1600", "website": "", "rating": "", "reviews": "", "place_id": "ChIJb9IRmuvrwIcRnHPi_gseq8Q", "latitude": 38.93336499999999, "longitude": -94.65099939999999, "subtypes": "Urologist"}, {"name": "Hadley W Wyre, MD", "address": "2000 Olathe Blvd, Kansas City, KS 66160", "city": "Kansas City", "state": "Kansas", "state_code": "KS", "phone": "+1 913-588-1227", "website": "https://findadoctor.kansashealthsystem.com/provider/Hadley%2BW%2BWyre/1221122%3Futm_source%3Dgmb%26utm_medium%3Dweb%26utm_term%3D%26utm_content%3D%26utm_campaign%3Dkyruus_brandify", "rating": 4.2, "reviews": 6, "place_id": "ChIJW91AaVDvwIcRGX-GAZjl8Kc", "latitude": 39.0546157, "longitude": -94.608755, "subtypes": "Urologist"}, {"name": "Daniel Holmes", "address": "10701 Nall Ave #100, Overland Park, KS 66211", "city": "Overland Park", "state": "Kansas", "state_code": "KS", "phone": "+1 816-531-1234", "website": "", "rating": "", "reviews": "", "place_id": "ChIJp9dJryvqwIcRIuaDL2TwNA0", "latitude": 38.9341278, "longitude": -94.64818369999999, "subtypes": "Urologist"}, {"name": "Dr. William Johnson", "address": "10701 Nall Ave #100, Overland Park, KS 66211", "city": "Overland Park", "state": "Kansas", "state_code": "KS", "phone": "+1 913-338-5585", "website": "", "rating": "", "reviews": "", "place_id": "ChIJp9dJryvqwIcRPIniQWfAlUM", "latitude": 38.9341278, "longitude": -94.64818369999999, "subtypes": "Urologist"}, {"name": "Colby E Souders, MD", "address": "2000 Olathe Blvd, Kansas City, KS 66160", "city": "Kansas City", "state": "Kansas", "state_code": "KS", "phone": "+1 913-588-1227", "website": "https://findadoctor.kansashealthsystem.com/provider/Colby%2BE%2BSouders/2338426%3Futm_source%3Dgmb%26utm_medium%3Dweb%26utm_term%3D%26utm_content%3D%26utm_campaign%3Dkyruus_brandify", "rating": 5, "reviews": 1, "place_id": "ChIJaagGEqjvwIcRFQTqUBZQ6b8", "latitude": 39.0546157, "longitude": -94.608755, "subtypes": "Urologist"}, {"name": "Dr. William Johnson, MD", "address": "10550 S Quivira Rd # 105, Overland Park, KS 66215", "city": "Overland Park", "state": "Kansas", "state_code": "KS", "phone": "+1 913-438-3833", "website": "", "rating": 3.5, "reviews": 4, "place_id": "ChIJXyTFByvrwIcRTfT26MMRZWc", "latitude": 38.937208, "longitude": -94.725279, "subtypes": "Urologist"}, {"name": "Danica May", "address": "10710 Nall Ave, Overland Park, KS 66211", "city": "Overland Park", "state": "Kansas", "state_code": "KS", "phone": "+1 877-287-6268", "website": "https://findadoctor.kansashealthsystem.com/provider/danica-n-may/1220453", "rating": "", "reviews": "", "place_id": "ChIJEQbTbSzqwIcRFvqAwyD5S6g", "latitude": 38.93336499999999, "longitude": -94.65099939999999, "subtypes": "Urologist"}, {"name": "Ajay K Nangia, MD", "address": "2000 Olathe Blvd, Kansas City, KS 66160", "city": "Kansas City", "state": "Kansas", "state_code": "KS", "phone": "+1 913-588-1227", "website": "https://findadoctor.kansashealthsystem.com/provider/Ajay%2BK%2BNangia/1220632%3Futm_source%3Dgmb%26utm_medium%3Dweb%26utm_term%3D%26utm_content%3D%26utm_campaign%3Dkyruus_brandify", "rating": 4.2, "reviews": 5, "place_id": "ChIJicReIbHrwIcR4xfcbyfOjvY", "latitude": 39.0546157, "longitude": -94.608755, "subtypes": "Urologist"}, {"name": "Children's Mercy: George Reggie MD", "address": "5808 W 110th St, Leawood, KS 66211", "city": "Leawood", "state": "Kansas", "state_code": "KS", "phone": "+1 913-696-8000", "website": "https://www.childrensmercy.org/", "rating": "", "reviews": "", "place_id": "ChIJwRgnVC7qwIcRx8JD3YaHisU", "latitude": 38.9298785, "longitude": -94.6523746, "subtypes": "Pediatric urologist"}, {"name": "Dr. Moben Mirza", "address": "10710 Nall Ave, Overland Park, KS 66211", "city": "Overland Park", "state": "Kansas", "state_code": "KS", "phone": "+1 913-588-1227", "website": "https://findadoctor.kansashealthsystem.com/provider/moben-mirza/1220900", "rating": "", "reviews": "", "place_id": "ChIJEQbTbSzqwIcRbbe3ENoxjCk", "latitude": 38.93336499999999, "longitude": -94.65099939999999, "subtypes": "Urologist"}, {"name": "Ryan Thomas Miller, MD", "address": "12330 Metcalf Ave Suite 500A, Overland Park, KS 66213", "city": "Overland Park", "state": "Kansas", "state_code": "KS", "phone": "+1 913-296-5200", "website": "http://www.saintlukeskc.org/provider/ryan-miller-1205035284%3Futm_source%3Dyext%26utm_medium%3Dlocal_listing%26utm_campaign%3Dyext_listing", "rating": 5, "reviews": 1, "place_id": "ChIJpT5kFXLqwIcR3qQ8civ73VU", "latitude": 38.9036921, "longitude": -94.6696836, "subtypes": "Urologist"}, {"name": "Davis Bradley E MD", "address": "12330 Metcalf Ave # 400, Overland Park, KS 66213", "city": "Overland Park", "state": "Kansas", "state_code": "KS", "phone": "+1 913-317-7990", "website": "", "rating": 3, "reviews": 4, "place_id": "ChIJcXTLe23qwIcR2ybFUmtBUOs", "latitude": 38.9039975, "longitude": -94.6691173, "subtypes": "Urologist"}, {"name": "Eric DeRoo, MD", "address": "12330 Metcalf Ave Suite 500A, Overland Park, KS 66213", "city": "Overland Park", "state": "Kansas", "state_code": "KS", "phone": "+1 913-296-5200", "website": "http://www.saintlukeskc.org/provider/eric-deroo-1922395938%3Futm_source%3Dyext%26utm_medium%3Dlocal_listing%26utm_campaign%3Dyext_listing", "rating": 5, "reviews": 2, "place_id": "ChIJpT5kFXLqwIcR7U2_Ub4P3Es", "latitude": 38.9036921, "longitude": -94.6696836, "subtypes": "Urologist"}, {"name": "Tomas L Griebling, MD, MPH", "address": "2000 Olathe Blvd, Kansas City, KS 66160", "city": "Kansas City", "state": "Kansas", "state_code": "KS", "phone": "+1 913-588-1227", "website": "https://findadoctor.kansashealthsystem.com/provider/Tomas%2BL%2BGriebling/1220852%3Futm_source%3Dgmb%26utm_medium%3Dweb%26utm_term%3D%26utm_content%3D%26utm_campaign%3Dkyruus_brandify", "rating": 3.4, "reviews": 5, "place_id": "ChIJwTZiPVrrwIcRxT7AvtQRvro", "latitude": 39.0546157, "longitude": -94.608755, "subtypes": "Urologist"}, {"name": "Physicians E D Center Of Kansas City", "address": "11020 King St Mathematics Adjunct Professor's Office Suite, Overland Park, KS 66210", "city": "Overland Park", "state": "Kansas", "state_code": "KS", "phone": "+1 800-924-5470", "website": "", "rating": 1, "reviews": 3, "place_id": "ChIJA2W1tNDqwIcR0PvMEG3eRoA", "latitude": 38.9290444, "longitude": -94.71879849999999, "subtypes": "Urology clinic"}, {"name": "John R Moore, MD", "address": "12330 Metcalf Ave Suite 500A, Overland Park, KS 66213", "city": "Overland Park", "state": "Kansas", "state_code": "KS", "phone": "+1 913-296-5200", "website": "http://www.saintlukeskc.org/provider/john-moore-1114977550%3Futm_source%3Dyext%26utm_medium%3Dlocal_listing%26utm_campaign%3Dyext_listing", "rating": 5, "reviews": 1, "place_id": "ChIJAfP13PHrwIcRgOUCZwo59bk", "latitude": 38.9036921, "longitude": -94.6696836, "subtypes": "Urologist"}, {"name": "Dr. Eugene Lee", "address": "2650 Shawnee Mission Pkwy, Westwood, KS 66205", "city": "Westwood", "state": "Kansas", "state_code": "KS", "phone": "", "website": "", "rating": "", "reviews": "", "place_id": "ChIJq6pqbUXuwIcRdKM6Wb7CY8Y", "latitude": 39.0339542, "longitude": -94.6152582, "subtypes": "Urologist"}, {"name": "Dr. Ajay Nangia", "address": "10777 Nall Ave Ste 140, Overland Park, KS 66211", "city": "Overland Park", "state": "Kansas", "state_code": "KS", "phone": "+1 913-588-6146", "website": "https://findadoctor.kansashealthsystem.com/provider/ajay-k-nangia/1220632", "rating": "", "reviews": "", "place_id": "ChIJi188yCvqwIcRTmpi2jsnb0w", "latitude": 38.9331292, "longitude": -94.6481683, "subtypes": "Urologist"}, {"name": "Richard J Fantus, MD", "address": "10710 Nall Ave, Overland Park, KS 66211", "city": "Overland Park", "state": "Kansas", "state_code": "KS", "phone": "+1 913-588-1227", "website": "https://findadoctor.kansashealthsystem.com/provider/Richard%2BJ%2BFantus/2304429%3Futm_source%3Dgmb%26utm_medium%3Dweb%26utm_term%3D%26utm_content%3D%26utm_campaign%3Dkyruus_brandify", "rating": "", "reviews": "", "place_id": "ChIJA6uzjsXBwIcRxLJlBzsXd7E", "latitude": 38.9327095, "longitude": -94.6518157, "subtypes": "Urologist"}, {"name": "Dr. Bradley Davis", "address": "10710 Nall Ave, Overland Park, KS 66211", "city": "Overland Park", "state": "Kansas", "state_code": "KS", "phone": "+1 913-588-1227", "website": "https://findadoctor.kansashealthsystem.com/provider/bradley-e-davis/1535031", "rating": "", "reviews": "", "place_id": "ChIJEQbTbSzqwIcRwumMWwnmHJE", "latitude": 38.93336499999999, "longitude": -94.65099939999999, "subtypes": "Urologist"}, {"name": "Kuykendall Sam J MD", "address": "10701 Nall Ave #100, Overland Park, KS 66211", "city": "Overland Park", "state": "Kansas", "state_code": "KS", "phone": "", "website": "", "rating": 4.2, "reviews": 5, "place_id": "ChIJKUYoqSvqwIcR5xPSVOczaYs", "latitude": 38.9341278, "longitude": -94.64818369999999, "subtypes": "Urologist"}, {"name": "Urologic Surgery Association", "address": "12330 Metcalf Ave, Overland Park, KS 66213", "city": "Overland Park", "state": "Kansas", "state_code": "KS", "phone": "+1 913-951-3403", "website": "", "rating": "", "reviews": "", "place_id": "ChIJcXTLe23qwIcRsPRTmb9TtmQ", "latitude": 38.9038231, "longitude": -94.6695682, "subtypes": "Urologist"}, {"name": "Dr. Raymond B. Leidich, MD", "address": "1206 W Frontview St, Dodge City, KS 67801", "city": "Dodge City", "state": "Kansas", "state_code": "KS", "phone": "", "website": "", "rating": "", "reviews": "", "place_id": "ChIJ4YydYrYbp4cRE2pfqwIqRpo", "latitude": 37.7809182, "longitude": -100.0302355, "subtypes": "Urologist"}, {"name": "Southwest Kansas Urology Center", "address": "1206 W Frontview St STE 203, Dodge City, KS 67801", "city": "Dodge City", "state": "Kansas", "state_code": "KS", "phone": "", "website": "", "rating": 3, "reviews": 1, "place_id": "ChIJ4YydYrYbp4cR0l1QnQ6BDkk", "latitude": 37.7809182, "longitude": -100.0302355, "subtypes": "Urologist"}, {"name": "Davis Bradley E E MD", "address": "10550 Quivira Rd # 105, Lenexa, KS 66215", "city": "Lenexa", "state": "Kansas", "state_code": "KS", "phone": "+1 913-438-3833", "website": "", "rating": 3.5, "reviews": 8, "place_id": "ChIJXyTFByvrwIcRwbUrx2ZNGug", "latitude": 38.937208, "longitude": -94.725279, "subtypes": "Urologist"}, {"name": "Salina Urology Associates PA", "address": "218 S Santa Fe Ave, Salina, KS 67401", "city": "Salina", "state": "Kansas", "state_code": "KS", "phone": "+1 785-827-9635", "website": "https://www.salinaurology.com/", "rating": 4.3, "reviews": 26, "place_id": "ChIJdTP2tPnFvIcRkABLgMaPEtY", "latitude": 38.837402, "longitude": -97.6095156, "subtypes": "Urologist"}, {"name": "Dr. Michael Matteucci", "address": "218 S Santa Fe Ave, Salina, KS 67401", "city": "Salina", "state": "Kansas", "state_code": "KS", "phone": "+1 785-827-9635", "website": "", "rating": 5, "reviews": 8, "place_id": "ChIJdTP2tPnFvIcRnSNvfN0Oahg", "latitude": 38.837402, "longitude": -97.6095156, "subtypes": "Urologist"}, {"name": "Dr. Randy D. Hassler, MD", "address": "501 S Santa Fe Ave #380, Salina, KS 67401", "city": "Salina", "state": "Kansas", "state_code": "KS", "phone": "+1 785-827-9635", "website": "http://web.salinakansas.org/Urology/Salina-Urology-Associates-6402", "rating": 5, "reviews": 2, "place_id": "ChIJdTP2tPnFvIcRAXCDSWIGGcI", "latitude": 38.8323943, "longitude": -97.6084566, "subtypes": "Urologist"}, {"name": "Brian G. Smith, MD", "address": "218 S Santa Fe Ave, Salina, KS 67401", "city": "Salina", "state": "Kansas", "state_code": "KS", "phone": "+1 785-827-9635", "website": "http://www.srhc.com/", "rating": 5, "reviews": 5, "place_id": "ChIJC2MXGfjFvIcRrjWMxeDcx4M", "latitude": 38.837402, "longitude": -97.6095156, "subtypes": "Urologist"}, {"name": "Dr. William D. Mauch, MD", "address": "218 S Santa Fe Ave, Salina, KS 67401", "city": "Salina", "state": "Kansas", "state_code": "KS", "phone": "+1 785-827-9635", "website": "", "rating": 3, "reviews": 2, "place_id": "ChIJdTP2tPnFvIcR9prJg6AHTlg", "latitude": 38.837402, "longitude": -97.6095156, "subtypes": "Urologist"}, {"name": "Ryan A. Payne, MD", "address": "218 S Santa Fe Ave, Salina, KS 67401", "city": "Salina", "state": "Kansas", "state_code": "KS", "phone": "+1 785-827-9635", "website": "http://www.srhc.com/", "rating": 4, "reviews": 3, "place_id": "ChIJdTP2tPnFvIcRK2bEVgeKfK0", "latitude": 38.837402, "longitude": -97.6095156, "subtypes": "Urologist"}, {"name": "Julianne Rathbun", "address": "218 S Santa Fe Ave, Salina, KS 67401", "city": "Salina", "state": "Kansas", "state_code": "KS", "phone": "+1 785-452-7000", "website": "", "rating": 2.5, "reviews": 6, "place_id": "ChIJ____HvjFvIcRrNVPkesIbLo", "latitude": 38.837402, "longitude": -97.6095156, "subtypes": "Urologist"}, {"name": "Dr. Donald A. Shrader, MD", "address": "501 S Santa Fe Ave #380, Salina, KS 67401", "city": "Salina", "state": "Kansas", "state_code": "KS", "phone": "+1 785-827-9635", "website": "", "rating": "", "reviews": "", "place_id": "ChIJdTP2tPnFvIcRwb_ifl2cqgw", "latitude": 38.8323092, "longitude": -97.6083937, "subtypes": "Urologist"}, {"name": "Associated Urologists Pa", "address": "1106 St Marys Rd, Junction City, KS 66441", "city": "Junction City", "state": "Kansas", "state_code": "KS", "phone": "+1 785-537-8710", "website": "https://associatedurologistspa.com/", "rating": "", "reviews": "", "place_id": "ChIJcyNZFsdOvIcRks1ID5xXhvI", "latitude": 39.014329, "longitude": -96.8500296, "subtypes": "Urologist"}, {"name": "Evangelidis Laki MD", "address": "1102 St Marys Rd # 2, Junction City, KS 66441", "city": "Junction City", "state": "Kansas", "state_code": "KS", "phone": "+1 785-238-4131", "website": "", "rating": 5, "reviews": 1, "place_id": "ChIJN8yKFsdOvIcRZuUfu2-q5W4", "latitude": 39.0142048, "longitude": -96.84975209999999, "subtypes": "Urologist"}, {"name": "Eugene K Lee, MD", "address": "4000 Cambridge St, Kansas City, KS 66160", "city": "Kansas City", "state": "Kansas", "state_code": "KS", "phone": "+1 913-588-1227", "website": "https://findadoctor.kansashealthsystem.com/provider/Eugene%2BK%2BLee/1220936%3Futm_source%3Dgmb%26utm_medium%3Dweb%26utm_term%3D%26utm_content%3D%26utm_campaign%3Dkyruus_brandify", "rating": 3, "reviews": 2, "place_id": "ChIJJyiOyTHrwIcR9B1n7cdizgE", "latitude": 39.0563845, "longitude": -94.6085848, "subtypes": "Urologist"}, {"name": "Dr. Gerald Y. Park, MD", "address": "12330 Metcalf Ave, Overland Park, KS 66213", "city": "Overland Park", "state": "Kansas", "state_code": "KS", "phone": "+1 816-531-1234", "website": "http://www.kcurology.com/", "rating": "", "reviews": "", "place_id": "ChIJtexpeW3qwIcRYz-U-X7e-_w", "latitude": 38.9040647, "longitude": -94.66919159999999, "subtypes": "Urologist"}, {"name": "Kirk D Redger, MD", "address": "2000 Olathe Blvd, Kansas City, KS 66160", "city": "Kansas City", "state": "Kansas", "state_code": "KS", "phone": "+1 913-588-1227", "website": "https://findadoctor.kansashealthsystem.com/provider/Kirk%2BD%2BRedger/2011003%3Futm_source%3Dgmb%26utm_medium%3Dweb%26utm_term%3D%26utm_content%3D%26utm_campaign%3Dkyruus_brandify", "rating": 1, "reviews": 1, "place_id": "ChIJeV4p-ULvwIcRJP8_nsWek0M", "latitude": 39.0546229, "longitude": -94.608718, "subtypes": "Urologist"}, {"name": "Wilson R Molina, MD", "address": "2000 Olathe Blvd, Kansas City, KS 66160", "city": "Kansas City", "state": "Kansas", "state_code": "KS", "phone": "+1 913-588-1227", "website": "https://findadoctor.kansashealthsystem.com/provider/Wilson%2BR%2BMolina/1220932%3Futm_source%3Dgmb%26utm_medium%3Dweb%26utm_term%3D%26utm_content%3D%26utm_campaign%3Dkyruus_brandify", "rating": 3, "reviews": 2, "place_id": "ChIJV3jHMSvrwIcRDb3lRTAhZSk", "latitude": 39.0546157, "longitude": -94.608755, "subtypes": "Urologist"}, {"name": "Bradley E Davis, MD", "address": "2000 Olathe Blvd, Kansas City, KS 66160", "city": "Kansas City", "state": "Kansas", "state_code": "KS", "phone": "+1 913-588-1227", "website": "https://findadoctor.kansashealthsystem.com/provider/Bradley%2BE%2BDavis/1535031%3Futm_source%3Dgmb%26utm_medium%3Dweb%26utm_term%3D%26utm_content%3D%26utm_campaign%3Dkyruus_brandify", "rating": "", "reviews": "", "place_id": "ChIJDZp1HZ3vwIcRB5FccO9e0EE", "latitude": 39.0546229, "longitude": -94.608718, "subtypes": "Urologist"}, {"name": "Dr. Julie L. Wei, MD", "address": "3901 Rainbow Blvd, Kansas City, KS 66103", "city": "Kansas City", "state": "Kansas", "state_code": "KS", "phone": "+1 913-588-5730", "website": "", "rating": "", "reviews": "", "place_id": "ChIJc-0WAy_uwIcREiOdNM-Kd9k", "latitude": 39.0561921, "longitude": -94.6114044, "subtypes": "Urologist"}, {"name": "Dr. Matthew Banti", "address": "2000 Olathe Blvd, Kansas City, KS 66160", "city": "Kansas City", "state": "Kansas", "state_code": "KS", "phone": "+1 877-287-6268", "website": "", "rating": "", "reviews": "", "place_id": "ChIJM73-3i3uwIcRPViAAK0q20c", "latitude": 39.054626, "longitude": -94.60870849999999, "subtypes": "Urologist"}, {"name": "Labette Health Urology", "address": "1902 US-59 Building E, Parsons, KS 67357", "city": "Parsons", "state": "Kansas", "state_code": "KS", "phone": "+1 620-820-5545", "website": "https://www.labettehealth.com/clinics/urology-clinic/", "rating": 4.4, "reviews": 7, "place_id": "ChIJjVqnuY8buIcRfEe7AvIhorI", "latitude": 37.3200875, "longitude": -95.26472749999999, "subtypes": "Urologist"}, {"name": "Dr. Logan Wineland", "address": "1902 US-59 BLDG E, Parsons, KS 67357", "city": "Parsons", "state": "Kansas", "state_code": "KS", "phone": "+1 620-820-5545", "website": "https://www.labettehealth.com/provider-directory/providers/logan-wineland/", "rating": 5, "reviews": 3, "place_id": "ChIJ____D_cauIcRb5jIAMWxUQE", "latitude": 37.3211255, "longitude": -95.2648241, "subtypes": "Urologist"}, {"name": "Dr. Roy K. Oyer", "address": "8919 Parallel Pkwy #550, Kansas City, KS 66112", "city": "Kansas City", "state": "Kansas", "state_code": "KS", "phone": "+1 913-281-8406", "website": "http://www.stjohnleavenworth.com/", "rating": "", "reviews": "", "place_id": "ChIJTc2dxG2MwIcRx46w3vosQus", "latitude": 39.1274152, "longitude": -94.7857155, "subtypes": "Urologist"}, {"name": "Bristol B Whiles, MD", "address": "2000 Olathe Blvd, Kansas City, KS 66160", "city": "Kansas City", "state": "Kansas", "state_code": "KS", "phone": "+1 913-588-1227", "website": "https://findadoctor.kansashealthsystem.com/provider/Bristol%2BB%2BWhiles/2613620%3Futm_source%3Dgmb%26utm_medium%3Dweb%26utm_term%3D%26utm_content%3D%26utm_campaign%3Dkyruus_brandify", "rating": "", "reviews": "", "place_id": "ChIJLSgdTPbvwIcRwZr8ZvvAosk", "latitude": 39.0546157, "longitude": -94.608755, "subtypes": "Urologist"}, {"name": "Dr. Alan A. Nisbet, MD", "address": "Kansas City, KS 66103", "city": "Kansas City", "state": "Kansas", "state_code": "KS", "phone": "+1 913-588-7571", "website": "", "rating": "", "reviews": "", "place_id": "ChIJu59gbCnuwIcRwgwdgSBx0gQ", "latitude": 39.0565604, "longitude": -94.61863869999999, "subtypes": "Urologist"}, {"name": "Dr. Joel Koenig", "address": "5808 W 110th St, Overland Park, KS 66211", "city": "Overland Park", "state": "Kansas", "state_code": "KS", "phone": "+1 816-234-3000", "website": "", "rating": "", "reviews": "", "place_id": "ChIJAQAA9C7qwIcREZTJGno85Gw", "latitude": 38.9297664, "longitude": -94.6527656, "subtypes": "Urologist"}, {"name": "Rupp Urology", "address": "1301 W 12th Ave, Emporia, KS 66801", "city": "Emporia", "state": "Kansas", "state_code": "KS", "phone": "+1 785-354-7877", "website": "https://ruppurology.com/our-locations/emporia-office/", "rating": 1, "reviews": 3, "place_id": "ChIJ_1epPS1NuYcR1All68y7sLs", "latitude": 38.411587, "longitude": -96.19596109999999, "subtypes": "Urology clinic"}, {"name": "Western Kansas Urological", "address": "2214 Canterbury Dr # 308, Hays, KS 67601", "city": "Hays", "state": "Kansas", "state_code": "KS", "phone": "+1 785-628-6014", "website": "https://www.haysmed.com/services/urology/", "rating": 2.5, "reviews": 11, "place_id": "ChIJSeZo6kJ5oYcRh5YHiqjY7RA", "latitude": 38.8796236, "longitude": -99.2961031, "subtypes": "Urologist"}, {"name": "Quivira Medical Pavilion A: Urology", "address": "12000 W 151st St, Olathe, KS 66062", "city": "Olathe", "state": "Kansas", "state_code": "KS", "phone": "+1 913-588-1227", "website": "https://www.kansashealthsystem.com/locations/quivira-medical-pavilion-a-urology-olathe-ks%3Futm_source%3Dgmb%26utm_medium%3Dweb%26utm_term%3D%26utm_content%3D%26utm_campaign%3Dkyruus_brandify", "rating": 2.7, "reviews": 6, "place_id": "ChIJ66SeboiVwIcR-rTIgzzlsnY", "latitude": 38.8549361, "longitude": -94.7242847, "subtypes": "Urology clinic"}, {"name": "Margaret Higgins, MD", "address": "12330 Metcalf Ave Suite 500A, Overland Park, KS 66213", "city": "Overland Park", "state": "Kansas", "state_code": "KS", "phone": "+1 913-296-5200", "website": "http://www.saintlukeskc.org/provider/margaret-higgins-1811359250%3Futm_source%3Dyext%26utm_medium%3Dlocal_listing%26utm_campaign%3Dyext_listing", "rating": "", "reviews": "", "place_id": "ChIJa0wJhZTrwIcRbKe792AR1WU", "latitude": 38.9036921, "longitude": -94.6696836, "subtypes": "Urologist"}, {"name": "Daniel G. Holmes M.D., F.A.C.S.", "address": "12330 Metcalf Ave # 200, Overland Park, KS 66213", "city": "Overland Park", "state": "Kansas", "state_code": "KS", "phone": "+1 816-531-1234", "website": "http://www.kcurology.com/", "rating": "", "reviews": "", "place_id": "ChIJ4TNCeW3qwIcRMrjbO8urJyA", "latitude": 38.903692, "longitude": -94.6696836, "subtypes": "Urologist"}, {"name": "Bradley K Stanley, MD", "address": "12330 Metcalf Ave Suite 500A, Overland Park, KS 66213", "city": "Overland Park", "state": "Kansas", "state_code": "KS", "phone": "+1 913-296-5200", "website": "http://www.saintlukeskc.org/provider/bradley-stanley-16449220088%3Futm_source%3Dyext%26utm_medium%3Dlocal_listing%26utm_campaign%3Dyext_listing", "rating": "", "reviews": "", "place_id": "ChIJ_-WtZhLrwIcRzx_lSQ5dDNk", "latitude": 38.9036921, "longitude": -94.6696836, "subtypes": "Urologist"}, {"name": "Brandon D. Pomeroy M.D", "address": "12330 Metcalf Ave # 200, Overland Park, KS 66213", "city": "Overland Park", "state": "Kansas", "state_code": "KS", "phone": "+1 816-531-1234", "website": "http://kcurology.com/", "rating": "", "reviews": "", "place_id": "ChIJ4TNCeW3qwIcRalJa9Je0Uxg", "latitude": 38.9039975, "longitude": -94.6691172, "subtypes": "Urologist"}, {"name": "Johnson William T MD", "address": "12330 Metcalf Ave # 400, Overland Park, KS 66213", "city": "Overland Park", "state": "Kansas", "state_code": "KS", "phone": "+1 913-317-7990", "website": "", "rating": "", "reviews": "", "place_id": "ChIJcXTLe23qwIcRhm1TKwBy0j4", "latitude": 38.9040647, "longitude": -94.66919159999999, "subtypes": "Urologist"}, {"name": "David C Lewing, MD", "address": "12330 Metcalf Ave Suite 500A, Overland Park, KS 66213", "city": "Overland Park", "state": "Kansas", "state_code": "KS", "phone": "+1 913-296-5200", "website": "http://www.saintlukeskc.org/provider/david-lewing-1972553378%3Futm_source%3Dyext%26utm_medium%3Dlocal_listing%26utm_campaign%3Dyext_listing", "rating": "", "reviews": "", "place_id": "ChIJiS5yQRHrwIcRSC-8CNuvz0g", "latitude": 38.9036921, "longitude": -94.6696836, "subtypes": "Urologist"}, {"name": "James M. Frogge, MD", "address": "1 Medical Ctr Cir, Pittsburg, KS 66762", "city": "Pittsburg", "state": "Kansas", "state_code": "KS", "phone": "+1 620-235-7529", "website": "https://www.mercy.net/doctor/james-m-frogge-md%3Futm_source%3Dgoogle%26utm_medium%3Dorganic_search%26utm_campaign%3Dyext%26utm_term%3D%26utm_content%3Dwebsite%26y_source%3D1_MTA3Njg5NzY0My03MTUtbG9jYXRpb24ud2Vic2l0ZQ%253D%253D", "rating": 4.5, "reviews": 28, "place_id": "ChIJl4qiucPDx4cRfE0PDAc5EZQ", "latitude": 37.3791482, "longitude": -94.68567999999999, "subtypes": "Urologist"}, {"name": "Dr JM Frogge", "address": "1 Medical Ctr Cir, Pittsburg, KS 66762", "city": "Pittsburg", "state": "Kansas", "state_code": "KS", "phone": "", "website": "", "rating": 3, "reviews": 2, "place_id": "ChIJCeFSTADDx4cR5MyUXbo9wlk", "latitude": 37.379297, "longitude": -94.6855669, "subtypes": "Urology clinic"}, {"name": "Mercy Clinic Urology - 1 Med Center Circle", "address": "1 Medical Ctr Cir, Pittsburg, KS 66762", "city": "Pittsburg", "state": "Kansas", "state_code": "KS", "phone": "+1 620-235-7529", "website": "https://www.mercy.net/practice/mercy-clinic-urology-1-med-center-circle%3Futm_source%3Dgoogle%26utm_medium%3Dorganic_search%26utm_campaign%3Dyext%26utm_term%3D%26utm_content%3Dwebsite%26y_source%3D1_MTA3NzE2NzEyNC03MTUtbG9jYXRpb24ud2Vic2l0ZQ%253D%253D", "rating": 4, "reviews": 4, "place_id": "ChIJH3SVMUHDx4cRr3Zcy976PiA", "latitude": 37.3791519, "longitude": -94.6856512, "subtypes": "Urology clinic"}, {"name": "Ascension Via Christi Urology Clinic", "address": "2701 S Rouse St, Pittsburg, KS 66762", "city": "Pittsburg", "state": "Kansas", "state_code": "KS", "phone": "+1 620-235-7529", "website": "https://healthcare.ascension.org/locations/kansas/kswic/pittsburg-ascension-via-christi-urology-clinic%3Futm_campaign%3Dgmb%26utm_medium%3Dorganic%26utm_source%3Dlocal", "rating": "", "reviews": "", "place_id": "ChIJ-2aEMXbDx4cRbk4IMt1PZUQ", "latitude": 37.3792497, "longitude": -94.6863379, "subtypes": "Urology clinic"}, {"name": "Yaghmour Talaat E MD", "address": "2701 S Rouse St, Pittsburg, KS 66762", "city": "Pittsburg", "state": "Kansas", "state_code": "KS", "phone": "", "website": "", "rating": "", "reviews": "", "place_id": "ChIJoV7k7AjDx4cRXfBf3iFUsVs", "latitude": 37.3792594, "longitude": -94.68632869999999, "subtypes": "Urologist"}, {"name": "William Todd Johnson, M.D.", "address": "20375 W 151st St #201, Olathe, KS 66061", "city": "Olathe", "state": "Kansas", "state_code": "KS", "phone": "+1 816-994-3130", "website": "", "rating": 4.8, "reviews": 208, "place_id": "ChIJbarnjc69wIcRzEE-itJ07ng", "latitude": 38.8526102, "longitude": -94.8233581, "subtypes": "Urologist"}, {"name": "Olathe Health Urology Specialists", "address": "20375 W 151st St #301, Olathe, KS 66061", "city": "Olathe", "state": "Kansas", "state_code": "KS", "phone": "+1 913-254-5580", "website": "https://www.olathehealth.org/locations/olathe-health-urology-specialists/", "rating": 1, "reviews": 1, "place_id": "ChIJ4SvyErW9wIcRFulSgVMhNRU", "latitude": 38.8528779, "longitude": -94.8240201, "subtypes": "Urology clinic"}, {"name": "University of Kansas Physicians Inc: Wieneke Brogha Carrie MD", "address": "3901 Rainbow Blvd, Kansas City, KS 66103", "city": "Kansas City", "state": "Kansas", "state_code": "KS", "phone": "+1 913-588-6200", "website": "https://findadoctor.kansashealthsystem.com/search%3Fname%3DCarrie%2520L%2520Wieneke%2520Broghammer%26sort%3Dnetworks%252Crelevance", "rating": "", "reviews": "", "place_id": "ChIJc-0WAy_uwIcRZtLrvlmriS8", "latitude": 39.0544907, "longitude": -94.6092372, "subtypes": "Urologist"}, {"name": "Hamilton Zachary A MD", "address": "3901 Rainbow Blvd, Kansas City, KS 66160", "city": "Kansas City", "state": "Kansas", "state_code": "KS", "phone": "+1 913-588-5000", "website": "http://www.kumc.edu/", "rating": "", "reviews": "", "place_id": "ChIJc-0WAy_uwIcREHuO4zS1I1c", "latitude": 39.0567173, "longitude": -94.61163859999999, "subtypes": "Urologist"}, {"name": "Womble Paul R MD", "address": "3901 Rainbow Blvd, Kansas City, KS 66103", "city": "Kansas City", "state": "Kansas", "state_code": "KS", "phone": "+1 913-588-6381", "website": "http://www.kumc.edu/", "rating": "", "reviews": "", "place_id": "ChIJc-0WAy_uwIcRcUThoc1NZsg", "latitude": 39.0561921, "longitude": -94.6114044, "subtypes": "Urologist"}, {"name": "Borland Aaron D DO", "address": "8929 Parallel Pkwy, Kansas City, KS 66112", "city": "Kansas City", "state": "Kansas", "state_code": "KS", "phone": "+1 913-596-4000", "website": "http://www.providence-health.org/", "rating": "", "reviews": "", "place_id": "ChIJb_e5s22MwIcRczNPSCY8-CM", "latitude": 39.1265615, "longitude": -94.7866525, "subtypes": "Urologist"}, {"name": "Dr. Bradley A. Wilson, MD", "address": "3901 Rainbow Blvd, Kansas City, KS 66103", "city": "Kansas City", "state": "Kansas", "state_code": "KS", "phone": "+1 913-588-5000", "website": "", "rating": "", "reviews": "", "place_id": "ChIJc-0WAy_uwIcRWGBm57ZG5Js", "latitude": 39.0559488, "longitude": -94.61062319999999, "subtypes": "Urologist"}, {"name": "Dr. Billy B. Perry, MD", "address": "8919 Parallel Pkwy #550, Kansas City, KS 66112", "city": "Kansas City", "state": "Kansas", "state_code": "KS", "phone": "+1 913-596-2211", "website": "", "rating": "", "reviews": "", "place_id": "ChIJTc2dxG2MwIcR2_FiZgHPw44", "latitude": 39.1269163, "longitude": -94.7865736, "subtypes": "Urologist"}, {"name": "Dr. Priya Padmanabhan, MD", "address": "3901 Rainbow Blvd, Kansas City, KS 66103", "city": "Kansas City", "state": "Kansas", "state_code": "KS", "phone": "+1 913-588-6432", "website": "http://www.kumed.com/", "rating": 2.3, "reviews": 3, "place_id": "ChIJ_4MGIS_uwIcRZ8BIwmL0TEA", "latitude": 39.0561763, "longitude": -94.610056, "subtypes": "Urologist"}, {"name": "St Catherine Physicians Specialty | Urology", "address": "311 E Spruce St, Garden City, KS 67846", "city": "Garden City", "state": "Kansas", "state_code": "KS", "phone": "+1 620-275-3760", "website": "https://www.mountain.commonspirit.org/location/commonspirit-urology-siena%3Futm_source%3Dyext%26utm_medium%3Dorganic%26utm_campaign%3Dlocation%26utm_term%3D1844968222895983779%26utm_content%3Dfacilities_landing_page", "rating": 4.3, "reviews": 18, "place_id": "ChIJOWZHAUvvCYcRzX1Hsm5OgbM", "latitude": 37.969427, "longitude": -100.8692252, "subtypes": "Urologist"}, {"name": "Andrew Morris", "address": "20375 W 151st St #409, Olathe, KS 66061", "city": "Olathe", "state": "Kansas", "state_code": "KS", "phone": "+1 913-780-3388", "website": "https://www.kcuc.com/doctor/andrew-morris-d-o/", "rating": 1.8, "reviews": 6, "place_id": "ChIJH8xNjM69wIcR13TODUcjnvc", "latitude": 38.8528779, "longitude": -94.8240201, "subtypes": "Urologist"}, {"name": "Urologic Surgery Associates", "address": "20375 W 151st St #201, Olathe, KS 66061", "city": "Olathe", "state": "Kansas", "state_code": "KS", "phone": "+1 913-782-2020", "website": "", "rating": 2.3, "reviews": 3, "place_id": "ChIJbarnjc69wIcRr9qAXw9hjec", "latitude": 38.8528878, "longitude": -94.8240149, "subtypes": "Urologist"}, {"name": "Urology Center Of Olathe", "address": "705 Baptiste Dr, Paola, KS 66071", "city": "Paola", "state": "Kansas", "state_code": "KS", "phone": "+1 913-829-5757", "website": "", "rating": "", "reviews": "", "place_id": "ChIJLSxww-uywIcRnY1DKwpwHKU", "latitude": 38.5759632, "longitude": -94.8681489, "subtypes": "Urologist"}, {"name": "Isaac D Palma-Zamora, MD", "address": "12000 W 151st St, Olathe, KS 66062", "city": "Olathe", "state": "Kansas", "state_code": "KS", "phone": "+1 913-588-1227", "website": "https://findadoctor.kansashealthsystem.com/provider/Isaac%2BD%2BPalma-Zamora/4901362%3Futm_source%3Dgmb%26utm_medium%3Dweb%26utm_term%3D%26utm_content%3D%26utm_campaign%3Dkyruus_brandify", "rating": "", "reviews": "", "place_id": "ChIJZX-0iAvBwIcRP3Sriwc1bok", "latitude": 38.8555204, "longitude": -94.7246437, "subtypes": "Urologist"}, {"name": "Leigh T Gilpin, DO", "address": "12000 W 151st St, Olathe, KS 66062", "city": "Olathe", "state": "Kansas", "state_code": "KS", "phone": "+1 913-588-6146", "website": "https://www.olathehealth.org/our-team/leigh-gilpin-do/", "rating": 3.7, "reviews": 3, "place_id": "ChIJAWYAaQ3DI4gRxe8hdT99Ct8", "latitude": 38.8556544, "longitude": -94.7244393, "subtypes": "Urologist"}, {"name": "Bradley E. Davis, MD, FACS", "address": "12000 W. 151st St Quivira Medical Pavilion A, Olathe, KS 66062", "city": "Olathe", "state": "Kansas", "state_code": "KS", "phone": "+1 913-588-1227", "website": "https://www.olathehealth.org/our-team/bradley-e-davis-md-facs/", "rating": "", "reviews": "", "place_id": "ChIJ42R24Le9wIcRrjtCZv4jPdQ", "latitude": 38.8549856, "longitude": -94.7244735, "subtypes": "Urologist"}, {"name": "Perry Billy B MD", "address": "20375 W 151st St # 306, Olathe, KS 66061", "city": "Olathe", "state": "Kansas", "state_code": "KS", "phone": "+1 913-782-2292", "website": "", "rating": "", "reviews": "", "place_id": "ChIJbarnjc69wIcRU02UlYHo21I", "latitude": 38.8528779, "longitude": -94.8240201, "subtypes": "Urologist"}, {"name": "Southwest Kansas Urology Centers", "address": "2134 N Kansas Ave, Liberal, KS 67901", "city": "Liberal", "state": "Kansas", "state_code": "KS", "phone": "+1 620-624-1500", "website": "", "rating": "", "reviews": "", "place_id": "ChIJRXujEW8UCIcRfqORRdusYoE", "latitude": 37.063023, "longitude": -100.9231645, "subtypes": "Urologist"}, {"name": "Ernesto Lopez-Corona", "address": "2214 Canterbury Dr # 308, Hays, KS 67601", "city": "Hays", "state": "Kansas", "state_code": "KS", "phone": "+1 785-628-6014", "website": "https://www.haysmed.com/provider/ernesto-lopez-corona-md/", "rating": 5, "reviews": 1, "place_id": "ChIJpyju6UJ5oYcRqZHzBzXS0eU", "latitude": 38.8784347, "longitude": -99.2989594, "subtypes": "Urologist"}, {"name": "Subrahmanyeswara Samavedi", "address": "2214 Canterbury Dr # 308, Hays, KS 67601", "city": "Hays", "state": "Kansas", "state_code": "KS", "phone": "+1 785-628-6014", "website": "", "rating": 5, "reviews": 1, "place_id": "ChIJpyju6UJ5oYcR869nlqsxCWU", "latitude": 38.8802387, "longitude": -99.2967707, "subtypes": "Urologist"}, {"name": "Cotton O'Neil Urology", "address": "823 SW Mulvane St #275, Topeka, KS 66606", "city": "Topeka", "state": "Kansas", "state_code": "KS", "phone": "+1 785-354-6000", "website": "https://www.stormontvail.org/specialtycare/urology/", "rating": 2.6, "reviews": 5, "place_id": "ChIJwcEyf_cCv4cRxTYD7FHiG2g", "latitude": 39.054298, "longitude": -95.69872199999999, "subtypes": "Urology clinic"}, {"name": "Rupp Urology Clinic", "address": "631 SW Horne St # 150, Topeka, KS 66606", "city": "Topeka", "state": "Kansas", "state_code": "KS", "phone": "+1 785-354-7877", "website": "https://ruppurology.com/", "rating": 3.4, "reviews": 16, "place_id": "ChIJKVonjPgCv4cRpV5uKDNMFrk", "latitude": 39.0561988, "longitude": -95.69538949999999, "subtypes": "Urologist"}, {"name": "Christina Peterson, MD", "address": "631 SW Horne St Suite 210, Topeka, KS 66606", "city": "Topeka", "state": "Kansas", "state_code": "KS", "phone": "+1 785-270-7660", "website": "https://kutopeka.com/find-a-provider/provider/1144783390%3Futm_source%3Dpg-google%26utm_medium%3Dorganic%26utm_campaign%3Dpg-listings", "rating": 4.9, "reviews": 36, "place_id": "ChIJ7zMxfAwDv4cRfpG_2XYJocM", "latitude": 39.05738059999999, "longitude": -95.6940078, "subtypes": "Urologist"}, {"name": "Bradley Rupp, MD", "address": "631 SW Horne St # 150, Topeka, KS 66606", "city": "Topeka", "state": "Kansas", "state_code": "KS", "phone": "+1 785-354-7877", "website": "https://ruppurology.com/about-us/dr-rupp/", "rating": 3.5, "reviews": 15, "place_id": "ChIJKVonjPgCv4cRds4z83ZRaIw", "latitude": 39.0561988, "longitude": -95.69538949999999, "subtypes": "Urologist"}, {"name": "Leigh Gilpin, DO", "address": "631 SW Horne St Suite 210, Topeka, KS 66606", "city": "Topeka", "state": "Kansas", "state_code": "KS", "phone": "+1 785-270-7660", "website": "https://kutopeka.com/find-a-provider/provider/1720437080%3Futm_source%3Dpg-google%26utm_medium%3Dorganic%26utm_campaign%3Dpg-listings", "rating": 4.5, "reviews": 11, "place_id": "ChIJ0bhkqY0Dv4cRcdvPCs7Nhls", "latitude": 39.05738059999999, "longitude": -95.6940078, "subtypes": "Urologist"}, {"name": "Alfredo T. Iloreta MD", "address": "631 SW Horne St Suite 210, Topeka, KS 66606", "city": "Topeka", "state": "Kansas", "state_code": "KS", "phone": "+1 785-270-7660", "website": "https://kutopeka.com/find-a-provider/provider/1790751576", "rating": 4.5, "reviews": 8, "place_id": "ChIJaat8G1YCv4cRxW47yjyhBXU", "latitude": 39.0562087, "longitude": -95.69544549999999, "subtypes": "Urologist"}, {"name": "Loren Smith, MD", "address": "823 SW Mulvane St #275, Topeka, KS 66606", "city": "Topeka", "state": "Kansas", "state_code": "KS", "phone": "+1 785-354-6000", "website": "https://www.stormontvail.org/provider/loren-j-smith-md/", "rating": 2.7, "reviews": 12, "place_id": "ChIJxQ6tuiwDv4cRAZCJdJz0NrI", "latitude": 39.0542189, "longitude": -95.69869779999999, "subtypes": "Urologist"}, {"name": "Kirk Redger, MD", "address": "631 SW Horne St Suite 210, Topeka, KS 66606", "city": "Topeka", "state": "Kansas", "state_code": "KS", "phone": "+1 785-270-7660", "website": "https://kutopeka.com/find-a-provider/provider/1548689052%3Futm_source%3Dpg-google%26utm_medium%3Dorganic%26utm_campaign%3Dpg-listings", "rating": 4.5, "reviews": 27, "place_id": "ChIJA9eh2M8Dv4cRHOCIIOwGJM8", "latitude": 39.0562087, "longitude": -95.69544549999999, "subtypes": "Urologist"}, {"name": "Kevin Nasseri, MD", "address": "823 SW Mulvane St #275, Topeka, KS 66606", "city": "Topeka", "state": "Kansas", "state_code": "KS", "phone": "+1 785-354-9591", "website": "https://www.stormontvail.org/provider/kevin-k-nasseri-md/", "rating": 5, "reviews": 5, "place_id": "ChIJwcEyf_cCv4cRtGrtm2ZspMI", "latitude": 39.0542189, "longitude": -95.69869779999999, "subtypes": "Urologist"}, {"name": "Glenn R. Dunne, MD", "address": "823 SW Mulvane St, Topeka, KS 66606", "city": "Topeka", "state": "Kansas", "state_code": "KS", "phone": "+1 785-354-6000", "website": "https://www.stormontvail.org/provider/glenn-r-dunne-md/", "rating": 2.5, "reviews": 4, "place_id": "ChIJB41wDPQDv4cRv2QE6ok1_fo", "latitude": 39.0541942, "longitude": -95.6987742, "subtypes": "Urologist"}, {"name": "Jon J Heeb, MD", "address": "330 Arkansas St Suite 205, Lawrence, KS 66044", "city": "Lawrence", "state": "Kansas", "state_code": "KS", "phone": "+1 785-505-5045", "website": "https://www.lmh.org/get-care/lawrence-urology-specialists/", "rating": 4.2, "reviews": 5, "place_id": "ChIJhZoDKIBvv4cRITI1Fc_ab0Y", "latitude": 38.9784275, "longitude": -95.24936199999999, "subtypes": "Urologist"}, {"name": "Ronald Catanese, MD - Urology", "address": "311 E Spruce St, Garden City, KS 67846", "city": "Garden City", "state": "Kansas", "state_code": "KS", "phone": "+1 620-275-3760", "website": "http://www.mountain.commonspirit.org/provider-search/ronald-catanese-md", "rating": 2.4, "reviews": 8, "place_id": "ChIJ95nwvxfuCYcRQwroxeT5zPQ", "latitude": 37.969427, "longitude": -100.8692252, "subtypes": "Urologist"}, {"name": "Bradley Rupp, MD", "address": "1301 W 12th Ave Suite 201, Emporia, KS 66801", "city": "Emporia", "state": "Kansas", "state_code": "KS", "phone": "+1 785-354-7877", "website": "https://ruppurology.com/about-us/dr-rupp/", "rating": "", "reviews": "", "place_id": "ChIJb4mIlo9NuYcRqBFrevfhbgM", "latitude": 38.411587, "longitude": -96.19596109999999, "subtypes": "Urologist"}]