[{"name": "Commonwealth Urology", "address": "101 Medical Heights Dr A, Frankfort, KY 40601", "city": "Frankfort", "state": "Kentucky", "state_code": "KY", "phone": "+1 502-223-5758", "website": "https://www.lexingtonclinic.com/services/urology", "rating": 4.4, "reviews": 7, "place_id": "ChIJ56ATPql1QogR4mPi24WT3b4", "latitude": 38.1596419, "longitude": -84.90503799999999, "subtypes": "Urologist"}, {"name": "Dr. Timothy H. Atkinson, MD - Commonwealth Urology (A Part of Lexington Clinic)", "address": "101 Medical Heights Dr, Frankfort, KY 40601", "city": "Frankfort", "state": "Kentucky", "state_code": "KY", "phone": "+1 502-223-5758", "website": "https://www.lexingtonclinic.com/services/urology", "rating": 3.4, "reviews": 5, "place_id": "ChIJV3T-R6l1QogR-WUj76HtWK4", "latitude": 38.1594498, "longitude": -84.9049065, "subtypes": "Urologist"}, {"name": "Patterson John M MD", "address": "101 Medical Heights Dr A, Frankfort, KY 40601", "city": "Frankfort", "state": "Kentucky", "state_code": "KY", "phone": "+1 502-223-5758", "website": "", "rating": 4.5, "reviews": 2, "place_id": "ChIJ56ATPql1QogRgfXaA391SXM", "latitude": 38.1594393, "longitude": -84.90489869999999, "subtypes": "Urologist"}, {"name": "The Urology Group - Northern Kentucky", "address": "350 Thomas More Pkwy # 200, Crestview Hills, KY 41017", "city": "Crestview Hills", "state": "Kentucky", "state_code": "KY", "phone": "+1 859-363-2200", "website": "https://www.urologygroup.com/location/northern-kentucky/%3Futm_source%3Dgmb%26utm_medium%3Dorganic%26utm_campaign%3Dn-kentucky%26utm_content%3Dlocation-page", "rating": 4.6, "reviews": 583, "place_id": "ChIJJa0HXsy5QYgRKvsuPwgjK_4", "latitude": 39.0238026, "longitude": -84.5644054, "subtypes": "Urologist"}, {"name": "Urology - Florence Turfway - St. Elizabeth Physicians", "address": "7370 Turfway Rd, Florence, KY 41042", "city": "Florence", "state": "Kentucky", "state_code": "KY", "phone": "+1 859-212-0497", "website": "https://www.stelizabeth.com/location/details/urology-florence", "rating": 4.3, "reviews": 32, "place_id": "ChIJj9Ku4MPHQYgRg41kZS7Gb0c", "latitude": 39.015789, "longitude": -84.6309563, "subtypes": "Urologist"}, {"name": "Michael W. Dusing, MD", "address": "350 Thomas More Pkwy # 200, Crestview Hills, KY 41017", "city": "Crestview Hills", "state": "Kentucky", "state_code": "KY", "phone": "+1 859-363-2200", "website": "https://www.urologygroup.com/physician/michael-w-dusing/%3Futm_source%3Dgmb%26utm_medium%3Dorganic%26utm_campaign%3Dmichael-dusing%26utm_content%3Dstaff-page", "rating": 4.9, "reviews": 114, "place_id": "ChIJkYdSs9S5QYgRygmfMIIi_gE", "latitude": 39.0238219, "longitude": -84.56456299999999, "subtypes": "Urologist"}, {"name": "Brian Shay, MD", "address": "350 Thomas More Pkwy # 200, Crestview Hills, KY 41017", "city": "Crestview Hills", "state": "Kentucky", "state_code": "KY", "phone": "+1 859-363-2200", "website": "https://www.urologygroup.com/physician/brian-shay/%3Futm_source%3Dgmb%26utm_medium%3Dorganic%26utm_campaign%3Dbrian-shay%26utm_content%3Dstaff-page", "rating": 4.8, "reviews": 72, "place_id": "ChIJkYdSs9S5QYgRKZYzo04ZhGs", "latitude": 39.0238084, "longitude": -84.5645596, "subtypes": "Urologist"}, {"name": "Brooke B. Edwards, MD", "address": "350 Thomas More Pkwy # 200, Crestview Hills, KY 41017", "city": "Crestview Hills", "state": "Kentucky", "state_code": "KY", "phone": "+1 859-363-2200", "website": "https://www.urologygroup.com/physician/brooke-b-edwards/%3Futm_source%3Dgmb%26utm_medium%3Dorganic%26utm_campaign%3Dbrooke-edwards%26utm_content%3Dstaff-page", "rating": 5, "reviews": 86, "place_id": "ChIJk4lAMui5QYgRYaj8zzbM3z4", "latitude": 39.0238152, "longitude": -84.5645613, "subtypes": "Urologist"}, {"name": "Dr. Noah Allen", "address": "7370 Turfway Rd, Florence, KY 41042", "city": "Florence", "state": "Kentucky", "state_code": "KY", "phone": "+1 513-721-3400", "website": "https://www.stelizabeth.com/care/find-a-provider/results/%3Fm%3Durology", "rating": 4.9, "reviews": 7, "place_id": "ChIJu-q_4MPHQYgRAgr-X9qIz-E", "latitude": 39.0157268, "longitude": -84.6309842, "subtypes": "Urologist"}, {"name": "Christian Dewan, MD", "address": "350 Thomas More Pkwy Suite 200, Crestview Hills, KY 41017", "city": "Crestview Hills", "state": "Kentucky", "state_code": "KY", "phone": "+1 859-363-2200", "website": "https://www.urologygroup.com/physician/christian-dewan-m-d/", "rating": 4.9, "reviews": 65, "place_id": "ChIJA9Kyvzy5QYgRMwzH0WvIH2s", "latitude": 39.0237731, "longitude": -84.5643935, "subtypes": "Urologist"}, {"name": "Dillon Andrew Warning,", "address": "7370 Turfway Rd, Florence, KY 41042", "city": "Florence", "state": "Kentucky", "state_code": "KY", "phone": "+1 859-212-0497", "website": "https://www.stelizabethphysicians.com/care/providers/bio/dillon-warning", "rating": 4.9, "reviews": 14, "place_id": "ChIJz23RPVPHQYgRGppnSOt44F8", "latitude": 39.01587019999999, "longitude": -84.6311928, "subtypes": "Urologist"}, {"name": "Robert J. Larke, MD", "address": "350 Thomas More Pkwy # 200, Crestview Hills, KY 41017", "city": "Crestview Hills", "state": "Kentucky", "state_code": "KY", "phone": "+1 859-363-2200", "website": "https://www.urologygroup.com/physician/robert-j-larke/%3Futm_source%3Dgmb%26utm_medium%3Dorganic%26utm_campaign%3Drobert-larke%26utm_content%3Dstaff-page", "rating": 4.8, "reviews": 129, "place_id": "ChIJvzFY5kC5QYgRyTMXq44UsLk", "latitude": 39.0238152, "longitude": -84.5645613, "subtypes": "Urologist"}, {"name": "Dr. Christopher Cirulli", "address": "350 Thomas More Pkwy # 200, Crestview Hills, KY 41017", "city": "Crestview Hills", "state": "Kentucky", "state_code": "KY", "phone": "+1 859-363-2200", "website": "https://www.urologygroup.com/physician/christopher-cirulli/%3Futm_source%3Dgmb%26utm_medium%3Dorganic%26utm_campaign%3Dchristopher-cirulli%26utm_content%3Dstaff-page", "rating": 5, "reviews": 7, "place_id": "ChIJJa0HXsy5QYgRQITFCvnYL88", "latitude": 39.0238583, "longitude": -84.56455629999999, "subtypes": "Urologist"}, {"name": "Sonia Reva Chopra,", "address": "7370 Turfway Rd, Florence, KY 41042", "city": "Florence", "state": "Kentucky", "state_code": "KY", "phone": "+1 859-212-0497", "website": "https://www.stelizabethphysicians.com/care/providers/bio/sonia-chopra-md", "rating": 4.5, "reviews": 24, "place_id": "ChIJz1C9SnbHQYgRjUgVekMOlnc", "latitude": 39.0157268, "longitude": -84.6309842, "subtypes": "Urologist"}, {"name": "Balaji Kalyanaraman,", "address": "7370 Turfway Rd, Florence, KY 41042", "city": "Florence", "state": "Kentucky", "state_code": "KY", "phone": "+1 859-212-0497", "website": "https://www.stelizabethphysicians.com/care/providers/bio/balaji-kalyanaraman-md", "rating": 4.3, "reviews": 22, "place_id": "ChIJpzaM7mnHQYgRU5qRBlVm1NI", "latitude": 39.0157268, "longitude": -84.6309842, "subtypes": "Urologist"}, {"name": "Dr. Stephen L. Brewer, MD", "address": "7370 Turfway Rd #270, Florence, KY 41042", "city": "Florence", "state": "Kentucky", "state_code": "KY", "phone": "+1 859-212-0497", "website": "http://www.stelizabethphysicians.com/", "rating": 4.3, "reviews": 3, "place_id": "ChIJ45Tmu-PPcEAR52-uwIuNew4", "latitude": 39.015789, "longitude": -84.6309563, "subtypes": "Urologist"}, {"name": "Dr. B R. Schwartz, MD", "address": "20 Medical Village Dr STE 308, Edgewood, KY 41017", "city": "Edgewood", "state": "Kentucky", "state_code": "KY", "phone": "+1 859-363-2200", "website": "http://urologygroup.com/", "rating": 5, "reviews": 1, "place_id": "ChIJJa0HXsy5QYgRhO8l0KjHQJg", "latitude": 39.013582, "longitude": -84.56121, "subtypes": "Urologist"}, {"name": "Vinson Wang, MD", "address": "350 Thomas More Pkwy Suite 200, Crestview Hills, KY 41017", "city": "Crestview Hills", "state": "Kentucky", "state_code": "KY", "phone": "+1 859-363-2200", "website": "https://www.urologygroup.com/physician/vinson-wang-m-d/", "rating": 3.7, "reviews": 3, "place_id": "ChIJzZO0pNm5QYgRMrg8xA1zr0Y", "latitude": 39.0232331, "longitude": -84.5661956, "subtypes": "Urologist"}, {"name": "Dr. B R. Schwartz, MD", "address": "350 Thomas More Pkwy # 200, Crestview Hills, KY 41017", "city": "Crestview Hills", "state": "Kentucky", "state_code": "KY", "phone": "+1 859-363-2200", "website": "http://urologygroup.com/", "rating": "", "reviews": "", "place_id": "ChIJD3c4SSu4QYgRNbPe-UbqZIc", "latitude": 39.0238583, "longitude": -84.56455629999999, "subtypes": "Urologist"}, {"name": "Michael R. Daugherty MD, MHI", "address": "2765 Chapel Pl, Crestview Hills, KY 41017", "city": "Crestview Hills", "state": "Kentucky", "state_code": "KY", "phone": "+1 859-344-5390", "website": "https://www.cincinnatichildrens.org/bio/d/michael-daugherty%3Futm_source%3Dgoogle%26utm_medium%3Dorganic%26utm_campaign%3Dprofile_listing", "rating": "", "reviews": "", "place_id": "ChIJb2xESia5QYgROmlEmmZ4DUE", "latitude": 39.0242784, "longitude": -84.5629263, "subtypes": "Urologist"}, {"name": "Elicker Edward R MD", "address": "20 Medical Village Dr, Edgewood, KY 41017", "city": "Edgewood", "state": "Kentucky", "state_code": "KY", "phone": "+1 859-341-2672", "website": "", "rating": "", "reviews": "", "place_id": "ChIJJa0HXsy5QYgR7bPgqclMs68", "latitude": 39.013582, "longitude": -84.56121, "subtypes": "Urologist"}, {"name": "Dr. William B. Monnig, MD", "address": "20 Medical Village Dr STE 308, Edgewood, KY 41017", "city": "Edgewood", "state": "Kentucky", "state_code": "KY", "phone": "+1 859-341-2672", "website": "http://urologygroup.com/meet-the-urology-group/medical-staff/", "rating": "", "reviews": "", "place_id": "ChIJJa0HXsy5QYgRV6Yt0tLowNQ", "latitude": 39.013582, "longitude": -84.56121, "subtypes": "Urologist"}, {"name": "Dr. James M. Fellows, MD", "address": "44 McCoy Ave, Madisonville, KY 42431", "city": "Madisonville", "state": "Kentucky", "state_code": "KY", "phone": "+1 270-825-0020", "website": "http://fellowsurology.com/", "rating": 2.2, "reviews": 39, "place_id": "ChIJWXbEfvj-b4gREpirzULKScc", "latitude": 37.3220494, "longitude": -87.498682, "subtypes": "Urologist"}, {"name": "Urology Specialty Care, Dr. Anna D'Amico", "address": "127 E North St, Madisonville, KY 42431", "city": "Madisonville", "state": "Kentucky", "state_code": "KY", "phone": "+1 270-821-7739", "website": "", "rating": 4.1, "reviews": 15, "place_id": "ChIJf_N_roz-b4gRGvILkauWJ6g", "latitude": 37.3354886, "longitude": -87.4948862, "subtypes": "Urologist"}, {"name": "Urology Partners Of Western Ky", "address": "44 McCoy Ave SUITE NUMBER 227, Madisonville, KY 42431", "city": "Madisonville", "state": "Kentucky", "state_code": "KY", "phone": "+1 270-825-0020", "website": "http://fellowsurology.com/", "rating": "", "reviews": "", "place_id": "ChIJLwFpUOT-b4gRZdIThsuIARk", "latitude": 37.3217098, "longitude": -87.4991962, "subtypes": "Urology clinic"}, {"name": "Owensboro Health Urology in Madisonville", "address": "444 S Main St, Madisonville, KY 42431", "city": "Madisonville", "state": "Kentucky", "state_code": "KY", "phone": "+1 270-417-7880", "website": "https://www.owensborohealth.org/locations/ohmg-profile/owensboro-health-medical-group-urology%3Futm_source%3Dlocal-listing%26utm_medium%3Dorganic%26utm_campaign%3Dwebsite-link", "rating": "", "reviews": "", "place_id": "ChIJ13OQkrH_b4gRPpQFu29gXWY", "latitude": 37.3217098, "longitude": -87.4991962, "subtypes": "Urology clinic"}, {"name": "Urology Specialty Care", "address": "1851 N Main St, Madisonville, KY 42431", "city": "Madisonville", "state": "Kentucky", "state_code": "KY", "phone": "+1 270-821-7739", "website": "", "rating": "", "reviews": "", "place_id": "ChIJOdNoPIf-b4gRI4zxR-g9lz8", "latitude": 37.3541764, "longitude": -87.4983525, "subtypes": "Urologist"}, {"name": "D'Amico Anna MD", "address": "1851 N Main St, Madisonville, KY 42431", "city": "Madisonville", "state": "Kentucky", "state_code": "KY", "phone": "+1 270-821-7739", "website": "", "rating": "", "reviews": "", "place_id": "ChIJOdNoPIf-b4gRvkagWjWYhqc", "latitude": 37.354176, "longitude": -87.4983488, "subtypes": "Urologist"}, {"name": "Centerpoint Urology - Winchester", "address": "1114 McCann Dr, Winchester, KY 40391", "city": "Winchester", "state": "Kentucky", "state_code": "KY", "phone": "+1 859-737-4411", "website": "https://www.centerpointmedicalgroup.com/", "rating": 3.7, "reviews": 19, "place_id": "ChIJBZ6UKFitQ4gRd8StvGjsJjs", "latitude": 38.0033833, "longitude": -84.1954737, "subtypes": "Urology clinic"}, {"name": "Freddie L Terrell, MD", "address": "1114 McCann Dr, Winchester, KY 40391", "city": "Winchester", "state": "Kentucky", "state_code": "KY", "phone": "+1 859-737-4411", "website": "https://www.centerpointhealth.com/", "rating": 4.3, "reviews": 27, "place_id": "ChIJjfNz4vmtQ4gR-o2BRi9HUkQ", "latitude": 38.0033833, "longitude": -84.1954737, "subtypes": "Urologist"}, {"name": "William R Crowe, MD", "address": "1114 McCann Dr, Winchester, KY 40391", "city": "Winchester", "state": "Kentucky", "state_code": "KY", "phone": "+1 859-737-4411", "website": "https://www.centerpointmedicalgroup.com/", "rating": 4.4, "reviews": 12, "place_id": "ChIJNXxRskqtQ4gRhFPyrVu9_I0", "latitude": 38.0034186, "longitude": -84.1954569, "subtypes": "Urologist"}, {"name": "JOHN P TUTTLE", "address": "175 Hospital Dr, Winchester, KY 40391", "city": "Winchester", "state": "Kentucky", "state_code": "KY", "phone": "+1 859-745-3500", "website": "", "rating": 5, "reviews": 1, "place_id": "ChIJKQQAsHCyQ4gR4EDw7Ngin58", "latitude": 38.0117223, "longitude": -84.2166798, "subtypes": "Urologist"}, {"name": "Centerpoint Urology - Georgetown", "address": "1140 Lexington Rd #100, Georgetown, KY 40324", "city": "Georgetown", "state": "Kentucky", "state_code": "KY", "phone": "+1 502-570-3757", "website": "https://www.centerpointmedicalgroup.com/", "rating": 4.2, "reviews": 32, "place_id": "ChIJ662hxoBAQogRlvMwFmH741A", "latitude": 38.1866439, "longitude": -84.5612931, "subtypes": "Urology clinic"}, {"name": "Kevin Art MD", "address": "1140 Lexington Rd #100, Georgetown, KY 40324", "city": "Georgetown", "state": "Kentucky", "state_code": "KY", "phone": "+1 502-570-3757", "website": "https://www.georgetownmedicalgroup.com/", "rating": 3.7, "reviews": 3, "place_id": "ChIJpSAd9JxBQogRKF2tnXHsNnc", "latitude": 38.1866439, "longitude": -84.5612931, "subtypes": "Urologist"}, {"name": "Dr. Matthew D. Peterson, MD", "address": "245 Atwood Dr, Georgetown, KY 40324", "city": "Georgetown", "state": "Kentucky", "state_code": "KY", "phone": "+1 812-282-3899", "website": "http://1sturology.com/", "rating": 1, "reviews": 1, "place_id": "ChIJIQGBpIc_QogRo2yrAk4ibeE", "latitude": 38.1932474, "longitude": -84.5724553, "subtypes": "Urologist"}, {"name": "Ascension Medical Group St. Vincent - Henderson Urology", "address": "151 Garden Mile Rd, Henderson, KY 42420", "city": "Henderson", "state": "Kentucky", "state_code": "KY", "phone": "+1 812-473-1111", "website": "https://healthcare.ascension.org/locations/kentucky/inasc/henderson-ascension-st-vincent-medical-group-henderson/departments/urology%3Futm_campaign%3Dgmb%26utm_medium%3Dorganic-search%26utm_content%3Dlocation-listing%26utm_source%3Dlocal", "rating": 5, "reviews": 3, "place_id": "ChIJPxBgQwUpcIgR3KdEWXwgftw", "latitude": 37.8259492, "longitude": -87.55897519999999, "subtypes": "Urologist"}, {"name": "Urology Partners of Western Kentucky", "address": "323 8th St, Henderson, KY 42420", "city": "Henderson", "state": "Kentucky", "state_code": "KY", "phone": "+1 270-827-2915", "website": "http://fellowsurology.com/", "rating": 2.3, "reviews": 3, "place_id": "ChIJ51v1YhEpcIgRy8yq_Ffoo6E", "latitude": 37.847761, "longitude": -87.58469869999999, "subtypes": "Urologist"}, {"name": "James Fellows", "address": "323 8th St, Henderson, KY 42420", "city": "Henderson", "state": "Kentucky", "state_code": "KY", "phone": "+1 270-827-2915", "website": "", "rating": 3, "reviews": 1, "place_id": "ChIJq6p6ehEpcIgRmbHJc2nD1sg", "latitude": 37.8476201, "longitude": -87.58412709999999, "subtypes": "Urologist"}, {"name": "Phillip M. Gilson, MD", "address": "151 Garden Mile Rd, Henderson, KY 42420", "city": "Henderson", "state": "Kentucky", "state_code": "KY", "phone": "+1 812-473-1111", "website": "https://healthcare.ascension.org/find-care/provider/1619966322/phillip-gilson%3Futm_campaign%3Dgmb-website%26utm_medium%3Dorganic%26utm_source%3Dgoogle", "rating": 5, "reviews": 1, "place_id": "ChIJhU6Y3aMCb4gRUQqgp-YCllU", "latitude": 37.8260146, "longitude": -87.5589657, "subtypes": "Urologist"}, {"name": "First Urology", "address": "3920 S Dupont Sq C, Louisville, KY 40207", "city": "Louisville", "state": "Kentucky", "state_code": "KY", "phone": "+1 812-282-3899", "website": "http://1sturology.com/", "rating": 3.6, "reviews": 347, "place_id": "ChIJjacd8M0KaYgRo6epizb4kNI", "latitude": 38.2310173, "longitude": -85.63306999999999, "subtypes": "Urology clinic"}, {"name": "Dr. Henry N. Meiers, MD", "address": "3900 Kresge Way STE 40, St Matthews, KY 40207", "city": "St Matthews", "state": "Kentucky", "state_code": "KY", "phone": "+1 502-897-7172", "website": "http://alliedurology.com/", "rating": 5, "reviews": 6, "place_id": "ChIJ45iRbCt1aYgRUi-uf18LKUU", "latitude": 38.2375087, "longitude": -85.639521, "subtypes": "Urologist"}, {"name": "Norton Children's Urology - St. Matthews", "address": "3999 Dutchmans Ln #6f, Louisville, KY 40207", "city": "Louisville", "state": "Kentucky", "state_code": "KY", "phone": "+1 502-559-1670", "website": "https://nortonchildrens.com/location/loc0000191945%3Futm_source%3Dthird-party%26utm_medium%3Dlistings%26utm_campaign%3Dncuro-dtc%26utm_content%3Dlocation-page", "rating": 2.2, "reviews": 29, "place_id": "ChIJ6daEL80KaYgR048zbt-jXhg", "latitude": 38.2345718, "longitude": -85.6331225, "subtypes": "Pediatric urologist"}, {"name": "First Urology: Jurige Jr John H MD", "address": "3920 S Dupont Sq, St Matthews, KY 40207", "city": "St Matthews", "state": "Kentucky", "state_code": "KY", "phone": "+1 502-897-7172", "website": "https://1sturology.com/", "rating": 3.9, "reviews": 7, "place_id": "ChIJ45iRbCt1aYgRSM6f70dNLJY", "latitude": 38.2310737, "longitude": -85.6332347, "subtypes": "Urologist"}, {"name": "Dr. Christopher G. Schrepferman, MD", "address": "3900 Kresge Way STE 40, St Matthews, KY 40207", "city": "St Matthews", "state": "Kentucky", "state_code": "KY", "phone": "+1 502-897-7172", "website": "", "rating": 5, "reviews": 3, "place_id": "ChIJ45iRbCt1aYgR_UebaKRgRLY", "latitude": 38.2375087, "longitude": -85.639521, "subtypes": "Urologist"}, {"name": "Allied Urology Psc: Smith Christopher MD", "address": "912 Dupont Cir, St Matthews, KY 40207", "city": "St Matthews", "state": "Kentucky", "state_code": "KY", "phone": "+1 502-897-5147", "website": "https://alliedurology.com/", "rating": 5, "reviews": 1, "place_id": "ChIJ45iRbCt1aYgRRV_e0pE8fvM", "latitude": 38.2348035, "longitude": -85.63833319999999, "subtypes": "Urologist"}, {"name": "Dr. Samuel R. Watkins Jr, MD", "address": "912 Dupont Rd, St Matthews, KY 40207", "city": "St Matthews", "state": "Kentucky", "state_code": "KY", "phone": "+1 502-897-5147", "website": "", "rating": 1.9, "reviews": 7, "place_id": "ChIJEQ2dWNMKaYgRvHYaFuX2K2s", "latitude": 38.23489, "longitude": -85.63834299999999, "subtypes": "Urologist"}, {"name": "UofL Physicians \u2013 Urology Associates", "address": "731 Hospital Dr Suite 2, Shelbyville, KY 40065", "city": "Shelbyville", "state": "Kentucky", "state_code": "KY", "phone": "+1 502-405-9450", "website": "https://uoflhealth.org/locations/uofl-physicians-urology-associates/%3Futm_source%3DGMBSocialClimb%26utm_medium%3DUofLPhysicians%25E2%2580%2593UrologyAssociates", "rating": 4.9, "reviews": 29, "place_id": "ChIJWbJ3RP_BaYgRDVmJNtdOnAA", "latitude": 38.2086538, "longitude": -85.23494699999999, "subtypes": "Urology clinic"}, {"name": "Allied Urology Psc: Sweitzer Stephen J MD", "address": "912 Dupont Rd, St Matthews, KY 40207", "city": "St Matthews", "state": "Kentucky", "state_code": "KY", "phone": "+1 502-897-5147", "website": "https://alliedurology.com/", "rating": "", "reviews": "", "place_id": "ChIJEQ2dWNMKaYgRhvt0QJqT39Q", "latitude": 38.23489, "longitude": -85.63834299999999, "subtypes": "Urologist"}, {"name": "Dr. Christopher E. Smith, MD", "address": "3900 Kresge Way STE 40, St Matthews, KY 40207", "city": "St Matthews", "state": "Kentucky", "state_code": "KY", "phone": "+1 502-897-7172", "website": "https://weence.com/medical/doctors/louisville/dr-christopher-e-smith-md/", "rating": 4, "reviews": 4, "place_id": "ChIJ45iRbCt1aYgRBYPj9SLttfE", "latitude": 38.2375087, "longitude": -85.639521, "subtypes": "Urologist"}, {"name": "Urology - Newport/Ft. Thomas - St. Elizabeth Physicians", "address": "1400 N Grand Ave, Newport, KY 41071", "city": "Newport", "state": "Kentucky", "state_code": "KY", "phone": "+1 859-212-0497", "website": "https://www.stelizabeth.com/location/details/urology-newport", "rating": 4.3, "reviews": 25, "place_id": "ChIJv8-D0LuxQYgRfMVoCFX1HxQ", "latitude": 39.0809249, "longitude": -84.4697494, "subtypes": "Urology clinic"}, {"name": "Monzer Haj-Hamed,", "address": "1400 N Grand Ave, Newport, KY 41071", "city": "Newport", "state": "Kentucky", "state_code": "KY", "phone": "+1 859-212-0497", "website": "https://www.stelizabethphysicians.com/care/providers/bio/monzer-haj-hamed", "rating": 5, "reviews": 1, "place_id": "ChIJIZAoaSSxQYgRcEw4VDj4-hA", "latitude": 39.0809286, "longitude": -84.4696467, "subtypes": "Urologist"}, {"name": "The Christ Hospital Physicians - Urology", "address": "1955 Dixie Hwy suite m, Fort Wright, KY 41011", "city": "Fort Wright", "state": "Kentucky", "state_code": "KY", "phone": "+1 513-721-7373", "website": "https://www.thechristhospital.com/services/urology", "rating": "", "reviews": "", "place_id": "ChIJJ8cN8Ba3QYgRt-joRdkpiT8", "latitude": 39.0554664, "longitude": -84.54617549999999, "subtypes": "Urology clinic"}, {"name": "Noah Benjamin Allen,", "address": "1400 N Grand Ave, Newport, KY 41071", "city": "Newport", "state": "Kentucky", "state_code": "KY", "phone": "+1 859-212-0497", "website": "https://www.stelizabethphysicians.com/care/providers/bio/noah-allen-md", "rating": 4.5, "reviews": 70, "place_id": "ChIJwfEJC0CxQYgRRo8X6A7KXDk", "latitude": 39.0809957, "longitude": -84.4695022, "subtypes": "Urologist"}, {"name": "Patricia Danielle Walsh,", "address": "1400 N Grand Ave, Newport, KY 41071", "city": "Newport", "state": "Kentucky", "state_code": "KY", "phone": "+1 859-212-0497", "website": "https://www.stelizabethphysicians.com/care/providers/bio/patricia-walsh", "rating": 4.9, "reviews": 12, "place_id": "ChIJw9PyEsXHQYgRO5v7RiwpnGc", "latitude": 39.0809286, "longitude": -84.4696467, "subtypes": "Urologist"}, {"name": "Justin Cox", "address": "1955 Dixie Hwy Suite L2, Fort Wright, KY 41011", "city": "Fort Wright", "state": "Kentucky", "state_code": "KY", "phone": "+1 513-421-5558", "website": "", "rating": "", "reviews": "", "place_id": "ChIJlwKd_ha3QYgRd5yYqUoIHiQ", "latitude": 39.0554664, "longitude": -84.54617549999999, "subtypes": "Urologist"}, {"name": "Mickey Karram", "address": "1955 Dixie Hwy, Fort Wright, KY 410112792", "city": "Fort Wright", "state": "Kentucky", "state_code": "KY", "phone": "+1 513-721-7373", "website": "", "rating": "", "reviews": "", "place_id": "ChIJY9gZ_Ba3QYgRjItiXHjdULQ", "latitude": 39.0554664, "longitude": -84.54617549999999, "subtypes": "Urologist"}, {"name": "Mitchell Wiatrak, MD", "address": "310 N L Rogers Wells Blvd, Glasgow, KY 42141", "city": "Glasgow", "state": "Kentucky", "state_code": "KY", "phone": "+1 270-651-1111", "website": "https://www.tjregionalhealth.org/provider-directory/provider/mitchell-wiatrak-md/", "rating": 2.6, "reviews": 5, "place_id": "ChIJRWA2Ooc9ZogReqaYEanLn3k", "latitude": 37.0071753, "longitude": -85.9287873, "subtypes": "Urologist"}, {"name": "Glasgow Urology Adult & Pdtrc", "address": "1012 Glenview Dr, Glasgow, KY 42141", "city": "Glasgow", "state": "Kentucky", "state_code": "KY", "phone": "+1 270-651-8348", "website": "", "rating": 3, "reviews": 1, "place_id": "ChIJAW89HAg9ZogRd-uApdYZZ70", "latitude": 37.0123256, "longitude": -85.901895, "subtypes": "Urologist"}, {"name": "Dr. Mitchell Wiatrak", "address": "1330 N Race St, Glasgow, KY 42141", "city": "Glasgow", "state": "Kentucky", "state_code": "KY", "phone": "+1 270-651-4444", "website": "https://www.tjregionalhealth.org/provider-directory/provider/mitchell-wiatrak-md/", "rating": "", "reviews": "", "place_id": "ChIJq6qqNqc9ZogRI-9soRhFHpA", "latitude": 37.013614, "longitude": -85.9048163, "subtypes": "Urologist"}, {"name": "York Jr Paul S MD", "address": "2190 N Jackson Hwy, Glasgow, KY 42141", "city": "Glasgow", "state": "Kentucky", "state_code": "KY", "phone": "+1 270-651-8117", "website": "", "rating": "", "reviews": "", "place_id": "ChIJ46-KFBI9ZogRMFX3-XMoCxU", "latitude": 37.025578, "longitude": -85.906418, "subtypes": "Urologist"}, {"name": "Dr. Bogdan R. Marcol, MD", "address": "1012 Glenview Dr, Glasgow, KY 42141", "city": "Glasgow", "state": "Kentucky", "state_code": "KY", "phone": "+1 270-651-8348", "website": "", "rating": 5, "reviews": 1, "place_id": "ChIJAW89HAg9ZogRnhXhr3buUQk", "latitude": 37.0123327, "longitude": -85.9019002, "subtypes": "Urologist"}, {"name": "DENIS A YALKUT", "address": "305 Estill St, Berea, KY 40403", "city": "Berea", "state": "Kentucky", "state_code": "KY", "phone": "", "website": "", "rating": "", "reviews": "", "place_id": "ChIJ____IvLhQogRqr03Jw8svwQ", "latitude": 37.5766235, "longitude": -84.28630559999999, "subtypes": "Urologist"}, {"name": "Saint Joseph Urology", "address": "305 Estill St, Berea, KY 40403", "city": "Berea", "state": "Kentucky", "state_code": "KY", "phone": "+1 859-985-8100", "website": "https://www.chisaintjosephhealth.org/chi-saint-joseph-health/hospitals-locations/saint-joseph-berea/services/urology-care", "rating": "", "reviews": "", "place_id": "ChIJPYnEvu3hQogRQZvUog1B8jA", "latitude": 37.5766235, "longitude": -84.28630559999999, "subtypes": "Urologist"}, {"name": "Yalkut Denis MD", "address": "2161 Lexington Rd #2, Richmond, KY 40475", "city": "Richmond", "state": "Kentucky", "state_code": "KY", "phone": "+1 859-624-2442", "website": "https://www.commonspirit.org/find-a-doctor/denis-yalkut-1700974797", "rating": 4, "reviews": 42, "place_id": "ChIJxZqwmoz9QogRGcPt3aanhW4", "latitude": 37.7764859, "longitude": -84.3218691, "subtypes": "Urologist"}, {"name": "William R Allen, MD", "address": "793 Eastern Bypass Medical Park 3, Suite 101, Richmond, KY 40475", "city": "Richmond", "state": "Kentucky", "state_code": "KY", "phone": "+1 859-626-8645", "website": "https://www.baptisthealth.com/provider/william-r-allen-md-urology%3Futm_source%3Dg-local%26utm_medium%3Dorganic%26utm_content%3Dorg-local-provider%26utm_campaign%3Drich-local-listing", "rating": 3.9, "reviews": 14, "place_id": "ChIJL741ZJT9QogRWP2SZxokNkk", "latitude": 37.7312083, "longitude": -84.2867291, "subtypes": "Urologist"}, {"name": "Commonwealth Urology", "address": "793 Eastern Bypass # 101, Richmond, KY 40475", "city": "Richmond", "state": "Kentucky", "state_code": "KY", "phone": "+1 859-623-5920", "website": "", "rating": "", "reviews": "", "place_id": "ChIJL741ZJT9QogRrAMAIomREq4", "latitude": 37.7312083, "longitude": -84.2867291, "subtypes": "Urologist"}, {"name": "Louisville Urology", "address": "4359 New Shepherdsville Rd #205, Bardstown, KY 40004", "city": "Bardstown", "state": "Kentucky", "state_code": "KY", "phone": "+1 502-375-0009", "website": "", "rating": "", "reviews": "", "place_id": "ChIJhe5775xUaIgR99O3fj1bTvg", "latitude": 37.8633833, "longitude": -85.52316859999999, "subtypes": "Urology clinic"}, {"name": "Dr. Ann M. Joseph-Reynolds, MD", "address": "4305 New Shepherdsville Rd, Bardstown, KY 40004", "city": "Bardstown", "state": "Kentucky", "state_code": "KY", "phone": "+1 502-350-5000", "website": "", "rating": "", "reviews": "", "place_id": "ChIJcdqj0pxUaIgRmddavXdPz_8", "latitude": 37.8618799, "longitude": -85.52324159999999, "subtypes": "Urologist"}, {"name": "UofL Physicians \u2013 Urology", "address": "1868 W Hebron Ln Suite 302, Shepherdsville, KY 40165", "city": "Shepherdsville", "state": "Kentucky", "state_code": "KY", "phone": "+1 502-588-4740", "website": "https://uoflhealth.org/locations/uofl-physicians-urology-1868-w-hebron-lane/%3Futm_source%3DGMBSocialClimb%26utm_medium%3DUofLPhysicians%25E2%2580%2593Urology", "rating": 5, "reviews": 1, "place_id": "ChIJJdQsX58FaYgRHNBUm55Ty9U", "latitude": 38.0618784, "longitude": -85.6945581, "subtypes": "Urology clinic"}, {"name": "Metropolitan Urology", "address": "115 Huston Dr, Shepherdsville, KY 40165", "city": "Shepherdsville", "state": "Kentucky", "state_code": "KY", "phone": "+1 812-282-3899", "website": "http://1sturology.com/", "rating": "", "reviews": "", "place_id": "ChIJMbfAmZgGaYgRjOz4d5GLC40", "latitude": 38.0053762, "longitude": -85.6777804, "subtypes": "Urologist"}, {"name": "Allied Urology", "address": "1905 W Hebron Ln, Shepherdsville, KY 40165", "city": "Shepherdsville", "state": "Kentucky", "state_code": "KY", "phone": "+1 502-584-0651", "website": "", "rating": "", "reviews": "", "place_id": "ChIJ8bTJoA0GaYgRXTkzqKDkfHk", "latitude": 38.0622234, "longitude": -85.69660689999999, "subtypes": "Urologist"}, {"name": "Jessica Schardein, M.D., MS", "address": "1903 W Hebron Ln, Shepherdsville, KY 40165", "city": "Shepherdsville", "state": "Kentucky", "state_code": "KY", "phone": "+1 502-588-4740", "website": "https://uoflhealth.org/provider/jessica-schardein-urology/", "rating": 4, "reviews": 1, "place_id": "ChIJOecGjYIFaYgRigwb2NN4Mvo", "latitude": 38.0615154, "longitude": -85.69716799999999, "subtypes": "Urologist"}, {"name": "Dr. Ganesh S. Rao, MD", "address": "1903 W Hebron Ln Suite 104, Shepherdsville, KY 40165", "city": "Shepherdsville", "state": "Kentucky", "state_code": "KY", "phone": "+1 812-282-3899", "website": "", "rating": 4, "reviews": 1, "place_id": "ChIJ_____7-oaYgRd8046uxUMl4", "latitude": 38.0617895, "longitude": -85.69685969999999, "subtypes": "Urologist"}, {"name": "Dr. Matthew D. Peterson, MD", "address": "115 Huston Dr, Shepherdsville, KY 40165", "city": "Shepherdsville", "state": "Kentucky", "state_code": "KY", "phone": "+1 812-282-3899", "website": "", "rating": "", "reviews": "", "place_id": "ChIJMbfAmZgGaYgRy1mkVG2G6GQ", "latitude": 38.0053762, "longitude": -85.6777804, "subtypes": "Urologist"}, {"name": "First Urology", "address": "170 Dr Arla Way Suite 101, Louisville, KY 40229", "city": "Louisville", "state": "Kentucky", "state_code": "KY", "phone": "+1 812-282-3899", "website": "https://1sturology.com/", "rating": 3.6, "reviews": 5, "place_id": "ChIJAQBAG6cIaYgRRSX7-ciDZTk", "latitude": 38.0704551, "longitude": -85.6710063, "subtypes": "Urology clinic"}, {"name": "Zach Snow, D.O.", "address": "1868 W Hebron Ln, Shepherdsville, KY 40165", "city": "Shepherdsville", "state": "Kentucky", "state_code": "KY", "phone": "+1 502-588-4740", "website": "https://uoflhealth.org/provider/zach-snow-urology/%3Futm_source%3DGMBSocialClimb%26utm_medium%3DZachSnow%252CD.O.", "rating": "", "reviews": "", "place_id": "ChIJcTx_A_UFaYgRp7MsCQV7yOc", "latitude": 38.0618784, "longitude": -85.6945581, "subtypes": "Urologist"}, {"name": "Samer R. Kalakish, M.D.", "address": "201 Park St, Bowling Green, KY 42101", "city": "Bowling Green", "state": "Kentucky", "state_code": "KY", "phone": "+1 270-783-3343", "website": "http://gravesgilbert.com/physicians/samer-r-kalakish-m-d/", "rating": 4.3, "reviews": 16, "place_id": "ChIJczf140_vZYgRRZrqcaNx8vo", "latitude": 36.996808, "longitude": -86.430229, "subtypes": "Urologist"}, {"name": "Med Center Health Urology", "address": "350 Park St #210, Bowling Green, KY 42101", "city": "Bowling Green", "state": "Kentucky", "state_code": "KY", "phone": "+1 270-467-1780", "website": "https://medcenterhealth.org/location/med-center-health-urology-2/", "rating": 3, "reviews": 2, "place_id": "ChIJN5gyu1HvZYgR-1MtKw4aCl0", "latitude": 36.995111, "longitude": -86.43140129999999, "subtypes": "Urologist"}, {"name": "Mark E. Bigler, M.D.", "address": "201 Park St, Bowling Green, KY 42101", "city": "Bowling Green", "state": "Kentucky", "state_code": "KY", "phone": "+1 270-783-3343", "website": "http://gravesgilbert.com/physicians/mark-e-bigler-m-d/", "rating": 4.2, "reviews": 14, "place_id": "ChIJczf140_vZYgR3D8kgwW4sHY", "latitude": 36.996808, "longitude": -86.430229, "subtypes": "Urologist"}, {"name": "Bigler Mark E MD", "address": "1325 Andrea St, Bowling Green, KY 42104", "city": "Bowling Green", "state": "Kentucky", "state_code": "KY", "phone": "+1 270-783-3343", "website": "http://gravesgilbert.com/", "rating": 3.7, "reviews": 3, "place_id": "ChIJdbT6lJXoZYgRUfLPQzyRLWg", "latitude": 36.9641436, "longitude": -86.4353721, "subtypes": "Urologist"}, {"name": "David A. Bergamini, M.D.", "address": "Medical Arts Building, 350 Park St #100, Bowling Green, KY 42101", "city": "Bowling Green", "state": "Kentucky", "state_code": "KY", "phone": "+1 270-467-1780", "website": "https://medcenterhealth.org/service/urology/", "rating": 3.9, "reviews": 15, "place_id": "ChIJczf140_vZYgRgAOhyLlkVLQ", "latitude": 36.9949362, "longitude": -86.43148169999999, "subtypes": "Urologist"}, {"name": "Center-Urological Treatment", "address": "1325 Andrea St, Bowling Green, KY 42104", "city": "Bowling Green", "state": "Kentucky", "state_code": "KY", "phone": "", "website": "", "rating": 5, "reviews": 1, "place_id": "ChIJEbH6lJXoZYgR2kLLOQnT7CM", "latitude": 36.9637864, "longitude": -86.43667889999999, "subtypes": "Urologist"}, {"name": "Norton Children's Urology - Bowling Green", "address": "720 E 2nd Ave Suite 102, Bowling Green, KY 42101", "city": "Bowling Green", "state": "Kentucky", "state_code": "KY", "phone": "+1 502-559-1670", "website": "https://nortonchildrens.com/location/loc0000191940%3Futm_source%3Dthird-party%26utm_medium%3Dlistings%26utm_campaign%3Dncuro-dtc%26utm_content%3Dlocation-page", "rating": "", "reviews": "", "place_id": "ChIJCXZcyAXvZYgRIO5mMHg7lNQ", "latitude": 36.996494, "longitude": -86.42851759999999, "subtypes": "Pediatric urologist"}, {"name": "J Goodwin", "address": "1325 Andrea St Suite 201, Bowling Green, KY 421045852", "city": "Bowling Green", "state": "Kentucky", "state_code": "KY", "phone": "+1 270-781-7212", "website": "", "rating": 3, "reviews": 1, "place_id": "ChIJRbgueJXoZYgRM09rl0joaDU", "latitude": 36.9646258, "longitude": -86.4365779, "subtypes": "Urologist"}, {"name": "Melissa Wilkerson, APRN", "address": "720 E 2nd Ave, Bowling Green, KY 42101", "city": "Bowling Green", "state": "Kentucky", "state_code": "KY", "phone": "+1 502-559-1670", "website": "", "rating": "", "reviews": "", "place_id": "ChIJT6zYNOfvZYgRrYSjcTFSRVk", "latitude": 36.9965092, "longitude": -86.4285766, "subtypes": "Urologist"}, {"name": "Allen Tara M MD", "address": "1325 Andrea St # 201, Bowling Green, KY 42104", "city": "Bowling Green", "state": "Kentucky", "state_code": "KY", "phone": "", "website": "", "rating": "", "reviews": "", "place_id": "ChIJdbT6lJXoZYgRkvEBMn2bXsU", "latitude": 36.9641436, "longitude": -86.4353721, "subtypes": "Urologist"}, {"name": "Graves Gilbert Urology Green view Campus", "address": "1824-1898 Rockingham Ave, Bowling Green, KY 42104", "city": "Bowling Green", "state": "Kentucky", "state_code": "KY", "phone": "+1 270-781-5111", "website": "http://gravesgilbert.com/", "rating": 3, "reviews": 2, "place_id": "ChIJGUFmQJXoZYgRwR3zhcoSpGo", "latitude": 36.9640377, "longitude": -86.4378333, "subtypes": "Urology clinic"}, {"name": "Matthew E. Rutter, M.D.", "address": "201 Park St, Bowling Green, KY 42101", "city": "Bowling Green", "state": "Kentucky", "state_code": "KY", "phone": "", "website": "", "rating": 4.4, "reviews": 21, "place_id": "ChIJczf140_vZYgRwex48HF8-jQ", "latitude": 36.996808, "longitude": -86.430229, "subtypes": "Urologist"}, {"name": "Owensboro Health Urology in Owensboro", "address": "1301 Pleasant Valley Rd Suite 302, Owensboro, KY 42303", "city": "Owensboro", "state": "Kentucky", "state_code": "KY", "phone": "+1 270-417-7880", "website": "https://www.owensborohealth.org/locations/profile/%3Fid%3D175%26%3Futm_source%3Dlocal-listing%26utm_medium%3Dorganic%26utm_campaign%3Dwebsite-link", "rating": 4.6, "reviews": 88, "place_id": "ChIJ-fzafQawb4gRt5mqYkev_gE", "latitude": 37.7780625, "longitude": -87.06569259999999, "subtypes": "Urology clinic"}, {"name": "R. Dan Andersen, MD", "address": "1301 Pleasant Valley Rd Suite 302, Owensboro, KY 42303", "city": "Owensboro", "state": "Kentucky", "state_code": "KY", "phone": "+1 270-417-7880", "website": "https://www.owensborohealth.org/find-doctor/basic-profile/dan-andersen%3Futm_source%3Dlocal-listing%26utm_medium%3Dorganic%26utm_campaign%3Dwebsite-link", "rating": 4.8, "reviews": 16, "place_id": "ChIJ17ZVZhW6b4gRZGPYCbv02EY", "latitude": 37.7781652, "longitude": -87.0640955, "subtypes": "Urologist"}, {"name": "Ross J R PSC", "address": "1100 Walnut St # 12, Owensboro, KY 42301", "city": "Owensboro", "state": "Kentucky", "state_code": "KY", "phone": "+1 270-684-9218", "website": "", "rating": 5, "reviews": 1, "place_id": "ChIJeYCnOHK6b4gRRjC_n9CCWYE", "latitude": 37.7647859, "longitude": -87.11806089999999, "subtypes": "Urologist"}, {"name": "J. Chris Riney, MD", "address": "1301 Pleasant Valley Rd Suite 302, Owensboro, KY 42303", "city": "Owensboro", "state": "Kentucky", "state_code": "KY", "phone": "+1 270-417-7880", "website": "https://www.owensborohealth.org/find-doctor/basic-profile/chris-riney/%3Futm_source%3Dlocal-listing%26utm_medium%3Dorganic%26utm_campaign%3Dwebsite-link", "rating": 4.4, "reviews": 7, "place_id": "ChIJ8xgd2f2xb4gRV2bJbEUvIUU", "latitude": 37.7781982, "longitude": -87.0650917, "subtypes": "Urologist"}, {"name": "Corey Johnson, MD", "address": "1301 Pleasant Valley Rd Suite 302, Owensboro, KY 42303", "city": "Owensboro", "state": "Kentucky", "state_code": "KY", "phone": "+1 270-417-7880", "website": "https://www.owensborohealth.org/find-doctor/basic-profile/corey-johnson/%3Futm_source%3Dlocal-listing%26utm_medium%3Dorganic%26utm_campaign%3Dwebsite-link", "rating": 4.6, "reviews": 11, "place_id": "ChIJffzafQawb4gRjLrkoJIzdfE", "latitude": 37.7779268, "longitude": -87.0657784, "subtypes": "Urologist"}, {"name": "Daniel Warburton, MD", "address": "1301 Pleasant Valley Rd Suite 302, Owensboro, KY 42303", "city": "Owensboro", "state": "Kentucky", "state_code": "KY", "phone": "+1 270-417-7880", "website": "https://www.owensborohealth.org/find-doctor/basic-profile/daniel-warburton/%3Futm_source%3Dlocal-listing%26utm_medium%3Dorganic%26utm_campaign%3Dwebsite-link", "rating": 3.7, "reviews": 3, "place_id": "ChIJwRPUqDexb4gRpd2gI_T4FpM", "latitude": 37.7781652, "longitude": -87.0640955, "subtypes": "Urologist"}, {"name": "Owensboro Health Urology in Greenville", "address": "420 Hopkinsville St Suite 2E, Greenville, KY 42345", "city": "Greenville", "state": "Kentucky", "state_code": "KY", "phone": "+1 270-377-2440", "website": "https://www.owensborohealth.org/locations/profile/%3Fid%3D276%26%3Futm_source%3Dlocal-listing%26utm_medium%3Dorganic%26utm_campaign%3Dwebsite-link", "rating": 3.4, "reviews": 5, "place_id": "ChIJh-7kGIdhZYgRr0HvgrsCWp0", "latitude": 37.19704189999999, "longitude": -87.18760139999999, "subtypes": "Urology clinic"}, {"name": "Metro Urology", "address": "1100 Walnut St #206, Owensboro, KY 42301", "city": "Owensboro", "state": "Kentucky", "state_code": "KY", "phone": "+1 270-926-9588", "website": "", "rating": "", "reviews": "", "place_id": "ChIJeYCnOHK6b4gRzzjycHO6qj4", "latitude": 37.7649585, "longitude": -87.1176464, "subtypes": "Urologist"}, {"name": "First Urology", "address": "5120 Dixie Hwy, Louisville, KY 40216", "city": "Louisville", "state": "Kentucky", "state_code": "KY", "phone": "+1 812-282-3899", "website": "https://1sturology.com/", "rating": 4, "reviews": 77, "place_id": "ChIJYYWSeecTaYgRz8VXnfo5ZFA", "latitude": 38.1671729, "longitude": -85.83086449999999, "subtypes": "Urology clinic"}, {"name": "Mohammed Said, MD", "address": "401 E Chestnut St Suite 520, Louisville, KY 40202", "city": "Louisville", "state": "Kentucky", "state_code": "KY", "phone": "+1 502-588-4740", "website": "https://uoflhealth.org/provider/mohammed-said/%3Futm_source%3DGMBSocialClimb%26utm_medium%3DMohammedSaid%252CMD", "rating": 5, "reviews": 26, "place_id": "ChIJfbfK_uNzaYgRP8pWTMwCnQk", "latitude": 38.2480521, "longitude": -85.7467891, "subtypes": "Urologist"}, {"name": "Dr. Greg S. Steinbock, MD", "address": "5129 Dixie Hwy # 307, Shively, KY 40216", "city": "Shively", "state": "Kentucky", "state_code": "KY", "phone": "+1 502-447-6565", "website": "", "rating": "", "reviews": "", "place_id": "ChIJYYWSeecTaYgR3kU-oxQ8EL8", "latitude": 38.165707, "longitude": -85.82871569999999, "subtypes": "Urologist"}, {"name": "First Urology Audubon", "address": "3 Audubon Plaza Dr # L10, Louisville, KY 40217", "city": "Louisville", "state": "Kentucky", "state_code": "KY", "phone": "+1 502-375-0009", "website": "https://1sturology.com/about/locations/", "rating": 2.3, "reviews": 32, "place_id": "ChIJtwLMC-EMaYgRh9JcyGyDnTc", "latitude": 38.2150678, "longitude": -85.7214997, "subtypes": "Urology clinic"}, {"name": "Blackford Terrance L MD", "address": "1900 Bluegrass Ave #203, Louisville, KY 40215", "city": "Louisville", "state": "Kentucky", "state_code": "KY", "phone": "+1 502-375-0009", "website": "https://providers.nortonhealthcare.com/provider/terrance-l-blackford/496979", "rating": 2.9, "reviews": 10, "place_id": "ChIJdywHbUcSaYgRtBbC1Vf9GFo", "latitude": 38.1786451, "longitude": -85.7945316, "subtypes": "Urologist"}, {"name": "Ganesh S. Rao, M.D.", "address": "5129 Dixie Hwy, Louisville, KY 40216", "city": "Louisville", "state": "Kentucky", "state_code": "KY", "phone": "+1 812-282-3899", "website": "https://providers.nortonhealthcare.com/provider/Ganesh%2BS%2BRao/492014", "rating": 4.3, "reviews": 11, "place_id": "ChIJYYWSeecTaYgRDqAYuO1YqSo", "latitude": 38.1656607, "longitude": -85.8287746, "subtypes": "Urologist"}, {"name": "Dr. Robert B. Hendren, MD", "address": "1900 Bluegrass Ave #203, Louisville, KY 40215", "city": "Louisville", "state": "Kentucky", "state_code": "KY", "phone": "+1 502-375-0009", "website": "https://providers.nortonhealthcare.com/provider/Robert%2BB%2BHendren/499978", "rating": 3, "reviews": 2, "place_id": "ChIJdywHbUcSaYgRSerm3sYme6I", "latitude": 38.1786309, "longitude": -85.7944521, "subtypes": "Urologist"}, {"name": "Uzoma Anele, M.D.", "address": "401 E Chestnut St Suite 520, Louisville, KY 40202", "city": "Louisville", "state": "Kentucky", "state_code": "KY", "phone": "+1 502-588-4740", "website": "https://uoflhealth.org/provider/uzoma-anele-urology/%3Futm_source%3DGMBSocialClimb%26utm_medium%3DUzomaAnele%252CMD", "rating": 4.9, "reviews": 115, "place_id": "ChIJn20iNABzaYgRbJmlzcVnfrM", "latitude": 38.2480521, "longitude": -85.7467891, "subtypes": "Urologist"}, {"name": "Dr. Ganesh Kartha", "address": "5120 Dixie Hwy, Louisville, KY 40216", "city": "Louisville", "state": "Kentucky", "state_code": "KY", "phone": "+1 812-282-3899", "website": "https://1sturology.com/team/kartha-ganesh/", "rating": 5, "reviews": 4, "place_id": "ChIJxWb_TOYTaYgRlkMHbV68ZrA", "latitude": 38.1671729, "longitude": -85.83086449999999, "subtypes": "Urologist"}, {"name": "Zach Snow, DO", "address": "401 E Chestnut St Suite 520, Louisville, KY 40202", "city": "Louisville", "state": "Kentucky", "state_code": "KY", "phone": "+1 502-588-4740", "website": "https://uoflhealth.org/provider/zach-snow-urology/%3Futm_source%3DGMBSocialClimb%26utm_medium%3DZachSnow%252CDO", "rating": 5, "reviews": 1, "place_id": "ChIJoZzwgmNzaYgRGk5bE-pNl68", "latitude": 38.2480521, "longitude": -85.7467891, "subtypes": "Urologist"}, {"name": "Blackford Terrance L MD", "address": "3 Audubon Plaza Dr #310, Louisville, KY 40217", "city": "Louisville", "state": "Kentucky", "state_code": "KY", "phone": "+1 502-375-0009", "website": "https://providers.nortonhealthcare.com/provider/Terrance%2BL%2BBlackford/496979", "rating": 4, "reviews": 32, "place_id": "ChIJtwLMC-EMaYgRB1lvcX2LeuQ", "latitude": 38.2153686, "longitude": -85.7221076, "subtypes": "Urologist"}, {"name": "Dr. Matthew D. Peterson, MD", "address": "5129 Dixie Hwy, Louisville, KY 40216", "city": "Louisville", "state": "Kentucky", "state_code": "KY", "phone": "+1 812-282-3899", "website": "http://1sturology.com/", "rating": 4, "reviews": 8, "place_id": "ChIJYYWSeecTaYgRagWCGD9JWHI", "latitude": 38.165687, "longitude": -85.8288658, "subtypes": "Urologist"}, {"name": "Dr. Bradley B. Bell, MD", "address": "5129 Dixie Hwy # 307, Shively, KY 40216", "city": "Shively", "state": "Kentucky", "state_code": "KY", "phone": "+1 502-447-6565", "website": "http://1sturology.com/", "rating": "", "reviews": "", "place_id": "ChIJYYWSeecTaYgRdfKbLv0cnrs", "latitude": 38.165707, "longitude": -85.82871569999999, "subtypes": "Urologist"}, {"name": "Dr. Stephan J. Sweitzer, MD", "address": "3 Audubon Plaza Dr # L10, Louisville, KY 40217", "city": "Louisville", "state": "Kentucky", "state_code": "KY", "phone": "+1 502-584-0651", "website": "", "rating": 5, "reviews": 1, "place_id": "ChIJtwLMC-EMaYgR3wwCZynjxZI", "latitude": 38.2152869, "longitude": -85.7226012, "subtypes": "Urologist"}, {"name": "Allied Urology", "address": "3 Audubon Plaza Dr # L10, Louisville, KY 40217", "city": "Louisville", "state": "Kentucky", "state_code": "KY", "phone": "+1 502-584-0651", "website": "https://1sturology.com/", "rating": 1.3, "reviews": 3, "place_id": "ChIJtwLMC-EMaYgRozE69p2k5kU", "latitude": 38.2154134, "longitude": -85.72342019999999, "subtypes": "Urologist"}, {"name": "Dr. Dennis N. Smith, MD", "address": "250 E Liberty St UNIT 602, Louisville, KY 40202", "city": "Louisville", "state": "Kentucky", "state_code": "KY", "phone": "+1 502-584-0651", "website": "http://alliedurology.com/", "rating": 5, "reviews": 1, "place_id": "ChIJL5kQu7lyaYgR7NAbcFUhOGM", "latitude": 38.2515659, "longitude": -85.750191, "subtypes": "Urologist"}, {"name": "Dr. Christopher G. Schrepferman, MD", "address": "3 Audubon Plaza Dr Suite 340, Louisville, KY 40213", "city": "Louisville", "state": "Kentucky", "state_code": "KY", "phone": "+1 502-400-2019", "website": "https://www.drshep.com/dr-shep", "rating": 4.3, "reviews": 10, "place_id": "ChIJLajOC-EMaYgRnkKq2VQlVso", "latitude": 38.2153686, "longitude": -85.72210749999999, "subtypes": "Urologist"}, {"name": "Aaron Becker", "address": "3 Audubon Plaza Dr # L10, Louisville, KY 402171362", "city": "Louisville", "state": "Kentucky", "state_code": "KY", "phone": "+1 502-584-0651", "website": "", "rating": 5, "reviews": 9, "place_id": "ChIJZ-2e_uAMaYgRoTsYa030BRg", "latitude": 38.215391, "longitude": -85.72276389999999, "subtypes": "Urologist"}, {"name": "Dr. Matthew D. Peterson, MD", "address": "3 Audubon Plaza Dr Suite L2, Louisville, KY 40213", "city": "Louisville", "state": "Kentucky", "state_code": "KY", "phone": "+1 812-282-3899", "website": "http://1sturology.com/", "rating": 4.8, "reviews": 4, "place_id": "ChIJtxhRexwMaYgRrrR2-U1fb2A", "latitude": 38.2151903, "longitude": -85.72264559999999, "subtypes": "Urologist"}, {"name": "Stephen J Sweitzer MD", "address": "250 E Liberty St, Louisville, KY 40202", "city": "Louisville", "state": "Kentucky", "state_code": "KY", "phone": "+1 502-584-0651", "website": "http://alliedurology.com/", "rating": 4, "reviews": 4, "place_id": "ChIJL5kQu7lyaYgRH0Po8A2pEqQ", "latitude": 38.251906, "longitude": -85.7489286, "subtypes": "Urologist"}, {"name": "Rosa Park, MD", "address": "401 E Chestnut St Suite 520, Louisville, KY 40202", "city": "Louisville", "state": "Kentucky", "state_code": "KY", "phone": "+1 502-588-4740", "website": "https://uoflhealth.org/provider/rosa-park-urology/%3Futm_source%3DGMBSocialClimb%26utm_medium%3DRosaPark%252CMD", "rating": "", "reviews": "", "place_id": "ChIJnwktQhlzaYgRNilneLUHiig", "latitude": 38.2480521, "longitude": -85.7467891, "subtypes": "Urologist"}, {"name": "Slaughenhoupt Bruce MD", "address": "234 E Gray St, Louisville, KY 40202", "city": "Louisville", "state": "Kentucky", "state_code": "KY", "phone": "+1 502-629-2970", "website": "", "rating": 5, "reviews": 1, "place_id": "ChIJLVv8w7ZyaYgRX54_CVxMbZ8", "latitude": 38.2463777, "longitude": -85.74989769999999, "subtypes": "Pediatric urologist"}, {"name": "Allied Urology", "address": "250 E Liberty St # 500, Louisville, KY 40202", "city": "Louisville", "state": "Kentucky", "state_code": "KY", "phone": "+1 502-584-0651", "website": "https://1sturology.com/", "rating": "", "reviews": "", "place_id": "ChIJL5kQu7lyaYgRqAu5C3E1sgk", "latitude": 38.2518447, "longitude": -85.7495203, "subtypes": "Urologist"}, {"name": "Schrepferman Christopher MD", "address": "250 E Liberty St #500, Louisville, KY 40202", "city": "Louisville", "state": "Kentucky", "state_code": "KY", "phone": "+1 502-584-0651", "website": "http://1sturology.com/", "rating": 4, "reviews": 4, "place_id": "ChIJL5kQu7lyaYgRh8sqm6iS4NU", "latitude": 38.251906, "longitude": -85.7489286, "subtypes": "Urologist"}, {"name": "Allied Urology Psc: Buschemeyer Jr W Cooper MD", "address": "250 E Liberty St # 500, Louisville, KY 40202", "city": "Louisville", "state": "Kentucky", "state_code": "KY", "phone": "+1 502-584-0651", "website": "http://alliedurology.com/", "rating": "", "reviews": "", "place_id": "ChIJL5kQu7lyaYgR6TTNf1x4LEM", "latitude": 38.2521485, "longitude": -85.74957479999999, "subtypes": "Urologist"}, {"name": "Bailen James L MD", "address": "4500 Churchman Ave, Louisville, KY 40215", "city": "Louisville", "state": "Kentucky", "state_code": "KY", "phone": "+1 812-282-3899", "website": "http://1sturology.com/", "rating": "", "reviews": "", "place_id": "ChIJSSx2zzgSaYgRsYj9qTK4Aa4", "latitude": 38.1761613, "longitude": -85.7934635, "subtypes": "Urologist"}, {"name": "Dr. Ryan J. Malone, MD", "address": "100 E Market St, Louisville, KY 40202", "city": "Louisville", "state": "Kentucky", "state_code": "KY", "phone": "+1 502-584-0651", "website": "http://1sturology.com/", "rating": 5, "reviews": 1, "place_id": "ChIJL5kQu7lyaYgRVUZ9YE0r-u8", "latitude": 38.2544362, "longitude": -85.75158189999999, "subtypes": "Urologist"}, {"name": "Pecha Barry R MD", "address": "100 E Market St Suite # 2, Louisville, KY 40202", "city": "Louisville", "state": "Kentucky", "state_code": "KY", "phone": "+1 812-282-3899", "website": "http://kpadocs.com/", "rating": 5, "reviews": 1, "place_id": "ChIJ3Tum57tyaYgRW46SSBaoce0", "latitude": 38.2544255, "longitude": -85.75163069999999, "subtypes": "Urologist"}, {"name": "Dr. Michael T. Macfarlane, MD", "address": "201 Abraham Flexner Way, Louisville, KY 40202", "city": "Louisville", "state": "Kentucky", "state_code": "KY", "phone": "+1 502-585-1690", "website": "", "rating": 5, "reviews": 1, "place_id": "ChIJ2wzuSLdyaYgRmqgTGh1LRTU", "latitude": 38.2497318, "longitude": -85.7513002, "subtypes": "Urologist"}, {"name": "Messer Jamie MD", "address": "401 E Chestnut St, Louisville, KY 40202", "city": "Louisville", "state": "Kentucky", "state_code": "KY", "phone": "+1 502-588-4740", "website": "https://uoflhealth.org/provider/jamie-messer/", "rating": 3.5, "reviews": 13, "place_id": "ChIJSTAC8rZyaYgRP467ho9G6ac", "latitude": 38.2480482, "longitude": -85.7467195, "subtypes": "Urologist"}, {"name": "Dr. Charles J. Goodwin, MD", "address": "100 E Market St, Louisville, KY 40202", "city": "Louisville", "state": "Kentucky", "state_code": "KY", "phone": "+1 502-585-1016", "website": "https://providers.nortonhealthcare.com/provider/Charles%2BJ%2BGoodwin/487284", "rating": 3.7, "reviews": 6, "place_id": "ChIJL7r_-YpyaYgR9rPRTBMkp0I", "latitude": 38.2544362, "longitude": -85.75158189999999, "subtypes": "Urologist"}, {"name": "Uhlenhuth Eric MD", "address": "3 Audubon Plaza Dr # L10, Louisville, KY 40217", "city": "Louisville", "state": "Kentucky", "state_code": "KY", "phone": "+1 502-375-0009", "website": "", "rating": "", "reviews": "", "place_id": "ChIJtwLMC-EMaYgR_y_Pyh87FYE", "latitude": 38.2153686, "longitude": -85.72210749999999, "subtypes": "Urologist"}, {"name": "Azadi Ali MD", "address": "401 E Chestnut St # 270, Louisville, KY 40202", "city": "Louisville", "state": "Kentucky", "state_code": "KY", "phone": "+1 502-813-6000", "website": "http://louisville.edu/", "rating": "", "reviews": "", "place_id": "ChIJ4aR90rdyaYgRLU3mBe6ho_U", "latitude": 38.2480482, "longitude": -85.7467195, "subtypes": "Urologist"}, {"name": "Vasavada Neena MD", "address": "401 E Chestnut St Suite 690, Louisville, KY 40202", "city": "Louisville", "state": "Kentucky", "state_code": "KY", "phone": "+1 502-852-5757", "website": "", "rating": "", "reviews": "", "place_id": "ChIJddD7NrZyaYgRd93MSb1HpjA", "latitude": 38.2480482, "longitude": -85.7467195, "subtypes": "Urologist"}, {"name": "Allied Urology Psc: Jurige Jr John H MD", "address": "250 E Liberty St # 602, Louisville, KY 40202", "city": "Louisville", "state": "Kentucky", "state_code": "KY", "phone": "+1 502-584-0651", "website": "http://alliedurology.com/", "rating": "", "reviews": "", "place_id": "ChIJL5kQu7lyaYgRGgzK5S-VkUE", "latitude": 38.2521485, "longitude": -85.74957479999999, "subtypes": "Urologist"}, {"name": "Bailen James L MD", "address": "100 E Market St, Louisville, KY 40202", "city": "Louisville", "state": "Kentucky", "state_code": "KY", "phone": "+1 502-585-1016", "website": "", "rating": "", "reviews": "", "place_id": "ChIJ3Tum57tyaYgRxjRbzVldAGs", "latitude": 38.25445759999999, "longitude": -85.7516057, "subtypes": "Urologist"}, {"name": "Soergel Trevor L MD", "address": "100 E Market St, Louisville, KY 40202", "city": "Louisville", "state": "Kentucky", "state_code": "KY", "phone": "+1 502-585-1016", "website": "", "rating": 3, "reviews": 6, "place_id": "ChIJ3Tum57tyaYgRBAhM4ixSadA", "latitude": 38.2544255, "longitude": -85.75163069999999, "subtypes": "Urologist"}, {"name": "Bell Bradley B MD", "address": "100 E Market St # 2, Louisville, KY 40202", "city": "Louisville", "state": "Kentucky", "state_code": "KY", "phone": "+1 502-585-1016", "website": "https://nortonhealthcare.com/providers/bradley-b-bell-md", "rating": 1, "reviews": 1, "place_id": "ChIJ3Tum57tyaYgRsE3kFifdbDM", "latitude": 38.2544255, "longitude": -85.75163069999999, "subtypes": "Urologist"}, {"name": "Erin R Sizemore, APRN", "address": "411 E Chestnut St Suite 300E, Louisville, KY 40202", "city": "Louisville", "state": "Kentucky", "state_code": "KY", "phone": "+1 502-559-1670", "website": "https://providers.nortonchildrens.com/provider/Erin%2BR%2BSizemore/505526%3Futm_source%3Dthird-party%26utm_medium%3Dlistings%26utm_campaign%3Dncuro-dtc%26utm_content%3Dprovider-profile", "rating": 5, "reviews": 1, "place_id": "ChIJH7fI2QhzaYgR3knGcDWyfvA", "latitude": 38.2485807, "longitude": -85.7464055, "subtypes": "Pediatric urologist"}, {"name": "Smith Christopher MD", "address": "250 E Liberty St UNIT 602, Louisville, KY 40202", "city": "Louisville", "state": "Kentucky", "state_code": "KY", "phone": "+1 502-584-0651", "website": "http://alliedurology.com/", "rating": "", "reviews": "", "place_id": "ChIJL5kQu7lyaYgRXxrj5ZSmFuo", "latitude": 38.251906, "longitude": -85.7489286, "subtypes": "Urologist"}, {"name": "Urology Care, LLC", "address": "201 Abraham Flexner Way, Louisville, KY 40202", "city": "Louisville", "state": "Kentucky", "state_code": "KY", "phone": "", "website": "", "rating": "", "reviews": "", "place_id": "ChIJ2wzuSLdyaYgRd9gjv6pSjNc", "latitude": 38.2496811, "longitude": -85.7511419, "subtypes": "Urologist"}, {"name": "Jessica Schardein, MD, MS", "address": "401 E Chestnut St Suite 520, Louisville, KY 40202", "city": "Louisville", "state": "Kentucky", "state_code": "KY", "phone": "+1 502-588-4740", "website": "https://uoflhealth.org/provider/jessica-schardein-urology/%3Futm_source%3DGMBSocialClimb%26utm_medium%3DJessicaSchardein%252CMD%252CMS", "rating": "", "reviews": "", "place_id": "ChIJrdmgGs9zaYgR5GwC51GPrTE", "latitude": 38.2480521, "longitude": -85.7467891, "subtypes": "Urologist"}, {"name": "Benson David C MD", "address": "100 W Market St Suite # 2, Louisville, KY 40202", "city": "Louisville", "state": "Kentucky", "state_code": "KY", "phone": "+1 502-587-8000", "website": "http://kpadocs.com/", "rating": "", "reviews": "", "place_id": "ChIJ3Tum57tyaYgR1RHijqs9Vjc", "latitude": 38.2544255, "longitude": -85.75163069999999, "subtypes": "Urologist"}, {"name": "Leanhart Jennifer R", "address": "100 E Market St # 2, Louisville, KY 40202", "city": "Louisville", "state": "Kentucky", "state_code": "KY", "phone": "+1 502-587-9660", "website": "http://www.nephky.com/", "rating": "", "reviews": "", "place_id": "ChIJ3Tum57tyaYgR7F18JDVZ-GQ", "latitude": 38.2544255, "longitude": -85.75163069999999, "subtypes": "Urologist"}, {"name": "Sandhya Rao", "address": "401 E Chestnut St #480, Louisville, KY 40202", "city": "Louisville", "state": "Kentucky", "state_code": "KY", "phone": "+1 502-629-4220", "website": "http://www.uoflphysicians.com/", "rating": "", "reviews": "", "place_id": "ChIJs0dEAbByaYgRl4eSL3Ae1NU", "latitude": 38.2480473, "longitude": -85.7466926, "subtypes": "Urologist"}, {"name": "Murali Ankem, MD", "address": "401 E Chestnut St Suite 520, Louisville, KY 40202", "city": "Louisville", "state": "Kentucky", "state_code": "KY", "phone": "+1 502-588-4740", "website": "https://uoflhealth.org/provider/murali-ankem/%3Futm_source%3DGMBSocialClimb%26utm_medium%3DMuraliAnkem%252CMD", "rating": 2, "reviews": 4, "place_id": "ChIJ4aR90rdyaYgRpg5ymHGgCGA", "latitude": 38.2480521, "longitude": -85.7467891, "subtypes": "Urologist"}, {"name": "Gollar Kelly M", "address": "100 E Market St # 2, Louisville, KY 40202", "city": "Louisville", "state": "Kentucky", "state_code": "KY", "phone": "+1 502-587-8000", "website": "http://kpadocs.com/", "rating": "", "reviews": "", "place_id": "ChIJ3Tum57tyaYgRWoQ2ZP-ldYo", "latitude": 38.2544255, "longitude": -85.75163069999999, "subtypes": "Urologist"}, {"name": "Aronoff David R MD", "address": "250 E Liberty St # 500, Louisville, KY 40202", "city": "Louisville", "state": "Kentucky", "state_code": "KY", "phone": "+1 615-277-2300", "website": "http://www.nashvillepediatricsurgery.com/", "rating": "", "reviews": "", "place_id": "ChIJs5gQu7lyaYgRCuWagUdcrvU", "latitude": 38.2521485, "longitude": -85.74957479999999, "subtypes": "Urologist"}, {"name": "Ahmed Haddad", "address": "401 E Chestnut St Suite 520, Louisville, KY 40202", "city": "Louisville", "state": "Kentucky", "state_code": "KY", "phone": "+1 502-588-4740", "website": "", "rating": "", "reviews": "", "place_id": "ChIJT6Tf0bdyaYgR2GCUnQeM5IY", "latitude": 38.2480521, "longitude": -85.7467891, "subtypes": "Urologist"}, {"name": "Steinbock Greg S MD", "address": "100 E Market St # 2, Louisville, KY 40202", "city": "Louisville", "state": "Kentucky", "state_code": "KY", "phone": "+1 502-585-1016", "website": "https://providers.nortonhealthcare.com/provider/Greg%2BS%2BSteinbock/465558", "rating": "", "reviews": "", "place_id": "ChIJ3Tum57tyaYgRLhNJm_v1oiY", "latitude": 38.2544255, "longitude": -85.75163069999999, "subtypes": "Urologist"}, {"name": "Meiers H Nicholas MD", "address": "250 E Liberty St UNIT 602, Louisville, KY 40202", "city": "Louisville", "state": "Kentucky", "state_code": "KY", "phone": "+1 502-584-0651", "website": "http://alliedurology.com/", "rating": "", "reviews": "", "place_id": "ChIJWypotLlyaYgRGG9fBCXuEI0", "latitude": 38.2519347, "longitude": -85.7488355, "subtypes": "Urologist"}, {"name": "Norton Children's Urology - Novak Center", "address": "411 E Chestnut St Suite 300E, Louisville, KY 40202", "city": "Louisville", "state": "Kentucky", "state_code": "KY", "phone": "+1 502-559-1670", "website": "https://nortonchildrens.com/location/loc0000191942%3Futm_source%3Dthird-party%26utm_medium%3Dlistings%26utm_campaign%3Dncuro-dtc%26utm_content%3Dlocation-page", "rating": "", "reviews": "", "place_id": "ChIJ33dEFFBzaYgR8pAUhIdoyUI", "latitude": 38.2485807, "longitude": -85.7464055, "subtypes": "Pediatric urologist"}, {"name": "Wells Pamela A MD", "address": "231 E Chestnut St # 100, Louisville, KY 40202", "city": "Louisville", "state": "Kentucky", "state_code": "KY", "phone": "+1 502-629-6000", "website": "", "rating": "", "reviews": "", "place_id": "ChIJbfpOAbdyaYgRHfeXYq9O89Q", "latitude": 38.2484474, "longitude": -85.74969689999999, "subtypes": "Urologist"}, {"name": "Witten Frederick R MD", "address": "250 E Liberty St UNIT 602, Louisville, KY 40202", "city": "Louisville", "state": "Kentucky", "state_code": "KY", "phone": "+1 502-584-0651", "website": "http://alliedurology.com/", "rating": "", "reviews": "", "place_id": "ChIJL5kQu7lyaYgRYvGmAxDZjMw", "latitude": 38.2518447, "longitude": -85.7495203, "subtypes": "Urologist"}, {"name": "Zach Snow, DO", "address": "3920 Dutchmans Ln #309, Louisville, KY 40207", "city": "Louisville", "state": "Kentucky", "state_code": "KY", "phone": "+1 502-588-4740", "website": "https://uoflhealth.org/provider/zach-snow-urology/%3Futm_source%3DGMBSocialClimb%26utm_medium%3DZachSnow%252CDO", "rating": "", "reviews": "", "place_id": "ChIJK3Q5rqALaYgRS4PplWXCGdc", "latitude": 38.2318127, "longitude": -85.6366905, "subtypes": "Urologist"}, {"name": "Aaron Becker", "address": "100 E Market St, Louisville, KY 40202", "city": "Louisville", "state": "Kentucky", "state_code": "KY", "phone": "+1 502-584-0651", "website": "", "rating": "", "reviews": "", "place_id": "ChIJGTGw4LtyaYgR-Zto8rWOOb0", "latitude": 38.25444, "longitude": -85.7515902, "subtypes": "Urologist"}, {"name": "John Nesbitt", "address": "210 E Gray St UNIT 803, Louisville, KY 402023904", "city": "Louisville", "state": "Kentucky", "state_code": "KY", "phone": "+1 413-584-2173", "website": "", "rating": "", "reviews": "", "place_id": "ChIJC2bwx7ZyaYgRnjDBh2roNiU", "latitude": 38.2464865, "longitude": -85.7505982, "subtypes": "Urologist"}, {"name": "Jackson II Morris B MD", "address": "515 Hospital Dr # 1, Shelbyville, KY 40065", "city": "Shelbyville", "state": "Kentucky", "state_code": "KY", "phone": "+1 502-633-2661", "website": "", "rating": 5, "reviews": 3, "place_id": "ChIJB3xxdS7AaYgRzJw1DXKCTTU", "latitude": 38.2105971, "longitude": -85.2359031, "subtypes": "Urologist"}, {"name": "Kellen Choi, DO, FACOS", "address": "731 Hospital Dr Suite 2, Shelbyville, KY 40065", "city": "Shelbyville", "state": "Kentucky", "state_code": "KY", "phone": "+1 502-405-9450", "website": "https://uoflhealth.org/provider/kellen-choi/%3Futm_source%3DGMBSocialClimb%26utm_medium%3DKellenChoi%252CDO%252CFACOS", "rating": 4.8, "reviews": 31, "place_id": "ChIJNRhhvqRzaYgRMoT1SY0WobY", "latitude": 38.2086554, "longitude": -85.2349875, "subtypes": "Urologist"}, {"name": "Dr. Christopher G. Schrepferman, MD", "address": "515 Hospital Dr #3, Shelbyville, KY 40065", "city": "Shelbyville", "state": "Kentucky", "state_code": "KY", "phone": "+1 502-633-2661", "website": "", "rating": "", "reviews": "", "place_id": "ChIJ131xdS7AaYgROHtgZZebJEY", "latitude": 38.2104693, "longitude": -85.2357796, "subtypes": "Urologist"}, {"name": "Melissa Wilkerson, APRN", "address": "150 Frankfort Rd, Shelbyville, KY 40065", "city": "Shelbyville", "state": "Kentucky", "state_code": "KY", "phone": "+1 502-559-1670", "website": "", "rating": "", "reviews": "", "place_id": "ChIJ5_fDy1zBaYgRnjptwA_ZnKA", "latitude": 38.2092753, "longitude": -85.2051898, "subtypes": "Urologist"}, {"name": "Dr. Neal J. Prendergast, MD", "address": "515 Hospital Dr #3, Shelbyville, KY 40065", "city": "Shelbyville", "state": "Kentucky", "state_code": "KY", "phone": "+1 502-633-2661", "website": "", "rating": "", "reviews": "", "place_id": "ChIJ131xdS7AaYgRX6zUYWk87mo", "latitude": 38.2110799, "longitude": -85.2359778, "subtypes": "Urologist"}, {"name": "Kenneth Eric Eric Ruby, MD", "address": "30 MedPark Dr #1, Somerset, KY 42503", "city": "Somerset", "state": "Kentucky", "state_code": "KY", "phone": "+1 606-677-8360", "website": "https://www.lakecumberlandhospital.com/provider/1063419133/eric-ruby-md%3Futm_source%3DGMBSocialClimb%26utm_medium%3DKennethEricEricRuby%252CMD", "rating": 4.1, "reviews": 14, "place_id": "ChIJTdQgXSFJXYgRo13dFtb4Zag", "latitude": 37.0844654, "longitude": -84.62640569999999, "subtypes": "Urologist"}, {"name": "Commonwealth Urology", "address": "104 Hardin Ln, Somerset, KY 42503", "city": "Somerset", "state": "Kentucky", "state_code": "KY", "phone": "+1 606-679-5679", "website": "", "rating": "", "reviews": "", "place_id": "ChIJbw41efZJXYgRJsH8mBGOPJk", "latitude": 37.0873353, "longitude": -84.62182659999999, "subtypes": "Urologist"}, {"name": "Dr. Cyril G. Kohrman, MD", "address": "401 Bogle St # 103, Somerset, KY 42503", "city": "Somerset", "state": "Kentucky", "state_code": "KY", "phone": "+1 606-677-2733", "website": "", "rating": "", "reviews": "", "place_id": "ChIJfzS8FPRJXYgRRSMbhyTeOw4", "latitude": 37.0856696, "longitude": -84.6229863, "subtypes": "Urologist"}, {"name": "Brent Terrell, MD", "address": "227 Falcon Dr Suite G03, Mt Sterling, KY 40353", "city": "Mt Sterling", "state": "Kentucky", "state_code": "KY", "phone": "+1 859-497-5580", "website": "https://www.chisaintjosephhealth.org/find-a-provider/1447257415-brent-terrell", "rating": 4.5, "reviews": 10, "place_id": "ChIJCVdaI7G_Q4gRks_uYKPVIWI", "latitude": 38.0769876, "longitude": -83.94515129999999, "subtypes": "Urologist"}, {"name": "Dr. Ray Terrell", "address": "227 Falcon Dr, Mt Sterling, KY 40353", "city": "Mt Sterling", "state": "Kentucky", "state_code": "KY", "phone": "+1 502-570-3757", "website": "", "rating": 5, "reviews": 1, "place_id": "ChIJiX43IYFAQogR3MriM3EBomU", "latitude": 38.0769876, "longitude": -83.94515129999999, "subtypes": "Urologist"}, {"name": "Brent Terrell, MD", "address": "211 Fountain Ct Suite 310, Lexington, KY 40509", "city": "Lexington", "state": "Kentucky", "state_code": "KY", "phone": "+1 859-497-5580", "website": "https://www.chisaintjosephhealth.org/find-a-provider/1447257415-brent-terrell", "rating": 5, "reviews": 3, "place_id": "ChIJuYbT2MK9Q4gR0VArrx0oNSU", "latitude": 38.0037804, "longitude": -84.4386445, "subtypes": "Urologist"}, {"name": "Steidle Christopher MD", "address": "2004 W Cumberland Ave Suite 100, Middlesboro, KY 40965", "city": "Middlesboro", "state": "Kentucky", "state_code": "KY", "phone": "", "website": "", "rating": "", "reviews": "", "place_id": "ChIJCVdJNNeEXIgRJ0JivB5MPuc", "latitude": 36.6073528, "longitude": -83.7147111, "subtypes": "Urologist"}, {"name": "UK Urology", "address": "B200, 740 S. Limestone, Second Floor, Wing C, Lexington, KY 40536", "city": "Lexington", "state": "Kentucky", "state_code": "KY", "phone": "+1 859-257-3533", "website": "https://ukhealthcare.uky.edu/urology%3Futm_source%3Dlocal-listing%26utm_medium%3Dorganic%26utm_campaign%3Dwebsite-link", "rating": 3.1, "reviews": 24, "place_id": "ChIJZzn1gXxFQogRP1Mu_h3rBKw", "latitude": 38.0336375, "longitude": -84.5080859, "subtypes": "Urology clinic"}, {"name": "Dr. Robert Lewe", "address": "1717 High St ste 3, Hopkinsville, KY 42240", "city": "Hopkinsville", "state": "Kentucky", "state_code": "KY", "phone": "+1 270-886-5141", "website": "", "rating": 2.6, "reviews": 5, "place_id": "ChIJq6paO2c0ZYgRwrOyVOIZhBY", "latitude": 36.8610436, "longitude": -87.4954765, "subtypes": "Urologist"}, {"name": "Dr. Hugh K. Dougherty, MD", "address": "8250 Eagle Way, Hopkinsville, KY 42240", "city": "Hopkinsville", "state": "Kentucky", "state_code": "KY", "phone": "+1 270-885-6200", "website": "", "rating": "", "reviews": "", "place_id": "ChIJfYUxO9k0ZYgR8qEAcWfmnf8", "latitude": 36.8283613, "longitude": -87.513308, "subtypes": "Urologist"}, {"name": "HMH Urology Associates", "address": "1230 Woodland Dr # 110, Elizabethtown, KY 42701", "city": "Elizabethtown", "state": "Kentucky", "state_code": "KY", "phone": "+1 270-769-3631", "website": "", "rating": 3.7, "reviews": 3, "place_id": "ChIJU9zrXIzoaIgRWTB_DJx5ark", "latitude": 37.7189533, "longitude": -85.8832755, "subtypes": "Urology clinic"}, {"name": "Allison L. Cardin, M.D.", "address": "200 Cardinal Dr Suite 210, Elizabethtown, KY 42701", "city": "Elizabethtown", "state": "Kentucky", "state_code": "KY", "phone": "+1 270-769-5551", "website": "https://www.baptisthealth.com/providers/allison-cardin-md-urology", "rating": 3.3, "reviews": 15, "place_id": "ChIJS1Q7DZvoaIgRvC2ISRoT5v0", "latitude": 37.7105328, "longitude": -85.8785262, "subtypes": "Urologist"}, {"name": "Mohammed j. Iqbal, M.D.", "address": "1230 Woodland Dr, Elizabethtown, KY 42701", "city": "Elizabethtown", "state": "Kentucky", "state_code": "KY", "phone": "+1 270-769-3631", "website": "https://www.baptisthealth.com/about/news-center/2024/urologist-mohammad-j-iqbal-md-to-retire-after-50-years", "rating": 3.5, "reviews": 8, "place_id": "ChIJU9zrXIzoaIgRs4_LMxnmPfo", "latitude": 37.7189533, "longitude": -85.8832755, "subtypes": "Urologist"}, {"name": "Brittany O'Bryan MD", "address": "200 Cardinal Dr Suite 210, Elizabethtown, KY 42701", "city": "Elizabethtown", "state": "Kentucky", "state_code": "KY", "phone": "+1 270-769-5551", "website": "https://www.baptisthealth.com/providers/brittany-obryan-md-urology%3Futm_source%3Dgoogle%26utm_medium%3Dorganic%26utm_content%3Dgbp-website%26utm_campaign%3D043-pro-gbp-listing", "rating": 5, "reviews": 3, "place_id": "ChIJ4YHpBV_paIgRx5E5LgglphY", "latitude": 37.7105328, "longitude": -85.8785262, "subtypes": "Urologist"}, {"name": "Jason Reynolds MD", "address": "200 Cardinal Dr Suite 210, Elizabethtown, KY 42701", "city": "Elizabethtown", "state": "Kentucky", "state_code": "KY", "phone": "+1 270-769-5551", "website": "https://www.baptisthealth.com/providers/jason-reynolds-md-urology%3Futm_source%3Dgoogle%26utm_medium%3Dorganic%26utm_content%3Dgbp-website%26utm_campaign%3D043-pro-gbp-listing", "rating": 3.8, "reviews": 5, "place_id": "ChIJa2cdITPpaIgRLB9dMVY3wx8", "latitude": 37.7105328, "longitude": -85.8785262, "subtypes": "Urologist"}, {"name": "R. Kent Collard, M.D.", "address": "1700 Ring Rd, Elizabethtown, KY 42701", "city": "Elizabethtown", "state": "Kentucky", "state_code": "KY", "phone": "+1 270-769-5551", "website": "", "rating": 5, "reviews": 3, "place_id": "ChIJS1Q7DZvoaIgRTv63LydcT8U", "latitude": 37.7308958, "longitude": -85.8762043, "subtypes": "Urologist"}, {"name": "Norton Children's Urology - Elizabethtown", "address": "2412 Ring Rd Suite 100, Elizabethtown, KY 42701", "city": "Elizabethtown", "state": "Kentucky", "state_code": "KY", "phone": "+1 502-559-1670", "website": "https://nortonchildrens.com/location/loc0000191941%3Futm_source%3Dthird-party%26utm_medium%3Dlistings%26utm_campaign%3Dncuro-dtc%26utm_content%3Dlocation-page", "rating": "", "reviews": "", "place_id": "ChIJrTT7blLvaIgReGQs8jh5Ujs", "latitude": 37.7330398, "longitude": -85.8454273, "subtypes": "Pediatric urologist"}, {"name": "Stephen K. Vaught, M.D.", "address": "1700 Ring Rd, Elizabethtown, KY 42701", "city": "Elizabethtown", "state": "Kentucky", "state_code": "KY", "phone": "+1 270-769-5551", "website": "", "rating": "", "reviews": "", "place_id": "ChIJS1Q7DZvoaIgR0bRdvAz1g3M", "latitude": 37.7308958, "longitude": -85.8762043, "subtypes": "Urologist"}, {"name": "Commonwealth Urology", "address": "2444 Harrodsburg Rd, Lexington, KY 40503", "city": "Lexington", "state": "Kentucky", "state_code": "KY", "phone": "+1 859-258-6950", "website": "https://lexingtonclinic.com/services/urology", "rating": 3.3, "reviews": 17, "place_id": "ChIJX6m15lJbQogRkux9RdeZqeA", "latitude": 38.0173412, "longitude": -84.54756139999999, "subtypes": "Urology clinic"}, {"name": "Timothy Stark MD", "address": "1760 Nicholasville Rd Suite 502, Lexington, KY 40503", "city": "Lexington", "state": "Kentucky", "state_code": "KY", "phone": "+1 859-639-0920", "website": "https://www.baptisthealth.com/providers/timothy-william-stark-md-urology%3Futm_source%3Dgoogle%26utm_medium%3Dorganic%26utm_content%3Dgbp-website%26utm_campaign%3D043-pro-gbp-listing", "rating": 4.3, "reviews": 12, "place_id": "ChIJz7jVSLBbQogRz5wJtInqm5Y", "latitude": 38.0181562, "longitude": -84.5137644, "subtypes": "Urologist"}, {"name": "Dr. Brett Akers", "address": "315 Whispering Brook Dr, Nicholasville, KY 40356", "city": "Nicholasville", "state": "Kentucky", "state_code": "KY", "phone": "+1 859-881-0742", "website": "", "rating": "", "reviews": "", "place_id": "ChIJFQ-0u8RYQogREctxRBj4tg4", "latitude": 37.8815217, "longitude": -84.5073706, "subtypes": "Urologist"}, {"name": "Dr. Stephen J. Monnig, MD - Lexington Clinic", "address": "2444 Harrodsburg Rd, Lexington, KY 40503", "city": "Lexington", "state": "Kentucky", "state_code": "KY", "phone": "+1 859-258-6950", "website": "https://www.lexingtonclinic.com/services/urology", "rating": 3.8, "reviews": 22, "place_id": "ChIJ1RKoVqdEQogRQnS0vgFAJyY", "latitude": 38.0173412, "longitude": -84.54756139999999, "subtypes": "Urologist"}, {"name": "Justin Penticuff MD", "address": "1760 Nicholasville Rd Suite 502, Lexington, KY 40503", "city": "Lexington", "state": "Kentucky", "state_code": "KY", "phone": "+1 859-639-0920", "website": "https://www.baptisthealth.com/providers/justin-clay-penticuff-md-urology%3Futm_source%3Dgoogle%26utm_medium%3Dorganic%26utm_content%3Dgbp-website%26utm_campaign%3D043-pro-gbp-listing", "rating": 4.2, "reviews": 5, "place_id": "ChIJW0Xv1g5bQogR8E6o--HsG9k", "latitude": 38.0181562, "longitude": -84.5137644, "subtypes": "Urologist"}, {"name": "Pediatric Urology | Cameron S. Schaeffer, MD", "address": "1760 Nicholasville Rd #601, Lexington, KY 40503", "city": "Lexington", "state": "Kentucky", "state_code": "KY", "phone": "+1 859-275-5437", "website": "http://pediatricurology.com/", "rating": 4, "reviews": 29, "place_id": "ChIJX6m15lJbQogRRaIxpWrNhag", "latitude": 38.01823, "longitude": -84.513696, "subtypes": "Pediatric urologist"}, {"name": "Amul Bhalodi MD", "address": "1760 Nicholasville Rd Suite 502, Lexington, KY 40503", "city": "Lexington", "state": "Kentucky", "state_code": "KY", "phone": "+1 859-639-0920", "website": "https://www.baptisthealth.com/providers/amul-ashok-bhalodi-md-urology%3Futm_source%3Dgoogle%26utm_medium%3Dorganic%26utm_content%3Dgbp-website%26utm_campaign%3D043-pro-gbp-listing", "rating": 5, "reviews": 4, "place_id": "ChIJDepHOAPbXIgRAmmCjm6Y_Pk", "latitude": 38.0181562, "longitude": -84.5137644, "subtypes": "Urologist"}, {"name": "Dr. Terrence R. Grimm, MD - Commonwealth Urology", "address": "2444 Harrodsburg Rd, Lexington, KY 40503", "city": "Lexington", "state": "Kentucky", "state_code": "KY", "phone": "+1 859-258-6950", "website": "https://www.lexingtonclinic.com/services/urology", "rating": 4.2, "reviews": 5, "place_id": "ChIJQ6oG7MtcQogRU3vZ_bBc26A", "latitude": 38.0173458, "longitude": -84.547551, "subtypes": "Urologist"}, {"name": "TERRENCE R GRIMM", "address": "1740 Nicholasville Rd, Lexington, KY 40503", "city": "Lexington", "state": "Kentucky", "state_code": "KY", "phone": "+1 859-260-6100", "website": "", "rating": "", "reviews": "", "place_id": "ChIJ____hFJbQogRwrZ1SUjbxvk", "latitude": 38.01779399999999, "longitude": -84.51222369999999, "subtypes": "Urologist"}, {"name": "Ephraim McDowell Urology", "address": "230 W Main St #102, Danville, KY 40422", "city": "Danville", "state": "Kentucky", "state_code": "KY", "phone": "+1 859-239-2700", "website": "https://emhealth.org/service/urology/", "rating": 4.4, "reviews": 53, "place_id": "ChIJ957-hYGQQogRtFY7VPlAt7o", "latitude": 37.64547659999999, "longitude": -84.7719627, "subtypes": "Urology clinic"}, {"name": "Ryan M. Turpen, MD", "address": "230 W Main St #102, Danville, KY 40422", "city": "Danville", "state": "Kentucky", "state_code": "KY", "phone": "+1 859-239-2700", "website": "https://emhealth.org/service/urology/", "rating": 5, "reviews": 7, "place_id": "ChIJrcXJraqRQogRYsXDaWpOzzo", "latitude": 37.64547659999999, "longitude": -84.7719627, "subtypes": "Urologist"}, {"name": "William R. Rankin, MD", "address": "230 W Main St #102, Danville, KY 40422", "city": "Danville", "state": "Kentucky", "state_code": "KY", "phone": "+1 859-239-2700", "website": "https://emhealth.org/service/urology/", "rating": 4.4, "reviews": 8, "place_id": "ChIJ957-hYGQQogRCL6983-q8LE", "latitude": 37.64547659999999, "longitude": -84.7719627, "subtypes": "Urologist"}, {"name": "Mark J Swofford, DO", "address": "911 Bypass Rd 2nd Floor, Pikeville, KY 41501", "city": "Pikeville", "state": "Kentucky", "state_code": "KY", "phone": "+1 606-430-2202", "website": "https://www.pikevillehospital.org/doctors/mark-j-swofford-d-o/", "rating": 3.2, "reviews": 10, "place_id": "ChIJDaTYvXZrRYgR88_TJvTuxl0", "latitude": 37.4720411, "longitude": -82.5229007, "subtypes": "Urologist"}, {"name": "Urology Partners of Western Ky", "address": "245 Main St, Cadiz, KY 42211", "city": "Cadiz", "state": "Kentucky", "state_code": "KY", "phone": "+1 270-594-8010", "website": "https://fellowsurology.com/", "rating": 4.7, "reviews": 3, "place_id": "ChIJq6r6F5nBeogRYPh6YNQBOPU", "latitude": 36.8676348, "longitude": -87.82234299999999, "subtypes": "Urologist"}, {"name": "Niall Harty", "address": "1700 Ring Rd, Elizabethtown, KY 42701", "city": "Elizabethtown", "state": "Kentucky", "state_code": "KY", "phone": "+1 270-769-5551", "website": "", "rating": "", "reviews": "", "place_id": "ChIJ__8_j5voaIgRrySDIAqcVxE", "latitude": 37.7311256, "longitude": -85.8760296, "subtypes": "Urologist"}, {"name": "Melissa Wilkerson, APRN", "address": "1301 Ring Rd, Elizabethtown, KY 42701", "city": "Elizabethtown", "state": "Kentucky", "state_code": "KY", "phone": "+1 502-559-1670", "website": "", "rating": "", "reviews": "", "place_id": "ChIJJepbROPpaIgRU3IAo7zpZaY", "latitude": 37.7240958, "longitude": -85.8931511, "subtypes": "Urologist"}, {"name": "Rain J Wells, RN,APRN", "address": "2412 Ring Rd Suite 100, Elizabethtown, KY 42701", "city": "Elizabethtown", "state": "Kentucky", "state_code": "KY", "phone": "+1 502-559-1670", "website": "https://providers.nortonchildrens.com/provider/Rain%2BJ%2BWells/472312%3Futm_source%3Dthird-party%26utm_medium%3Dlistings%26utm_campaign%3Dncuro-dtc%26utm_content%3Dprovider-profile", "rating": 2, "reviews": 1, "place_id": "ChIJTyOXsPTvaIgRj8r3HoGkB6k", "latitude": 37.7329997, "longitude": -85.8454096, "subtypes": "Pediatric urologist"}, {"name": "Rachael C Koebel, APRN", "address": "2412 Ring Rd, Elizabethtown, KY 42701", "city": "Elizabethtown", "state": "Kentucky", "state_code": "KY", "phone": "+1 502-559-1670", "website": "https://providers.nortonchildrens.com/provider/Rachael%2BC%2BKoebel/1486329%3Futm_source%3Dthird-party%26utm_medium%3Dlistings%26utm_campaign%3Dncuro-dtc%26utm_content%3Dprovider-profile", "rating": "", "reviews": "", "place_id": "ChIJ0XjJcCTvaIgR42Fwzck9dA4", "latitude": 37.7330378, "longitude": -85.8453445, "subtypes": "Pediatric urologist"}, {"name": "Erin Sizemore, APRN", "address": "1301 Ring Rd, Elizabethtown, KY 42701", "city": "Elizabethtown", "state": "Kentucky", "state_code": "KY", "phone": "+1 502-559-1670", "website": "https://nortonhealthcare.com/providers/erin-sizemore-aprn", "rating": "", "reviews": "", "place_id": "ChIJ5c5DvBrpaIgR1maaW6hsXVk", "latitude": 37.7240958, "longitude": -85.8931511, "subtypes": "Pediatric urologist"}, {"name": "Rain Wells, RN, APRN", "address": "1301 Ring Rd, Elizabethtown, KY 42701", "city": "Elizabethtown", "state": "Kentucky", "state_code": "KY", "phone": "+1 502-559-1670", "website": "", "rating": "", "reviews": "", "place_id": "ChIJs8wjt2PpaIgR6SojnnOb6JA", "latitude": 37.7240958, "longitude": -85.8931511, "subtypes": "Pediatric urologist"}, {"name": "King's Daughters Bluegrass Urology", "address": "336 29th St Suite 101, Ashland, KY 41101", "city": "Ashland", "state": "Kentucky", "state_code": "KY", "phone": "+1 606-324-4404", "website": "http://kingsdaughtershealth.com/", "rating": "", "reviews": "", "place_id": "ChIJOYcZu5x1RogR3KBBipb4XVo", "latitude": 38.4690049, "longitude": -82.6235196, "subtypes": "Urologist"}, {"name": "Bluegrass Comprehensive Urology Affiliates", "address": "336 29th St Suite 101, Ashland, KY 41101", "city": "Ashland", "state": "Kentucky", "state_code": "KY", "phone": "+1 606-324-4404", "website": "", "rating": 3.8, "reviews": 16, "place_id": "ChIJg22AcUl0RogRCzyxdh6iceY", "latitude": 38.4689992, "longitude": -82.62351369999999, "subtypes": "Urology clinic"}, {"name": "Urology Center North Eastern", "address": "336 29th St Suite 101, Ashland, KY 41101", "city": "Ashland", "state": "Kentucky", "state_code": "KY", "phone": "+1 606-324-4404", "website": "", "rating": 5, "reviews": 1, "place_id": "ChIJh0eNz0h0RogRTwZ3KYMlfvU", "latitude": 38.4690049, "longitude": -82.6235196, "subtypes": "Urologist"}, {"name": "Dr. William H. Boykin Jr, MD", "address": "336 29th St, Ashland, KY 41101", "city": "Ashland", "state": "Kentucky", "state_code": "KY", "phone": "+1 606-324-4404", "website": "https://www.kingsdaughtershealth.com/providers/william-boykin-m-d-/", "rating": 3.4, "reviews": 5, "place_id": "ChIJNe1CBUl0RogRpvpRX7GdJmk", "latitude": 38.4689992, "longitude": -82.62351369999999, "subtypes": "Urologist"}, {"name": "Thorndyke William C MD", "address": "336 29th St, Ashland, KY 41101", "city": "Ashland", "state": "Kentucky", "state_code": "KY", "phone": "+1 606-324-4404", "website": "", "rating": 4.7, "reviews": 13, "place_id": "ChIJ-z2030h0RogR0-pxXHXIZ0U", "latitude": 38.4690405, "longitude": -82.62347749999999, "subtypes": "Urologist"}, {"name": "Dr. Justin Dixon", "address": "2201 Lexington Ave, Ashland, KY 41101", "city": "Ashland", "state": "Kentucky", "state_code": "KY", "phone": "+1 606-408-4000", "website": "https://www.kingsdaughtershealth.com/providers/justin-dixon-m-d-/", "rating": 3.7, "reviews": 3, "place_id": "ChIJWTqzoDF0RogRUgiRwuSBcfA", "latitude": 38.4703708, "longitude": -82.6348951, "subtypes": "Urologist"}, {"name": "Justin Dixon, M.D.", "address": "336 29th St Suite 101, Ashland, KY 41101", "city": "Ashland", "state": "Kentucky", "state_code": "KY", "phone": "+1 606-324-4404", "website": "https://www.kingsdaughtershealth.com/providers/justin-dixon-m-d-/", "rating": 5, "reviews": 3, "place_id": "ChIJt75fBUl0RogRpMkJagtYS4g", "latitude": 38.4690106, "longitude": -82.6235256, "subtypes": "Urologist"}, {"name": "James Krick", "address": "336 29th St, Ashland, KY 41101", "city": "Ashland", "state": "Kentucky", "state_code": "KY", "phone": "+1 606-324-4404", "website": "", "rating": "", "reviews": "", "place_id": "ChIJAQAwckl0RogRAr5hpPzfIzo", "latitude": 38.4690405, "longitude": -82.62347749999999, "subtypes": "Urologist"}, {"name": "Ashland Urology", "address": "2301 Lexington Ave # 130, Ashland, KY 41101", "city": "Ashland", "state": "Kentucky", "state_code": "KY", "phone": "+1 606-329-1312", "website": "", "rating": "", "reviews": "", "place_id": "ChIJn7_acTF0RogROWX8bAXWYxU", "latitude": 38.4696424, "longitude": -82.6337128, "subtypes": "Urologist"}, {"name": "Brian DeFade, DO", "address": "1000 Ashland Dr #302, Ashland, KY 41101", "city": "Ashland", "state": "Kentucky", "state_code": "KY", "phone": "", "website": "", "rating": "", "reviews": "", "place_id": "ChIJI3-GICtxRogRRWShq6nSXws", "latitude": 38.508377, "longitude": -82.6891098, "subtypes": "Urologist"}, {"name": "Mulligan Daniel D MD", "address": "336 29th St Suite 101, Ashland, KY 41101", "city": "Ashland", "state": "Kentucky", "state_code": "KY", "phone": "+1 606-324-4404", "website": "", "rating": "", "reviews": "", "place_id": "ChIJhziNz0h0RogR-tXPzy_oWDs", "latitude": 38.4690049, "longitude": -82.6235196, "subtypes": "Urologist"}, {"name": "Allied Urology", "address": "3900 Kresge Way, Louisville, KY 40207", "city": "Louisville", "state": "Kentucky", "state_code": "KY", "phone": "+1 502-897-7172", "website": "http://alliedurology.com/", "rating": "", "reviews": "", "place_id": "ChIJ45iRbCt1aYgRng9qfsKbuyg", "latitude": 38.2375087, "longitude": -85.639521, "subtypes": "Urologist"}, {"name": "Allied Urology Psc: Lindner Robert M MD", "address": "250 E Liberty St # 602, Louisville, KY 40202", "city": "Louisville", "state": "Kentucky", "state_code": "KY", "phone": "+1 502-584-0651", "website": "http://alliedurology.com/", "rating": 1, "reviews": 1, "place_id": "ChIJL5kQu7lyaYgRW3FVSvo9VBs", "latitude": 38.2521485, "longitude": -85.74957479999999, "subtypes": "Urologist"}, {"name": "Mohammed Said, MD", "address": "3920 Dutchmans Ln #309, Louisville, KY 40207", "city": "Louisville", "state": "Kentucky", "state_code": "KY", "phone": "+1 502-588-4740", "website": "https://uoflhealth.org/provider/mohammed-said/%3Futm_source%3DGMBSocialClimb%26utm_medium%3DMohammedSaid%252CMD", "rating": 5, "reviews": 3, "place_id": "ChIJsbTqWOILaYgRyd_de0SXDzQ", "latitude": 38.2318127, "longitude": -85.6366905, "subtypes": "Urologist"}, {"name": "Trevor M Soergel", "address": "3920 S Dupont Sq, Louisville, KY 40207", "city": "Louisville", "state": "Kentucky", "state_code": "KY", "phone": "+1 502-897-7172", "website": "https://providers.nortonhealthcare.com/provider/trevor-m-soergel/490518", "rating": 4.4, "reviews": 13, "place_id": "ChIJdxUsddIKaYgRNzvX3eSIofs", "latitude": 38.2310173, "longitude": -85.63306999999999, "subtypes": "Urologist"}, {"name": "Cameron Sherwood Schaeffer", "address": "Medical Arts Building, 1169 Eastern Pkwy, Louisville, KY 40217", "city": "Louisville", "state": "Kentucky", "state_code": "KY", "phone": "+1 855-591-0092", "website": "", "rating": 5, "reviews": 1, "place_id": "ChIJP4LIf9gMaYgRqsSVczy9pjk", "latitude": 38.2258653, "longitude": -85.72551659999999, "subtypes": "Pediatric urologist"}, {"name": "Uzoma Anele, M.D.", "address": "529 S Jackson St, Louisville, KY 40202", "city": "Louisville", "state": "Kentucky", "state_code": "KY", "phone": "+1 502-562-4673", "website": "https://uoflhealth.org/provider/uzoma-anele-urology/%3Futm_source%3DGMBSocialClimb%26utm_medium%3DUzomaAnele%252CMD", "rating": 3, "reviews": 2, "place_id": "ChIJk-u2bIRzaYgRaDoaCr6Vsks", "latitude": 38.2489491, "longitude": -85.7441595, "subtypes": "Urologist"}, {"name": "Jamie Messer, MD", "address": "529 S Jackson St, Louisville, KY 40202", "city": "Louisville", "state": "Kentucky", "state_code": "KY", "phone": "+1 502-562-4673", "website": "https://uoflhealth.org/provider/jamie-messer/%3Futm_source%3DGMBSocialClimb%26utm_medium%3DJamieMesser%252CMD", "rating": 3, "reviews": 4, "place_id": "ChIJ64c1_D5zaYgR-PLYFNMMXns", "latitude": 38.2489491, "longitude": -85.7441595, "subtypes": "Urologist"}, {"name": "Mohammed Said, MD", "address": "529 S Jackson St, Louisville, KY 40202", "city": "Louisville", "state": "Kentucky", "state_code": "KY", "phone": "+1 502-562-4673", "website": "https://uoflhealth.org/provider/mohammed-said/%3Futm_source%3DGMBSocialClimb%26utm_medium%3DMohammedSaid%252CMD", "rating": "", "reviews": "", "place_id": "ChIJ0xk5X1BzaYgRW7E1O51Ej9U", "latitude": 38.2489491, "longitude": -85.7441595, "subtypes": "Urologist"}, {"name": "Dr. Lisal Folsom", "address": "530 S Jackson St, Louisville, KY 40202", "city": "Louisville", "state": "Kentucky", "state_code": "KY", "phone": "+1 502-588-3400", "website": "https://providers.nortonhealthcare.com/provider/lisal-j-folsom/477127", "rating": "", "reviews": "", "place_id": "ChIJAQBAUshyaYgRvCTjTA_sg1E", "latitude": 38.2477836, "longitude": -85.7441515, "subtypes": "Urologist"}, {"name": "Metropolitan Urology", "address": "4130 Dutchmans Ln, Louisville, KY 40207", "city": "Louisville", "state": "Kentucky", "state_code": "KY", "phone": "+1 812-282-3899", "website": "", "rating": "", "reviews": "", "place_id": "ChIJZc681MwKaYgRNYtqTd4hjsM", "latitude": 38.2353186, "longitude": -85.6297161, "subtypes": "Urologist"}, {"name": "Mrs. Heather Lange", "address": "401 E Chestnut St UNIT 410, Louisville, KY 40202", "city": "Louisville", "state": "Kentucky", "state_code": "KY", "phone": "+1 502-271-5999", "website": "", "rating": "", "reviews": "", "place_id": "ChIJw9HC0bdyaYgReSOcSLAr73k", "latitude": 38.2480502, "longitude": -85.7467542, "subtypes": "Urologist"}, {"name": "Catherine A Muth, APRN", "address": "411 E Chestnut St Suite 300E, Louisville, KY 40202", "city": "Louisville", "state": "Kentucky", "state_code": "KY", "phone": "+1 502-559-1670", "website": "https://providers.nortonchildrens.com/provider/Catherine%2BA%2BMuth/463820%3Futm_source%3DYext", "rating": "", "reviews": "", "place_id": "ChIJp9RL6ipzaYgR_R5aeuyqWag", "latitude": 38.2485807, "longitude": -85.7464055, "subtypes": "Pediatric urologist"}, {"name": "Elisha McAlmont, APRN", "address": "411 E Chestnut St Suite 300E, Louisville, KY 40202", "city": "Louisville", "state": "Kentucky", "state_code": "KY", "phone": "+1 502-559-1670", "website": "", "rating": "", "reviews": "", "place_id": "ChIJ2ZpkR-NzaYgRIna943WVVnM", "latitude": 38.2485807, "longitude": -85.7464055, "subtypes": "Pediatric urologist"}, {"name": "Mary J Foster, APRN", "address": "411 E Chestnut St Suite 300E, Louisville, KY 40202", "city": "Louisville", "state": "Kentucky", "state_code": "KY", "phone": "+1 502-559-1670", "website": "https://providers.nortonchildrens.com/provider/Mary%2BJ%2BFoster/483235%3Futm_source%3DYext", "rating": "", "reviews": "", "place_id": "ChIJg0sl_ZZzaYgRM1eGaKzSAUA", "latitude": 38.2485807, "longitude": -85.7464055, "subtypes": "Pediatric urologist"}, {"name": "Mary J Foster, APRN", "address": "411 E Chestnut St Suite 300E, Louisville, KY 40202", "city": "Louisville", "state": "Kentucky", "state_code": "KY", "phone": "+1 502-559-1670", "website": "https://providers.nortonchildrens.com/provider/Mary%2BJ%2BFoster/483235%3Futm_source%3DYext", "rating": "", "reviews": "", "place_id": "ChIJaczJVDxzaYgRczeR48fAMTA", "latitude": 38.2485807, "longitude": -85.7464055, "subtypes": "Pediatric urologist"}, {"name": "Rachael C Koebel, APRN", "address": "411 E Chestnut St, Louisville, KY 40202", "city": "Louisville", "state": "Kentucky", "state_code": "KY", "phone": "+1 502-559-1670", "website": "https://providers.nortonchildrens.com/provider/Rachael%2BC%2BKoebel/1486329%3Futm_source%3Dthird-party%26utm_medium%3Dlistings%26utm_campaign%3Dncuro-dtc%26utm_content%3Dprovider-profile", "rating": "", "reviews": "", "place_id": "ChIJhbAToWVzaYgRO6CUIjg9P94", "latitude": 38.2479825, "longitude": -85.74584349999999, "subtypes": "Pediatric urologist"}, {"name": "Dr. Daniel G. Dajusta, MD", "address": "234 E Gray St, Louisville, KY 40202", "city": "Louisville", "state": "Kentucky", "state_code": "KY", "phone": "+1 502-629-4220", "website": "", "rating": "", "reviews": "", "place_id": "ChIJifuryLZyaYgR_jhoy9cKVfY", "latitude": 38.2463466, "longitude": -85.74992089999999, "subtypes": "Pediatric urologist"}, {"name": "Casale Anthony MD", "address": "234 E Gray St # 662, Louisville, KY 40202", "city": "Louisville", "state": "Kentucky", "state_code": "KY", "phone": "+1 502-540-2683", "website": "", "rating": "", "reviews": "", "place_id": "ChIJLVv8w7ZyaYgRXO8HXcGjhEM", "latitude": 38.2463466, "longitude": -85.74992089999999, "subtypes": "Pediatric urologist"}, {"name": "Patricia Walsh, PA-C", "address": "411 E Chestnut St Suite 300E, Louisville, KY 40202", "city": "Louisville", "state": "Kentucky", "state_code": "KY", "phone": "+1 502-559-1670", "website": "", "rating": "", "reviews": "", "place_id": "ChIJJzKJuXdzaYgRomaSmmbWwOA", "latitude": 38.2485807, "longitude": -85.7464055, "subtypes": "Pediatric urologist"}, {"name": "Allison B Reynolds, APRN", "address": "411 E Chestnut St Suite 300E, Louisville, KY 40202", "city": "Louisville", "state": "Kentucky", "state_code": "KY", "phone": "+1 502-559-1670", "website": "https://providers.nortonchildrens.com/provider/Allison%2BB%2BReynolds/727761%3Futm_source%3Dthird-party%26utm_medium%3Dlistings%26utm_campaign%3Dncuro-dtc%26utm_content%3Dprovider-profile", "rating": "", "reviews": "", "place_id": "ChIJJzVC0dRzaYgR_fKhtQfittY", "latitude": 38.2485807, "longitude": -85.7464055, "subtypes": "Pediatric urologist"}, {"name": "Kendra N Evans, APRN", "address": "411 E Chestnut St Suite 300E, Louisville, KY 40202", "city": "Louisville", "state": "Kentucky", "state_code": "KY", "phone": "+1 502-559-1670", "website": "https://providers.nortonchildrens.com/provider/Kendra%2BN%2BEvans/486538%3Futm_source%3Dthird-party%26utm_medium%3Dlistings%26utm_campaign%3Dncuro-dtc%26utm_content%3Dprovider-profile", "rating": "", "reviews": "", "place_id": "ChIJBZj_3YNzaYgRFzTpS9I9BV0", "latitude": 38.2485807, "longitude": -85.7464055, "subtypes": "Pediatric urologist"}, {"name": "Kayla N Brenzel, APRN", "address": "411 E Chestnut St, Louisville, KY 40202", "city": "Louisville", "state": "Kentucky", "state_code": "KY", "phone": "+1 502-559-1670", "website": "https://providers.nortonchildrens.com/provider/Kayla%2BN%2BBrenzel/475815%3Futm_source%3Dthird-party%26utm_medium%3Dlistings%26utm_campaign%3Dncuro-dtc%26utm_content%3Dprovider-profile", "rating": "", "reviews": "", "place_id": "ChIJqfFo0OxzaYgRc9p4UpT4N1w", "latitude": 38.2485807, "longitude": -85.7464055, "subtypes": "Pediatric urologist"}, {"name": "Dr. Fred P. Hadley, MD - Commonwealth Urology - Urologic Associates (A Part of Lexington Clinic)", "address": "1401 Harrodsburg Rd # C215, Lexington, KY 40504", "city": "Lexington", "state": "Kentucky", "state_code": "KY", "phone": "+1 859-258-6450", "website": "https://www.lexingtonclinic.com/services/urology", "rating": 3.7, "reviews": 18, "place_id": "ChIJxdZ-u1lDQogRwEvuOmGEoBA", "latitude": 38.0331927, "longitude": -84.52554719999999, "subtypes": "Urologist"}, {"name": "Dr. Thomas K. Slabaugh Jr, MD", "address": "C, 1401 Harrodsburg Rd UNIT 215, Lexington, KY 40504", "city": "Lexington", "state": "Kentucky", "state_code": "KY", "phone": "+1 859-258-6450", "website": "https://www.lexingtonclinic.com/services/urology", "rating": 3.7, "reviews": 22, "place_id": "ChIJxdZ-u1lDQogRkKekjAuk27U", "latitude": 38.0332091, "longitude": -84.5255121, "subtypes": "Urologist"}, {"name": "Dr. Charles G. Ray, MD - Commonwealth Urology (A Part of Lexington Clinic)", "address": "2444 Harrodsburg Rd, Lexington, KY 40503", "city": "Lexington", "state": "Kentucky", "state_code": "KY", "phone": "+1 859-258-6950", "website": "https://www.lexingtonclinic.com/services/urology", "rating": 3.2, "reviews": 6, "place_id": "ChIJoYtx9pdDQogRQPK5xH0yKE0", "latitude": 38.0173412, "longitude": -84.54756139999999, "subtypes": "Urologist"}, {"name": "John R. Bell, MD", "address": "B200, 740 S. Limestone, Second Floor, Wing C Room, Lexington, KY 40536", "city": "Lexington", "state": "Kentucky", "state_code": "KY", "phone": "+1 859-257-3533", "website": "https://ukhealthcare.uky.edu/doctors/john-bell%3Futm_source%3Dlocal-listing%26utm_medium%3Dorganic%26utm_campaign%3Dwebsite-link", "rating": 5, "reviews": 4, "place_id": "ChIJL3HzpPtFQogR3zQXQutQc50", "latitude": 38.0336375, "longitude": -84.5080859, "subtypes": "Urologist"}, {"name": "Dr. Timothy D. Adkins, MD - Commonwealth Urology Urologic Associates (A Part of Lexington Clinic)", "address": "1401 Harrodsburg Rd # C215, Lexington, KY 40504", "city": "Lexington", "state": "Kentucky", "state_code": "KY", "phone": "+1 859-258-6450", "website": "https://www.lexingtonclinic.com/services/urology", "rating": 3.4, "reviews": 10, "place_id": "ChIJxdZ-u1lDQogR5Qz-LEsEaPU", "latitude": 38.0332109, "longitude": -84.5255169, "subtypes": "Urologist"}, {"name": "Jason R. Bylund, MD", "address": "740 S. Limestone, Second Floor, Wing C, Room B200, Lexington, KY 40536", "city": "Lexington", "state": "Kentucky", "state_code": "KY", "phone": "+1 859-257-3533", "website": "https://ukhealthcare.uky.edu/doctors/jason-bylund%3Futm_source%3Dlocal-listing%26utm_medium%3Dorganic%26utm_campaign%3Dwebsite-link", "rating": 4.8, "reviews": 5, "place_id": "ChIJ_dKPyPpFQogRJowaP-j8ySA", "latitude": 38.0327923, "longitude": -84.50657149999999, "subtypes": "Urologist"}, {"name": "Dr. Justin D. Johnson, MD - Commonwealth Urology - Urologic Associates (A Part of Lexington Clinic)", "address": "1401 Harrodsburg Rd, Lexington, KY 40504", "city": "Lexington", "state": "Kentucky", "state_code": "KY", "phone": "+1 859-258-6450", "website": "https://www.lexingtonclinic.com/services/urology", "rating": 2.5, "reviews": 13, "place_id": "ChIJOS2VS25DQogRi3-0ysJo9eQ", "latitude": 38.0331745, "longitude": -84.5255775, "subtypes": "Urologist"}, {"name": "Dr. Carolyn Smith, MD", "address": "2285 Executive Dr, Lexington, KY 40505", "city": "Lexington", "state": "Kentucky", "state_code": "KY", "phone": "+1 859-294-0130", "website": "", "rating": 5, "reviews": 1, "place_id": "ChIJSQacD45PQogRe3M3oNBf_mk", "latitude": 38.0430317, "longitude": -84.42898319999999, "subtypes": "Urologist"}, {"name": "Dr. Mark H. Beard, MD", "address": "2444 Harrodsburg Rd, Lexington, KY 40503", "city": "Lexington", "state": "Kentucky", "state_code": "KY", "phone": "+1 859-258-6950", "website": "", "rating": 3, "reviews": 2, "place_id": "ChIJX6m15lJbQogRsLFOG2ugG9w", "latitude": 38.0173412, "longitude": -84.54756139999999, "subtypes": "Urologist"}, {"name": "Dr. Andrew Todd, MD", "address": "1401 Harrodsburg Rd # C215, Lexington, KY 40504", "city": "Lexington", "state": "Kentucky", "state_code": "KY", "phone": "+1 859-258-6450", "website": "https://lexingtonclinic.com/doctors/andrew-m-todd-md", "rating": 5, "reviews": 2, "place_id": "ChIJH8qwLdpDQogRv34yDwUvpH0", "latitude": 38.0332109, "longitude": -84.5255169, "subtypes": "Urologist"}, {"name": "Stephen E. Strup, MD, FACS", "address": "740 S Limestone 2nd floor suite b200, Lexington, KY 40536", "city": "Lexington", "state": "Kentucky", "state_code": "KY", "phone": "+1 859-257-3533", "website": "https://ukhealthcare.uky.edu/researchers-doctors/stephen-strup", "rating": 3, "reviews": 2, "place_id": "ChIJVeaao7tEQogRHumVgb3-ojM", "latitude": 38.0336375, "longitude": -84.5080859, "subtypes": "Urologist"}, {"name": "Timothy Stark, MD", "address": "3000 Baptist Health Blvd #340, Lexington, KY 40509", "city": "Lexington", "state": "Kentucky", "state_code": "KY", "phone": "+1 859-639-0920", "website": "https://www.baptisthealth.com/providers/timothy-william-stark-md-urology", "rating": 5, "reviews": 1, "place_id": "ChIJ_UobFlpPQogR23wdoDxk028", "latitude": 38.0312739, "longitude": -84.4176272, "subtypes": "Urologist"}, {"name": "Urologic Associates", "address": "1401 Harrodsburg Rd # C215, Lexington, KY 40504", "city": "Lexington", "state": "Kentucky", "state_code": "KY", "phone": "+1 859-277-2280", "website": "", "rating": 1.3, "reviews": 3, "place_id": "ChIJxdZ-u1lDQogRDtwawKC-R0I", "latitude": 38.0332109, "longitude": -84.5255169, "subtypes": "Urologist"}, {"name": "Kevin S. Art, MD - Lexington Clinic", "address": "1401 Harrodsburg Rd # C215, Lexington, KY 40504", "city": "Lexington", "state": "Kentucky", "state_code": "KY", "phone": "+1 859-258-6450", "website": "https://lexingtonclinic.com/doctors/kevin-s-art-md", "rating": "", "reviews": "", "place_id": "ChIJF3cZGi1DQogRnzsndne00vs", "latitude": 38.0332109, "longitude": -84.5255169, "subtypes": "Urologist"}, {"name": "Dr. Andrew James", "address": "830 S Limestone, Lexington, KY 40536", "city": "Lexington", "state": "Kentucky", "state_code": "KY", "phone": "+1 859-323-0303", "website": "", "rating": 5, "reviews": 2, "place_id": "ChIJD31DV7pEQogR4J-GN8bKGC0", "latitude": 38.0323621, "longitude": -84.50884429999999, "subtypes": "Urologist"}, {"name": "Alison M. Rasper, MD", "address": "740 S. Limestone, Second Floor, Wing C, Room B200, Lexington, KY 40536", "city": "Lexington", "state": "Kentucky", "state_code": "KY", "phone": "+1 859-257-3533", "website": "https://ukhealthcare.uky.edu/doctors/alison-rasper%3Futm_source%3Dlocal-listing%26utm_medium%3Dorganic%26utm_campaign%3Dwebsite-link", "rating": "", "reviews": "", "place_id": "ChIJLTYuu1RFQogRcy4ySgQsDvA", "latitude": 38.0328261, "longitude": -84.5067002, "subtypes": "Urologist"},