[{"name": "Bitterroot Health - Urology", "address": "1200 Westwood Dr Suite B, Hamilton, MT 59840", "city": "Hamilton", "state": "Montana", "state_code": "MT", "phone": "+1 406-375-2930", "website": "https://www.bitterroothealth.org/services/Urology/", "rating": 4.7, "reviews": 14, "place_id": "ChIJ_7Toryy3XlMRW-ki6e8UIvQ", "latitude": 46.2481069, "longitude": -114.1697946, "subtypes": "Urology clinic"}, {"name": "Kellan F Clark, DO", "address": "1200 Westwood Dr Suite F, Hamilton, MT 59840", "city": "Hamilton", "state": "Montana", "state_code": "MT", "phone": "+1 406-375-2930", "website": "https://www.bitterroothealth.org/services/Urology/", "rating": 4.9, "reviews": 150, "place_id": "ChIJRQJnLQa3XlMRIbPEdGNW8YE", "latitude": 46.2483162, "longitude": -114.1717015, "subtypes": "Urologist"}, {"name": "Morris Jessop, MD", "address": "1200 Westwood Dr Suite B, Hamilton, MT 59840", "city": "Hamilton", "state": "Montana", "state_code": "MT", "phone": "+1 406-375-2930", "website": "https://www.bitterroothealth.org/services/Urology/", "rating": 4.9, "reviews": 129, "place_id": "ChIJGYjeHaq3XlMRan8zJb2KNKU", "latitude": 46.2480621, "longitude": -114.1720215, "subtypes": "Urologist"}, {"name": "Ravalli Urology", "address": "1224 W Main St, Hamilton, MT 59840", "city": "Hamilton", "state": "Montana", "state_code": "MT", "phone": "+1 406-375-4888", "website": "", "rating": "", "reviews": "", "place_id": "ChIJ4boQ4Wu3XlMROpoiFjLfnFU", "latitude": 46.24657999999999, "longitude": -114.1739519, "subtypes": "Urologist"}, {"name": "Rick Slater, DO", "address": "1401 25th St S 2nd Floor, Great Falls, MT 59405", "city": "Great Falls", "state": "Montana", "state_code": "MT", "phone": "+1 406-731-8051", "website": "https://www.benefis.org/services-specialties/urology/urology", "rating": 3.7, "reviews": 6, "place_id": "ChIJEcOQUE03QlMRonwnD5ay1AM", "latitude": 47.4909924, "longitude": -111.2634047, "subtypes": "Urologist"}, {"name": "Logan Health Urology", "address": "1333 Surgical Services Dr, Kalispell, MT 59901", "city": "Kalispell", "state": "Montana", "state_code": "MT", "phone": "+1 406-890-7432", "website": "https://www.logan.org/location/logan-health-urology/", "rating": 3.2, "reviews": 71, "place_id": "ChIJtZGQ9HVaZlMREt0yvdDPdCE", "latitude": 48.2139767, "longitude": -114.3250941, "subtypes": "Urologist"}, {"name": "Intermountain Health Downtown Clinic - Urology", "address": "2900 12th Ave N #335w, Billings, MT 59101", "city": "Billings", "state": "Montana", "state_code": "MT", "phone": "+1 406-237-5400", "website": "https://intermountainhealthcare.org/locations/intermountain-health-downtown-clinic/downtown-clinic-urology%3Futm_campaign%3Dgmb%26utm_medium%3Dorganic%26utm_source%3Dlocal", "rating": 4.7, "reviews": 157, "place_id": "ChIJn9esTF97SFMRP_yITVYsog4", "latitude": 45.7925078, "longitude": -108.5183784, "subtypes": "Urologist"}, {"name": "Billings Clinic Urology", "address": "801 N 29th St, Billings, MT 59101", "city": "Billings", "state": "Montana", "state_code": "MT", "phone": "+1 406-238-2500", "website": "https://www.billingsclinic.com/care-at-billings-clinic/care-treatment/urologic-care/%3Futm_source%3Dgmb-providers%26utm_campaign%3Dlocal-listings%26utm_medium%3Dbillings-clinic-urology", "rating": 3, "reviews": 14, "place_id": "ChIJQ8KMqz57SFMRt7seUVC8itw", "latitude": 45.7877894, "longitude": -108.5125865, "subtypes": "Urology clinic"}, {"name": "Christopher K. Schreiber, MD", "address": "2900 12th Ave N #160w, Billings, MT 59101", "city": "Billings", "state": "Montana", "state_code": "MT", "phone": "+1 406-237-5400", "website": "https://doctors.intermountainhealth.org/provider/Christopher%2520Keith%2520Schreiber/1617642%3Futm_campaign%3Dgmb%26utm_medium%3Dorganic%26utm_source%3Dlocal", "rating": 4.8, "reviews": 39, "place_id": "ChIJszRiuRV7SFMRgFhIOdkcOXE", "latitude": 45.7925518, "longitude": -108.5182366, "subtypes": "Urologist"}, {"name": "Debby Y. Chuang, MD", "address": "2900 12th Ave N #160w, Billings, MT 59101", "city": "Billings", "state": "Montana", "state_code": "MT", "phone": "+1 406-237-5400", "website": "https://doctors.intermountainhealth.org/provider/Debby%2520Y%2520Chuang/2513790%3Futm_campaign%3Dgmb%26utm_medium%3Dorganic%26utm_source%3Dlocal", "rating": 4.8, "reviews": 40, "place_id": "ChIJowYbWo17SFMRrrf578O1MfE", "latitude": 45.7925518, "longitude": -108.5182366, "subtypes": "Urologist"}, {"name": "Dr. Adam Dowell", "address": "801 N 29th St, Billings, MT 59101", "city": "Billings", "state": "Montana", "state_code": "MT", "phone": "+1 406-238-2500", "website": "https://providers.billingsclinic.com/provider/adam-e-dowell/2068338", "rating": 4, "reviews": 4, "place_id": "ChIJy9siGzx7SFMRTIExRqRsOcI", "latitude": 45.7880093, "longitude": -108.5124602, "subtypes": "Urologist"}, {"name": "Kerry L Strike - PA - Billings Clinic", "address": "801 N 29th St, Billings, MT 59101", "city": "Billings", "state": "Montana", "state_code": "MT", "phone": "+1 406-238-2500", "website": "https://providers.billingsclinic.com/provider/kerry-l-strike/2068287%3Futm_source%3Dgmb-providers%26utm_campaign%3Dlocal-listings%26utm_medium%3D1326394685", "rating": 5, "reviews": 1, "place_id": "ChIJBR9OADx7SFMRu6BLvg6b7wU", "latitude": 45.7877894, "longitude": -108.5125865, "subtypes": "Urologist"}, {"name": "Karin E Brown - MD - Billings Clinic", "address": "801 N 29th St, Billings, MT 59101", "city": "Billings", "state": "Montana", "state_code": "MT", "phone": "+1 406-238-2500", "website": "https://providers.billingsclinic.com/provider/karin-e-dolan/2068265%3Futm_source%3Dgmb-providers%26utm_campaign%3Dlocal-listings%26utm_medium%3D1306086293", "rating": 2.8, "reviews": 9, "place_id": "ChIJjQK4Azx7SFMRimCYR8dolNw", "latitude": 45.7877894, "longitude": -108.5125865, "subtypes": "Urologist"}, {"name": "Ruth Blum", "address": "801 N 29th St, Billings, MT 59101", "city": "Billings", "state": "Montana", "state_code": "MT", "phone": "+1 406-238-2500", "website": "https://providers.billingsclinic.com/provider/ruth-d-blum/2055852", "rating": 4, "reviews": 4, "place_id": "ChIJvUZzAzx7SFMRWwEVrhR3cc0", "latitude": 45.7877894, "longitude": -108.5125865, "subtypes": "Urologist"}, {"name": "Dirk S. Sypherd, MD", "address": "2900 12th Ave N, Billings, MT 59101", "city": "Billings", "state": "Montana", "state_code": "MT", "phone": "+1 406-237-5400", "website": "https://doctors.intermountainhealth.org/provider/Dirk%2520Spencer%2520Sypherd/2723511%3Futm_campaign%3Dgmb%26utm_medium%3Dorganic%26utm_source%3Dlocal", "rating": 5, "reviews": 4, "place_id": "ChIJAQBAvhV7SFMR1Hx7llScq3U", "latitude": 45.7925721, "longitude": -108.5182078, "subtypes": "Urologist"}, {"name": "Sheila Sarmiento - PA - Billings Clinic Urology", "address": "801 N 29th St, Billings, MT 59101", "city": "Billings", "state": "Montana", "state_code": "MT", "phone": "+1 406-238-2500", "website": "https://providers.billingsclinic.com/provider/sheila-d-sarmiento/2954751%3Futm_source%3Dgmb-providers%26utm_campaign%3Dlocal-listings%26utm_medium%3D1841207982", "rating": "", "reviews": "", "place_id": "ChIJQ8KMqz57SFMRdMIv4XkpqhA", "latitude": 45.7880093, "longitude": -108.5124602, "subtypes": "Urologist"}, {"name": "Dr. Michael Hickman", "address": "1233 N 30th St, Billings, MT 59101", "city": "Billings", "state": "Montana", "state_code": "MT", "phone": "", "website": "", "rating": 5, "reviews": 1, "place_id": "ChIJq6qqtRV7SFMRy4tYpZvXtyk", "latitude": 45.79348419999999, "longitude": -108.5187094, "subtypes": "Urologist"}, {"name": "Five Valleys Urology", "address": "2875 Tina Ave # 101, Missoula, MT 59808", "city": "Missoula", "state": "Montana", "state_code": "MT", "phone": "+1 406-728-3366", "website": "http://www.fivevalleysurology.com/", "rating": 4.7, "reviews": 1045, "place_id": "ChIJ4VjHqg7SXVMRGbPsLvld70Q", "latitude": 46.892288, "longitude": -114.0415413, "subtypes": "Urology clinic"}, {"name": "Butte Clinic - Urology", "address": "305 W Porphyry St #100, Butte, MT 59701", "city": "Butte", "state": "Montana", "state_code": "MT", "phone": "+1 406-723-2961", "website": "https://intermountainhealthcare.org/locations/butte-clinic-urology%3Futm_campaign%3Dgmb%26utm_medium%3Dorganic%26utm_source%3Dlocal", "rating": 5, "reviews": 2, "place_id": "ChIJL3UDTDUIW1MRtGPQvM1ilGc", "latitude": 46.0091311, "longitude": -112.5410547, "subtypes": "Urologist"}, {"name": "Scott Terrence M MD Urologist", "address": "401 S Alabama St, Butte, MT 59701", "city": "Butte", "state": "Montana", "state_code": "MT", "phone": "+1 406-723-4026", "website": "", "rating": 4.5, "reviews": 8, "place_id": "ChIJVbnrtcwJW1MRf-PCLSC-_ug", "latitude": 46.0081016, "longitude": -112.5480931, "subtypes": "Urologist"}, {"name": "Jonathan Mercer", "address": "305 W Pennsylvania St, Anaconda, MT 59711", "city": "Anaconda", "state": "Montana", "state_code": "MT", "phone": "+1 406-563-8571", "website": "https://communityhospitalofanaconda.org/providers/jonathan-mercer-m-d/", "rating": 5, "reviews": 1, "place_id": "ChIJAQAQuciQW1MRVXkHe6Gmytw", "latitude": 46.1325635, "longitude": -112.955029, "subtypes": "Urologist"}, {"name": "Nathaniel Readal, MD", "address": "30 State Hwy 91 S Lower Level, Dillon, MT 59725", "city": "Dillon", "state": "Montana", "state_code": "MT", "phone": "+1 406-683-3060", "website": "https://rymaps.org/business/nathaniel-readal-md-83sewt", "rating": 5, "reviews": 132, "place_id": "ChIJffCa8NsHWlMR1kKCPC6UYTU", "latitude": 45.207142, "longitude": -112.6425058, "subtypes": "Urologist"}, {"name": "Dr. Karin Brown", "address": "107 Dilworth St, Glendive, MT 59330", "city": "Glendive", "state": "Montana", "state_code": "MT", "phone": "+1 406-345-8901", "website": "https://www.gmc.org/providers/karin-brown-md/", "rating": "", "reviews": "", "place_id": "ChIJudp9CLMgJVMRZK0dQFka2G4", "latitude": 47.1173802, "longitude": -104.7036283, "subtypes": "Urologist"}, {"name": "Flathead Urology", "address": "210 Sunnyview Ln #106, Kalispell, MT 59901", "city": "Kalispell", "state": "Montana", "state_code": "MT", "phone": "+1 406-756-1433", "website": "", "rating": 3.7, "reviews": 3, "place_id": "ChIJi2RXu59QZlMRq-dlI_Wj-HQ", "latitude": 48.214327, "longitude": -114.326213, "subtypes": "Urologist"}, {"name": "Chloe Senn, DNP, APRN, FNP-C", "address": "214 14th Ave SW, Sidney, MT 59270", "city": "Sidney", "state": "Montana", "state_code": "MT", "phone": "+1 406-488-2546", "website": "https://www.sidneyhealth.org/Providers/Chloe-Senn-DNP-APRN-FNP-C", "rating": 4.7, "reviews": 38, "place_id": "ChIJATSdlRpxJFMRB0z5NJpIaYo", "latitude": 47.7158662, "longitude": -104.1731519, "subtypes": "Urology clinic"}, {"name": "Dr Sarabeth Martin, MD", "address": "350 Heritage Way #2300, Kalispell, MT 59901", "city": "Kalispell", "state": "Montana", "state_code": "MT", "phone": "+1 406-890-7432", "website": "https://app.wellprept.com/sarabethmartin", "rating": 4.8, "reviews": 19, "place_id": "ChIJ_1OzmC1bZlMRTl_fXqS1-48", "latitude": 48.2167949, "longitude": -114.3247806, "subtypes": "Urologist"}, {"name": "Vassilis Siomos", "address": "350 Heritage Way #2300, Kalispell, MT 59901", "city": "Kalispell", "state": "Montana", "state_code": "MT", "phone": "+1 406-752-8456", "website": "https://www.logan.org/provider/vassilis-siomos/", "rating": 4.7, "reviews": 3, "place_id": "ChIJj-LPinVaZlMR6dRSLvOLzHQ", "latitude": 48.2167029, "longitude": -114.3248218, "subtypes": "Urologist"}, {"name": "Dr. John Andenoro", "address": "350 Heritage Way #2300, Kalispell, MT 59901", "city": "Kalispell", "state": "Montana", "state_code": "MT", "phone": "+1 406-752-8456", "website": "", "rating": 4.3, "reviews": 7, "place_id": "ChIJtZGQ9HVaZlMRyXInR8HqiDs", "latitude": 48.2166054, "longitude": -114.3248631, "subtypes": "Urologist"}, {"name": "Amy McKerrow, MD", "address": "350 Heritage Way #2300, Kalispell, MT 59901", "city": "Kalispell", "state": "Montana", "state_code": "MT", "phone": "+1 406-890-7432", "website": "http://www.krh.org/krmc/services/KRH-urology-specialists", "rating": 3.6, "reviews": 8, "place_id": "ChIJtZGQ9HVaZlMR7ak8tUdTVHA", "latitude": 48.2167949, "longitude": -114.3247806, "subtypes": "Urologist"}, {"name": "Dr. Robert M. Kirk, MD", "address": "202 Conway Dr, Kalispell, MT 59901", "city": "Kalispell", "state": "Montana", "state_code": "MT", "phone": "+1 406-751-5666", "website": "", "rating": "", "reviews": "", "place_id": "ChIJQw8mgZ9QZlMRjmZY8ro4ssg", "latitude": 48.2131488, "longitude": -114.3272764, "subtypes": "Urologist"}, {"name": "Jonathan Mercer", "address": "210 Sunnyview Ln #106, Kalispell, MT 59901", "city": "Kalispell", "state": "Montana", "state_code": "MT", "phone": "+1 406-756-1433", "website": "", "rating": "", "reviews": "", "place_id": "ChIJi2RXu59QZlMRcxpIjm8eXsc", "latitude": 48.214327, "longitude": -114.326213, "subtypes": "Urologist"}, {"name": "Stewart William W MD", "address": "350 Heritage Way, Kalispell, MT 59901", "city": "Kalispell", "state": "Montana", "state_code": "MT", "phone": "", "website": "", "rating": "", "reviews": "", "place_id": "ChIJtZGQ9HVaZlMRCjtgloUqBIc", "latitude": 48.2168253, "longitude": -114.324789, "subtypes": "Urologist"}, {"name": "Adams Gregory T MD", "address": "350 Heritage Way # 2100, Kalispell, MT 59901", "city": "Kalispell", "state": "Montana", "state_code": "MT", "phone": "+1 406-752-8456", "website": "", "rating": "", "reviews": "", "place_id": "ChIJtZGQ9HVaZlMRO2Wx7R0PK5I", "latitude": 48.2168345, "longitude": -114.3247587, "subtypes": "Urologist"}, {"name": "Seabaugh Dayton R MD", "address": "395 Lower Valley Rd, Kalispell, MT 59901", "city": "Kalispell", "state": "Montana", "state_code": "MT", "phone": "+1 406-752-3318", "website": "", "rating": "", "reviews": "", "place_id": "ChIJzcIa721RZlMRr8rqyA1c5AQ", "latitude": 48.1605302, "longitude": -114.2659566, "subtypes": "Urologist"}, {"name": "Dr. Rome Walter, DO", "address": "20 13th St W, Havre, MT 59501", "city": "Havre", "state": "Montana", "state_code": "MT", "phone": "+1 406-265-7831", "website": "http://www.nmhcare.org/", "rating": "", "reviews": "", "place_id": "ChIJ_7BTXguzalMRskwopuFtzd0", "latitude": 48.5384063, "longitude": -109.6883483, "subtypes": "Urologist"}, {"name": "Dr. Kevin M. Kronner, MD", "address": "2875 Tina Ave # 101, Missoula, MT 59808", "city": "Missoula", "state": "Montana", "state_code": "MT", "phone": "+1 406-728-3366", "website": "http://www.fivevalleysurology.com/", "rating": 4.9, "reviews": 64, "place_id": "ChIJ4VjHqg7SXVMR9Z2Tivk8P80", "latitude": 46.891893, "longitude": -114.0416541, "subtypes": "Urologist"}, {"name": "Dr. Brian J. Malloy", "address": "1401 25th St S, Great Falls, MT 59405", "city": "Great Falls", "state": "Montana", "state_code": "MT", "phone": "+1 406-731-8051", "website": "http://www.benefis.org/", "rating": 3, "reviews": 13, "place_id": "ChIJ2cCiHa83QlMR6WMzbrW5sZw", "latitude": 47.4908673, "longitude": -111.2633124, "subtypes": "Urologist"}, {"name": "Christopher Fukuda", "address": "1101 26th St S, Great Falls, MT 59405", "city": "Great Falls", "state": "Montana", "state_code": "MT", "phone": "+1 406-731-8888", "website": "", "rating": 3.1, "reviews": 12, "place_id": "ChIJRTmMH6k3QlMR-FGE09Wmz1s", "latitude": 47.4911874, "longitude": -111.2594192, "subtypes": "Urologist"}, {"name": "Dr. George M. Seal, MD", "address": "3000 15th Ave S, Great Falls, MT 59405", "city": "Great Falls", "state": "Montana", "state_code": "MT", "phone": "+1 406-454-2171", "website": "http://www.gfclinic.com/", "rating": 3, "reviews": 2, "place_id": "ChIJ413cHa83QlMR0zrZbzE6D2A", "latitude": 47.49060919999999, "longitude": -111.2633896, "subtypes": "Urologist"}, {"name": "Dr. Rollin W. Bearss, MD", "address": "2800 11th Ave S Suite 12, Great Falls, MT 59405", "city": "Great Falls", "state": "Montana", "state_code": "MT", "phone": "+1 406-771-6750", "website": "http://www.benefis.org/", "rating": 3, "reviews": 2, "place_id": "ChIJSWVEi6g3QlMRrr_NXSNSmiw", "latitude": 47.490841, "longitude": -111.2633786, "subtypes": "Urologist"}, {"name": "Morris Jessop, MD", "address": "1401 25th St S, Great Falls, MT 59405", "city": "Great Falls", "state": "Montana", "state_code": "MT", "phone": "+1 406-455-4694", "website": "", "rating": "", "reviews": "", "place_id": "ChIJRTmMH6k3QlMRFhB50Ji7Rig", "latitude": 47.4909924, "longitude": -111.2634047, "subtypes": "Urologist"}, {"name": "Dr. David E. Guth, MD", "address": "2800 11th Ave S #14, Great Falls, MT 59405", "city": "Great Falls", "state": "Montana", "state_code": "MT", "phone": "+1 406-771-1172", "website": "", "rating": "", "reviews": "", "place_id": "ChIJSWVEi6g3QlMRRt5X1s-DK74", "latitude": 47.49258409999999, "longitude": -111.2586346, "subtypes": "Urologist"}, {"name": "Dr. William P. Horst, MD", "address": "1509 29th St S, Great Falls, MT 59405", "city": "Great Falls", "state": "Montana", "state_code": "MT", "phone": "+1 406-771-3500", "website": "http://www.gfclinic.com/", "rating": "", "reviews": "", "place_id": "ChIJi2J-0Ks3QlMRYV9ONbHcHSA", "latitude": 47.4888295, "longitude": -111.2567738, "subtypes": "Urologist"}, {"name": "Bozeman Health Urology Clinic", "address": "931 Highland Blvd # 3360, Bozeman, MT 59715", "city": "Bozeman", "state": "Montana", "state_code": "MT", "phone": "+1 406-414-5300", "website": "https://bozemanhealth.org/services/urology", "rating": 4.9, "reviews": 113, "place_id": "ChIJCTlD4_JERVMRDbhdw8vXWWE", "latitude": 45.66986199999999, "longitude": -111.0199356, "subtypes": "Urologist"}, {"name": "Bozeman Deaconess Urological", "address": "935 Highland Blvd #2160, Bozeman, MT 59715", "city": "Bozeman", "state": "Montana", "state_code": "MT", "phone": "+1 406-556-5300", "website": "", "rating": 1, "reviews": 2, "place_id": "ChIJCTlD4_JERVMRN1669reG2_Q", "latitude": 45.6698303, "longitude": -111.0199533, "subtypes": "Urology clinic"}, {"name": "Dr. Jason Skenazy", "address": "935 Highland Blvd #2160, Bozeman, MT 59715", "city": "Bozeman", "state": "Montana", "state_code": "MT", "phone": "+1 406-414-5300", "website": "https://bozemanhealth.org/listing/jason-f-skenazy-md/", "rating": 4.4, "reviews": 7, "place_id": "ChIJJVcqt_NERVMRQA9tEMNikww", "latitude": 45.6694811, "longitude": -111.0202275, "subtypes": "Urologist"}, {"name": "Gallatin Urology and Aviation Medical Exams J. Bruce Robertson, MD", "address": "711 W Main St, Bozeman, MT 59715", "city": "Bozeman", "state": "Montana", "state_code": "MT", "phone": "+1 406-551-2306", "website": "http://www.gallatinurology.com/", "rating": 5, "reviews": 3, "place_id": "ChIJJbZobKRFRVMRxWEoqjKJVs0", "latitude": 45.679588, "longitude": -111.0469338, "subtypes": "Urologist"}, {"name": "Daniel E Swanson - MD - Billings Clinic Bozeman Urology", "address": "3905 Wellness Wy, Bozeman, MT 59718", "city": "Bozeman", "state": "Montana", "state_code": "MT", "phone": "+1 406-898-1380", "website": "https://providers.billingsclinic.com/provider/daniel-e-swanson/2056204%3Futm_source%3Dgmb-providers%26utm_campaign%3Dlocal-listings%26utm_medium%3D1447575154", "rating": 4.1, "reviews": 9, "place_id": "ChIJAbLVWM9FRVMRUbNVV2Ekujc", "latitude": 45.7212565, "longitude": -111.0780385, "subtypes": "Urologist"}, {"name": "Billings Clinic Bozeman Urology Services", "address": "3905 Wellness Wy, Bozeman, MT 59718", "city": "Bozeman", "state": "Montana", "state_code": "MT", "phone": "+1 406-898-1200", "website": "https://www.billingsclinic.com/care-at-billings-clinic/care-locations-and-directions/location-profile/billings-clinic-bozeman/%3Futm_source%3Dgmb-providers%26utm_campaign%3Dlocal-listings%26utm_medium%3Dbozeman-urology", "rating": 1, "reviews": 3, "place_id": "ChIJp5wIVttHRVMRIrdM7dDkde8", "latitude": 45.7212565, "longitude": -111.0780385, "subtypes": "Urology clinic"}, {"name": "Pritham, Gregory MD", "address": "935 Highland Blvd #2160, Bozeman, MT 59715", "city": "Bozeman", "state": "Montana", "state_code": "MT", "phone": "+1 406-414-5300", "website": "http://www.bozemanhealth.org/", "rating": 4.8, "reviews": 5, "place_id": "ChIJ4bM18fFERVMRz1Q6DtxoB7E", "latitude": 45.6690319, "longitude": -111.0209894, "subtypes": "Urologist"}, {"name": "Christopher G. Wicher, MD", "address": "2875 Tina Ave # 101, Missoula, MT 59808", "city": "Missoula", "state": "Montana", "state_code": "MT", "phone": "+1 406-728-3366", "website": "http://www.fivevalleysurology.com/", "rating": 4.9, "reviews": 82, "place_id": "ChIJC0H0mIDOXVMRDiDKyqdXEJA", "latitude": 46.891893, "longitude": -114.0416541, "subtypes": "Urologist"}]