[{"name": "Nebraska Urology Clinic and Urology Surgical Center", "address": "5500 Pine Lake Rd, Lincoln, NE 68516", "city": "Lincoln", "state": "Nebraska", "state_code": "NE", "phone": "+1 402-489-8888", "website": "http://ne-urology.com/", "rating": 4.8, "reviews": 1730, "place_id": "ChIJeXa2d2mWlocRb7_mR-wLqzw", "latitude": 40.7417279, "longitude": -96.645288, "subtypes": "Urologist"}, {"name": "Nebraska Medicine Urology at Village Pointe Health Center", "address": "17405 Burke St, Omaha, NE 68118", "city": "Omaha", "state": "Nebraska", "state_code": "NE", "phone": "+1 402-559-4292", "website": "https://www.nebraskamed.com/village-pointe/urology", "rating": "", "reviews": "", "place_id": "ChIJMadhsmrxk4cRJ_dI7dAWbz4", "latitude": 41.258259, "longitude": -96.18714059999999, "subtypes": "Urology clinic"}, {"name": "CHI Health Clinic Urology (CUMC - Bergan Mercy)", "address": "7710 Mercy Rd Suite 117, Omaha, NE 68124", "city": "Omaha", "state": "Nebraska", "state_code": "NE", "phone": "+1 402-717-2500", "website": "https://www.chihealth.com/en/location-search/location-details.location.fea36b36-f5c3-4bd7-8082-a7c18215b6ef.html", "rating": 2.3, "reviews": 7, "place_id": "ChIJhy64mNuMk4cRNxGFod-LWvk", "latitude": 41.2399087, "longitude": -96.03057079999999, "subtypes": "Urology clinic"}, {"name": "The Urology Center P.C. - UroHealth Partners", "address": "304 N 179th St #206, Omaha, NE 68118", "city": "Omaha", "state": "Nebraska", "state_code": "NE", "phone": "+1 402-397-9800", "website": "https://urohealthpartners.com/", "rating": 3.3, "reviews": 18, "place_id": "ChIJD1DUqDTwk4cRTwBX_KkevII", "latitude": 41.2595507, "longitude": -96.19543019999999, "subtypes": "Urologist"}, {"name": "Brett Hill", "address": "304 N 179th St #206, Omaha, NE 68118", "city": "Omaha", "state": "Nebraska", "state_code": "NE", "phone": "+1 402-397-9800", "website": "", "rating": 5, "reviews": 1, "place_id": "ChIJf_TpqzTwk4cRJETGOLxj2L0", "latitude": 41.2595558, "longitude": -96.1954016, "subtypes": "Urologist"}, {"name": "Nebraska Medicine Urology Clinic at Lauritzen Outpatient Center", "address": "4014 Leavenworth St Level 3, Omaha, NE 68105", "city": "Omaha", "state": "Nebraska", "state_code": "NE", "phone": "+1 402-559-4292", "website": "https://www.nebraskamed.com/nebraska-medical-center/lauritzen-outpatient-center/surgery-urology-clinic", "rating": 3.9, "reviews": 10, "place_id": "ChIJQZhca3uOk4cResLBL0deZfc", "latitude": 41.2533999, "longitude": -95.97403469999999, "subtypes": "Urology clinic"}, {"name": "UroHealth Partners", "address": "10707 Pacific St Suite 101, Omaha, NE 68114", "city": "Omaha", "state": "Nebraska", "state_code": "NE", "phone": "+1 402-397-7989", "website": "https://urohealthpartners.com/", "rating": 3.4, "reviews": 73, "place_id": "ChIJMXwnRIiPk4cRmYQpBrWuz38", "latitude": 41.2481776, "longitude": -96.0804136, "subtypes": "Urologist"}, {"name": "UroHealth Partners", "address": "111 S 90th St, Omaha, NE 68114", "city": "Omaha", "state": "Nebraska", "state_code": "NE", "phone": "+1 402-397-9800", "website": "https://urohealthpartners.com/", "rating": 3.7, "reviews": 97, "place_id": "ChIJPemHtT6Nk4cRZSP3uRw_Q6Q", "latitude": 41.2589037, "longitude": -96.05177379999999, "subtypes": "Urology clinic"}, {"name": "Dr McCreary", "address": "10707 Pacific St, Omaha, NE 68114", "city": "Omaha", "state": "Nebraska", "state_code": "NE", "phone": "", "website": "", "rating": 5, "reviews": 4, "place_id": "ChIJOfAyWNryk4cR_VUstUjWwMU", "latitude": 41.2482616, "longitude": -96.0804477, "subtypes": "Urologist"}, {"name": "Larry E. Siref, FACS, MD", "address": "7710 Mercy Rd Ste 1000, Omaha, NE 68124", "city": "Omaha", "state": "Nebraska", "state_code": "NE", "phone": "+1 402-717-2500", "website": "https://www.chihealth.com/en/find-a-provider/larry-siref-md-facs.html", "rating": 4.5, "reviews": 27, "place_id": "ChIJPYC1t3COk4cRAeFRtlwashI", "latitude": 41.2395769, "longitude": -96.030793, "subtypes": "Urologist"}, {"name": "Joan C. Delto, MD", "address": "7710 Mercy Rd Ste 1000, Omaha, NE 68124", "city": "Omaha", "state": "Nebraska", "state_code": "NE", "phone": "+1 402-717-2500", "website": "https://www.chihealth.com/en/find-a-provider/joan-delto-md.html", "rating": 4.5, "reviews": 32, "place_id": "ChIJgbfwZKqNk4cRzmyC6OH0NGA", "latitude": 41.2395769, "longitude": -96.030793, "subtypes": "Urologist"}, {"name": "Michaela M. Duggan, PA - UroHealth Partners", "address": "10707 Pacific St Suite 101, Omaha, NE 68114", "city": "Omaha", "state": "Nebraska", "state_code": "NE", "phone": "+1 402-519-2383", "website": "https://www.adultpediatricuro.com/", "rating": 5, "reviews": 1, "place_id": "ChIJOfAyWNryk4cR9IKNOCfTIr0", "latitude": 41.2482616, "longitude": -96.0804476, "subtypes": "Urologist"}, {"name": "Andrew R. Arther, MD - UroHealth Partners", "address": "10707 Pacific St Suite 101, Omaha, NE 68114", "city": "Omaha", "state": "Nebraska", "state_code": "NE", "phone": "+1 402-397-7989", "website": "https://urohealthpartners.com/", "rating": 4.2, "reviews": 5, "place_id": "ChIJOfAyWNryk4cRW938UYJwIQg", "latitude": 41.2482616, "longitude": -96.0804477, "subtypes": "Urologist"}, {"name": "Andrew Christiansen", "address": "17405 Burke St, Omaha, NE 68118", "city": "Omaha", "state": "Nebraska", "state_code": "NE", "phone": "+1 402-559-8600", "website": "https://www.nebraskamed.com/doctors/andrew-j-christiansen", "rating": 5, "reviews": 2, "place_id": "ChIJZcBAKsrxk4cRRwumW6gqxOs", "latitude": 41.2586737, "longitude": -96.1875017, "subtypes": "Urologist"}, {"name": "Christopher M. Deibert, MD", "address": "17405 Burke St, Omaha, NE 68118", "city": "Omaha", "state": "Nebraska", "state_code": "NE", "phone": "+1 402-552-6006", "website": "https://www.nebraskamed.com/doctors/christopher-m-deibert", "rating": 5, "reviews": 2, "place_id": "ChIJc6UWKsrxk4cR5sL4J4tcm8I", "latitude": 41.2588561, "longitude": -96.1872708, "subtypes": "Urologist"}, {"name": "Galen M. Meyer, FACS, MD", "address": "7710 Mercy Rd Ste 1000, Omaha, NE 68124", "city": "Omaha", "state": "Nebraska", "state_code": "NE", "phone": "+1 402-717-2500", "website": "https://www.chihealth.com/en/find-a-provider/galen-meyer-md-facs.html", "rating": 4.3, "reviews": 15, "place_id": "ChIJcyXqbfyMk4cRboTyGZO3OHs", "latitude": 41.2395769, "longitude": -96.030793, "subtypes": "Urologist"}, {"name": "Michael Patrick Feloney, MD", "address": "7710 Mercy Rd Ste 1000, Omaha, NE 68124", "city": "Omaha", "state": "Nebraska", "state_code": "NE", "phone": "+1 402-717-2500", "website": "https://www.chihealth.com/en/find-a-provider/michael-feloney-md-facs.html", "rating": 4.7, "reviews": 18, "place_id": "ChIJRcdW0nCOk4cRHB88xUdoWaE", "latitude": 41.2395769, "longitude": -96.030793, "subtypes": "Urologist"}, {"name": "Taylor L. Soon-Sutton, MD", "address": "7710 Mercy Rd Ste 1000, Omaha, NE 68124", "city": "Omaha", "state": "Nebraska", "state_code": "NE", "phone": "+1 402-717-2500", "website": "https://www.chihealth.com/en/find-a-provider/taylor-soonsutton-md.html", "rating": 4.6, "reviews": 17, "place_id": "ChIJV7v2twqNk4cR_r5Ma9V_IUU", "latitude": 41.2395769, "longitude": -96.030793, "subtypes": "Urologist"}, {"name": "Stefanie L. Bolte, MD", "address": "10707 Pacific St Suite 101, Omaha, NE 68114", "city": "Omaha", "state": "Nebraska", "state_code": "NE", "phone": "+1 402-397-7989", "website": "http://www.adultpediatricuro.com/", "rating": 5, "reviews": 1, "place_id": "ChIJcyXqbfyMk4cRAflmyujXS2M", "latitude": 41.2482616, "longitude": -96.0804477, "subtypes": "Urologist"}, {"name": "John D. Horgan, MD, FACS", "address": "10707 Pacific St Suite 101, Omaha, NE 68114", "city": "Omaha", "state": "Nebraska", "state_code": "NE", "phone": "+1 402-397-7989", "website": "http://www.adultpediatricuro.com/", "rating": 3.7, "reviews": 3, "place_id": "ChIJ6_rRW9ryk4cRFr9h91-j1Gs", "latitude": 41.2482252, "longitude": -96.08025839999999, "subtypes": "Urologist"}, {"name": "Lundak Bruce E MD", "address": "17055 Frances St #101, Omaha, NE 68130", "city": "Omaha", "state": "Nebraska", "state_code": "NE", "phone": "+1 402-397-7989", "website": "http://www.adultpediatricuro.com/", "rating": 1, "reviews": 1, "place_id": "ChIJKT-fXabxk4cRJFGTArovnV4", "latitude": 41.2391985, "longitude": -96.18221869999999, "subtypes": "Urologist"}, {"name": "Rebecca J. McCrery, MD, FACOG, FACS", "address": "10707 Pacific St Suite 101, Omaha, NE 68114", "city": "Omaha", "state": "Nebraska", "state_code": "NE", "phone": "+1 402-397-7989", "website": "http://www.adultpediatricuro.com/", "rating": 5, "reviews": 14, "place_id": "ChIJcyXqbfyMk4cRdtn6Co3VDLU", "latitude": 41.2482616, "longitude": -96.0804477, "subtypes": "Urologist"}, {"name": "Brent Wakefield, MD - UroHealth Partners", "address": "10707 Pacific St Suite 101, Omaha, NE 68114", "city": "Omaha", "state": "Nebraska", "state_code": "NE", "phone": "+1 402-397-7989", "website": "https://urohealthpartners.com/", "rating": 5, "reviews": 1, "place_id": "ChIJOfAyWNryk4cRII3M0tc6W2E", "latitude": 41.2482616, "longitude": -96.0804477, "subtypes": "Urologist"}, {"name": "Steven Koukol, MD", "address": "10060 Regency Cir, Omaha, NE 68114", "city": "Omaha", "state": "Nebraska", "state_code": "NE", "phone": "+1 402-354-1500", "website": "https://providers.bestcare.org/provider/Steven%2BC.%2BKoukol/1493639", "rating": 5, "reviews": 1, "place_id": "ChIJT5Pam7Xyk4cRphQ1QQ-2rw4", "latitude": 41.2622291, "longitude": -96.0715022, "subtypes": "Urologist"}, {"name": "Kean Emily R MD", "address": "10707 Pacific St, Omaha, NE 68114", "city": "Omaha", "state": "Nebraska", "state_code": "NE", "phone": "+1 402-397-7989", "website": "http://www.adultpediatricuro.com/", "rating": 5, "reviews": 4, "place_id": "ChIJKT-fXabxk4cRfV3n-kygA84", "latitude": 41.2391948, "longitude": -96.18227569999999, "subtypes": "Urologist"}, {"name": "Chad A. LaGrange, MD", "address": "4014 Leavenworth St, Omaha, NE 68105", "city": "Omaha", "state": "Nebraska", "state_code": "NE", "phone": "+1 402-559-4292", "website": "https://www.nebraskamed.com/doctors/chad-a-lagrange", "rating": 4.8, "reviews": 5, "place_id": "ChIJQZhca3uOk4cRm5XAqpGSh78", "latitude": 41.2526236, "longitude": -95.9739846, "subtypes": "Urologist"}, {"name": "Nebraska Urology Clinic and Urology Surgical Center", "address": "5500 Pine Lake Rd, Lincoln, NE 68516", "city": "Lincoln", "state": "Nebraska", "state_code": "NE", "phone": "+1 402-489-8888", "website": "http://ne-urology.com/", "rating": 4.8, "reviews": 1730, "place_id": "ChIJeXa2d2mWlocRb7_mR-wLqzw", "latitude": 40.7417279, "longitude": -96.645288, "subtypes": "Urologist"}, {"name": "Andrew F. Trainer, MD - UroHealth Partners", "address": "10707 Pacific St Suite 101, Omaha, NE 68114", "city": "Omaha", "state": "Nebraska", "state_code": "NE", "phone": "+1 402-397-7989", "website": "https://urohealthpartners.com/", "rating": 3.6, "reviews": 13, "place_id": "ChIJcyXqbfyMk4cR-TDEIYD3_Ww", "latitude": 41.2482616, "longitude": -96.0804477, "subtypes": "Urologist"}, {"name": "Dr. Lundak Ste. 101", "address": "10707 Pacific St, Omaha, NE 68114", "city": "Omaha", "state": "Nebraska", "state_code": "NE", "phone": "+1 402-397-7989", "website": "", "rating": "", "reviews": "", "place_id": "ChIJOfAyWNryk4cRGTGdgGKVdsg", "latitude": 41.2482616, "longitude": -96.0804477, "subtypes": "Urologist"}, {"name": "Jason Michaud, MD, PhD", "address": "111 N 84th St, Omaha, NE 68114", "city": "Omaha", "state": "Nebraska", "state_code": "NE", "phone": "+1 402-955-4002", "website": "https://www.childrensnebraska.org/provider/3215592/jason-e-michaud-md%3Futm_campaign%3Dgmb%26utm_medium%3Dorganic%26utm_source%3Dlocal", "rating": 4.8, "reviews": 17, "place_id": "ChIJ59HQzoONk4cRJNF6YRBBnc4", "latitude": 41.26065819999999, "longitude": -96.04242099999999, "subtypes": "Urologist"}, {"name": "Dr. Brett C. Hill, MD - UroHealth Partners", "address": "111 S 90th St, Omaha, NE 68114", "city": "Omaha", "state": "Nebraska", "state_code": "NE", "phone": "+1 402-397-9800", "website": "https://urohealthpartners.com/", "rating": 4, "reviews": 7, "place_id": "ChIJPemHtT6Nk4cRPwdNN7jmIlg", "latitude": 41.2589037, "longitude": -96.05177379999999, "subtypes": "Urologist"}, {"name": "Greenwald Herman M MD", "address": "17335 Poppleton Ave, Omaha, NE 68130", "city": "Omaha", "state": "Nebraska", "state_code": "NE", "phone": "+1 402-571-5323", "website": "", "rating": "", "reviews": "", "place_id": "ChIJtRqMa7Dxk4cR4OyC839ahDA", "latitude": 41.2468616, "longitude": -96.1855222, "subtypes": "Urologist"}, {"name": "Brett Hill", "address": "UNMC PHYSICIANS BUFFETT CANCER CENTER, 505 S 45th St, Omaha, NE 681980001", "city": "Omaha", "state": "Nebraska", "state_code": "NE", "phone": "+1 402-559-5600", "website": "https://www.nebraskamed.com/doctors/brett-c-hill", "rating": 5, "reviews": 1, "place_id": "ChIJR6LGxHmOk4cRxHmNKZWfthM", "latitude": 41.2555074, "longitude": -95.9797241, "subtypes": "Urologist"}, {"name": "Euclid J. deSouza, MD, FACS - UroHealth Partners", "address": "10707 Pacific St Suite 101, Omaha, NE 68114", "city": "Omaha", "state": "Nebraska", "state_code": "NE", "phone": "+1 402-397-7989", "website": "https://www.adultpediatricuro.com/", "rating": 5, "reviews": 3, "place_id": "ChIJ6_rRW9ryk4cREyphyjzU-5M", "latitude": 41.2481182, "longitude": -96.0804229, "subtypes": "Urologist"}, {"name": "Scottsbluff Urology", "address": "313 W 38th St, Scottsbluff, NE 69361", "city": "Scottsbluff", "state": "Nebraska", "state_code": "NE", "phone": "+1 308-632-5315", "website": "https://www.scottsbluffurology.com/", "rating": 3, "reviews": 2, "place_id": "ChIJkQ4o0NhRZYcRCuP9_h3gMig", "latitude": 41.8848426, "longitude": -103.6678292, "subtypes": "Urologist"}, {"name": "Regional West Physicians Clinic-Urology", "address": "2 W 42nd St #3600, Scottsbluff, NE 69361", "city": "Scottsbluff", "state": "Nebraska", "state_code": "NE", "phone": "+1 308-630-2450", "website": "https://www.rwhs.org/services/surgical-clinics/urology", "rating": 1, "reviews": 5, "place_id": "ChIJ3UvUVt9RZYcRU-AxpdCkPNA", "latitude": 41.8868843, "longitude": -103.6639786, "subtypes": "Urologist"}, {"name": "CHI Health Clinic Urology (Hastings)", "address": "2115 N Kansas Ave STE 201, Hastings, NE 68901", "city": "Hastings", "state": "Nebraska", "state_code": "NE", "phone": "+1 402-462-5109", "website": "https://providers.chihealth.com/l/chi-health-clinic-urology-hastings-1842", "rating": 3.7, "reviews": 3, "place_id": "ChIJTVmIARWjmYcRsN3QLx0Iqls", "latitude": 40.606921, "longitude": -98.3865507, "subtypes": "Urology clinic"}, {"name": "Central Nebraska Urology: Chris Larson, MD", "address": "2115 N Kansas Ave STE 201, Hastings, NE 68901", "city": "Hastings", "state": "Nebraska", "state_code": "NE", "phone": "+1 402-462-5109", "website": "", "rating": 3, "reviews": 4, "place_id": "ChIJl1Brat-jmYcRDW5iZ6YvdhM", "latitude": 40.606921, "longitude": -98.3865507, "subtypes": "Urologist"}, {"name": "Dr. Gregory Alberts", "address": "715 N St Joseph Ave, Hastings, NE 68901", "city": "Hastings", "state": "Nebraska", "state_code": "NE", "phone": "+1 402-463-4521", "website": "https://www.marylanning.org/providers/alberts,_greg", "rating": 5, "reviews": 1, "place_id": "ChIJ21IGWuajmYcR_GWQ3zA5r50", "latitude": 40.5902132, "longitude": -98.3878955, "subtypes": "Urologist"}, {"name": "Shawn Acino, MD", "address": "620 N Alpha St, Grand Island, NE 68803", "city": "Grand Island", "state": "Nebraska", "state_code": "NE", "phone": "+1 308-381-0473", "website": "https://providers.chihealth.com/p/shawn-m-acino-md-1942319850", "rating": 4.1, "reviews": 18, "place_id": "ChIJ21IGWuajmYcRLSYC1h0S6fU", "latitude": 40.9245927, "longitude": -98.366692, "subtypes": "Urologist"}, {"name": "Halsted, David S., MD.", "address": "2115 N Kansas Ave STE 201, Hastings, NE 68901", "city": "Hastings", "state": "Nebraska", "state_code": "NE", "phone": "+1 402-462-5109", "website": "http://www.marylanning.org/", "rating": "", "reviews": "", "place_id": "ChIJYbLd09GjmYcRPTjDC71kShQ", "latitude": 40.6069476, "longitude": -98.38664519999999, "subtypes": "Urologist"}, {"name": "Faith Health Urology", "address": "2701 W Norfolk Ave Floor 4, Norfolk, NE 68701", "city": "Norfolk", "state": "Nebraska", "state_code": "NE", "phone": "+1 402-844-8341", "website": "https://www.frhs.org/locations/profile/faith-regional-physician-services-urology/", "rating": 1, "reviews": 1, "place_id": "ChIJrYyvxR4VkIcRkAK2nncTot0", "latitude": 42.0324015, "longitude": -97.45104719999999, "subtypes": "Urology clinic"}, {"name": "Oluyemi Akin-Olugbade, MD", "address": "2701 W Norfolk Ave Floor 4, Norfolk, NE 68701", "city": "Norfolk", "state": "Nebraska", "state_code": "NE", "phone": "+1 402-844-8341", "website": "https://www.frhs.org/locations/profile/faith-regional-physician-services-urology/", "rating": 5, "reviews": 1, "place_id": "ChIJHW0e5fAVkIcRkqpwJk_GE90", "latitude": 42.0324015, "longitude": -97.45104719999999, "subtypes": "Urology clinic"}, {"name": "Urology Services", "address": "900 W Norfolk Ave Ste E, Norfolk, NE 68701", "city": "Norfolk", "state": "Nebraska", "state_code": "NE", "phone": "+1 402-379-8080", "website": "", "rating": "", "reviews": "", "place_id": "ChIJF2zLlXUVkIcR2IhNS3lDqPM", "latitude": 42.0329461, "longitude": -97.4197578, "subtypes": "Urologist"}, {"name": "N. P. Patel, M.D., PC", "address": "900 W Norfolk Ave Ste E, Norfolk, NE 68701", "city": "Norfolk", "state": "Nebraska", "state_code": "NE", "phone": "+1 402-379-8080", "website": "https://www.norfolkurology.com/", "rating": 3, "reviews": 2, "place_id": "ChIJF2zLlXUVkIcRihZKD6LN99A", "latitude": 42.0329461, "longitude": -97.4197578, "subtypes": "Urologist"}, {"name": "Hathaway Christopher MD", "address": "301 N 27th St # 8, Norfolk, NE 68701", "city": "Norfolk", "state": "Nebraska", "state_code": "NE", "phone": "", "website": "http://www.yanktonmedicalclinic.com/providers/urology/", "rating": 2.7, "reviews": 3, "place_id": "ChIJS5JLn50VkIcRuFjGGGf8OaU", "latitude": 42.03506429999999, "longitude": -97.45198099999999, "subtypes": "Urologist"}, {"name": "Dr. Don L. Henslee, MD", "address": "2910 Betten Dr, Crete, NE 68333", "city": "Crete", "state": "Nebraska", "state_code": "NE", "phone": "+1 402-826-2102", "website": "http://www.bryanhealth.com/", "rating": "", "reviews": "", "place_id": "ChIJ02IyLZfllocRoMzpFgTPOdg", "latitude": 40.64136, "longitude": -96.9367695, "subtypes": "Urologist"}, {"name": "Morton Jon J MD - UroHealth Partners", "address": "111 S 90th St, Omaha, NE 68114", "city": "Omaha", "state": "Nebraska", "state_code": "NE", "phone": "+1 402-397-9800", "website": "https://www.urologycenterpc.com/", "rating": 4.5, "reviews": 13, "place_id": "ChIJPemHtT6Nk4cRQP046X5jaXo", "latitude": 41.2589037, "longitude": -96.05177379999999, "subtypes": "Urologist"}, {"name": "Paige C. Stanzel, PA-C", "address": "111 N 84th St, Omaha, NE 68114", "city": "Omaha", "state": "Nebraska", "state_code": "NE", "phone": "+1 402-955-4002", "website": "https://www.childrensnebraska.org/provider/3216015/paige-c-stanzel-pac%3Futm_campaign%3Dgmb%26utm_medium%3Dorganic%26utm_source%3Dlocal", "rating": 5, "reviews": 9, "place_id": "ChIJI-7-SziNk4cRB42zdZbqH_Q", "latitude": 41.26065819999999, "longitude": -96.04242099999999, "subtypes": "Urologist"}, {"name": "Dr. Galen M. Meyer, MD", "address": "601 N 30th St, Omaha, NE 68131", "city": "Omaha", "state": "Nebraska", "state_code": "NE", "phone": "+1 402-280-4505", "website": "", "rating": 3, "reviews": 2, "place_id": "ChIJ602x10aOk4cRLmmkfN4r-jw", "latitude": 41.265087, "longitude": -95.95494099999999, "subtypes": "Urologist"}, {"name": "Dr. Judson Davies - UroHealth Partners", "address": "111 1/2, 111 S 90th St, Omaha, NE 68114", "city": "Omaha", "state": "Nebraska", "state_code": "NE", "phone": "+1 402-397-9800", "website": "https://urohealthpartners.com/", "rating": 5, "reviews": 4, "place_id": "ChIJOaHByz6Nk4cRmmNZYTSZeVk", "latitude": 41.2589037, "longitude": -96.05177379999999, "subtypes": "Urologist"}, {"name": "Andrew Christiansen", "address": "4014 Leavenworth St, Omaha, NE 681051053", "city": "Omaha", "state": "Nebraska", "state_code": "NE", "phone": "+1 402-559-8000", "website": "https://www.nebraskamed.com/doctors/andrew-j-christiansen", "rating": 5, "reviews": 2, "place_id": "ChIJVwkPGHuOk4cRvxyONz5giTE", "latitude": 41.2533999, "longitude": -95.97403469999999, "subtypes": "Urologist"}, {"name": "Jared Schober", "address": "4014 Leavenworth St, Omaha, NE 68105", "city": "Omaha", "state": "Nebraska", "state_code": "NE", "phone": "", "website": "", "rating": 5, "reviews": 2, "place_id": "ChIJVwkPGHuOk4cRNDrt257s7Dk", "latitude": 41.2533999, "longitude": -95.97403469999999, "subtypes": "Urologist"}, {"name": "Christopher M. Deibert, MD", "address": "4014 Leavenworth St, Omaha, NE 68105", "city": "Omaha", "state": "Nebraska", "state_code": "NE", "phone": "", "website": "https://www.nebraskamed.com/doctors/christopher-m-deibert", "rating": 5, "reviews": 2, "place_id": "ChIJNcrdvGiPk4cROliu1F2-Q0g", "latitude": 41.2526236, "longitude": -95.9739846, "subtypes": "Urologist"}, {"name": "Joan C. Delto, MD", "address": "6901 N 72nd St Ste 22905, Omaha, NE 68122", "city": "Omaha", "state": "Nebraska", "state_code": "NE", "phone": "+1 402-717-2500", "website": "https://www.chihealth.com/en/find-a-provider/joan-delto-md.html", "rating": 5, "reviews": 3, "place_id": "ChIJ_U3eV42Tk4cRHbZ8C3C7vb4", "latitude": 41.3217225, "longitude": -96.02128549999999, "subtypes": "Urologist"}, {"name": "Dr. Chad A. Lagrange, MD", "address": "982360 Nebraska, Omaha, NE 68198", "city": "Omaha", "state": "Nebraska", "state_code": "NE", "phone": "+1 402-559-4292", "website": "", "rating": 4.5, "reviews": 8, "place_id": "ChIJ7XwS7HmOk4cRd2q-RsIB72g", "latitude": 41.2552145, "longitude": -95.97887899999999, "subtypes": "Urologist"}, {"name": "Leu Patrick B MD - UroHealth Partners", "address": "111 S 90th St, Omaha, NE 68114", "city": "Omaha", "state": "Nebraska", "state_code": "NE", "phone": "+1 402-397-9800", "website": "https://urohealthpartners.com/", "rating": 4.2, "reviews": 5, "place_id": "ChIJPemHtT6Nk4cRJi5pNgW0yoE", "latitude": 41.258944, "longitude": -96.0518937, "subtypes": "Urologist"}, {"name": "Claudia Berrondo, MD", "address": "111 N 84th St, Omaha, NE 68114", "city": "Omaha", "state": "Nebraska", "state_code": "NE", "phone": "+1 402-955-4002", "website": "https://www.childrensnebraska.org/provider/3215624/claudia-berrondo-md%3Futm_campaign%3Dgmb%26utm_medium%3Dorganic%26utm_source%3Dlocal", "rating": 4.9, "reviews": 16, "place_id": "ChIJX9RCNnyNk4cR2nEccYueIg4", "latitude": 41.26065819999999, "longitude": -96.04242099999999, "subtypes": "Urologist"}, {"name": "John H. Makari M.D.", "address": "111 N 84th St, Omaha, NE 68114", "city": "Omaha", "state": "Nebraska", "state_code": "NE", "phone": "+1 402-955-4002", "website": "https://www.childrensnebraska.org/provider/3215612/john-h-makari-md%3Futm_campaign%3Dgmb%26utm_medium%3Dorganic%26utm_source%3Dlocal", "rating": 4.7, "reviews": 18, "place_id": "ChIJUSi43hRT5okRlOi9zefwvPs", "latitude": 41.26065819999999, "longitude": -96.04242099999999, "subtypes": "Urologist"}, {"name": "Adult & Pediatric Urology PC: Horgan John D MD", "address": "2510 Bellevue Medical Center Dr, Bellevue, NE 68123", "city": "Bellevue", "state": "Nebraska", "state_code": "NE", "phone": "+1 402-397-7989", "website": "https://adultpediatricuro.com/", "rating": "", "reviews": "", "place_id": "ChIJ2Z1R29GJk4cRbjCp9Yd3A9o", "latitude": 41.1372909, "longitude": -95.9479114, "subtypes": "Pediatric urologist"}, {"name": "Jared Schober", "address": "505 S 45th St, Omaha, NE 68198", "city": "Omaha", "state": "Nebraska", "state_code": "NE", "phone": "", "website": "", "rating": 3, "reviews": 2, "place_id": "ChIJR6LGxHmOk4cRDaO5ZIoX5AE", "latitude": 41.2555074, "longitude": -95.9797241, "subtypes": "Urologist"}, {"name": "CHI Health Clinic Urology (Immanuel)", "address": "6901 N 72nd St Ste 22905, Omaha, NE 68122", "city": "Omaha", "state": "Nebraska", "state_code": "NE", "phone": "+1 402-717-2500", "website": "https://www.chihealth.com/en/location-search/location-details.location.41a76fb8-3bca-48dc-b27b-2525985d0281.html", "rating": 5, "reviews": 1, "place_id": "ChIJMTVOA2OTk4cR4IeW2_VMiMw", "latitude": 41.3217225, "longitude": -96.02128549999999, "subtypes": "Urologist"}, {"name": "Adult & Pediatric Urology PC: Bolte Stefanie L MD", "address": "2510 Bellevue Medical Center Dr, Bellevue, NE 68123", "city": "Bellevue", "state": "Nebraska", "state_code": "NE", "phone": "+1 402-397-7989", "website": "https://adultpediatricuro.com/", "rating": "", "reviews": "", "place_id": "ChIJ2Z1R29GJk4cRVSozZ1y5u-s", "latitude": 41.1372909, "longitude": -95.9479114, "subtypes": "Pediatric urologist"}, {"name": "Adult & Pediatric Urology PC: Kean Emily R MD", "address": "2510 Bellevue Medical Center Dr, Bellevue, NE 68123", "city": "Bellevue", "state": "Nebraska", "state_code": "NE", "phone": "+1 402-397-7989", "website": "https://adultpediatricuro.com/", "rating": "", "reviews": "", "place_id": "ChIJ2Z1R29GJk4cRowUbtwQ5bCs", "latitude": 41.1372909, "longitude": -95.9479114, "subtypes": "Pediatric urologist"}, {"name": "Dr. Joan Delto", "address": "6829 N 72nd St #5500, Omaha, NE 68122", "city": "Omaha", "state": "Nebraska", "state_code": "NE", "phone": "+1 402-717-2500", "website": "https://providers.chihealth.com/p/joan-c-delto-1275769093", "rating": 5, "reviews": 1, "place_id": "ChIJ10_OzFWSk4cRbtJ71i5vZHI", "latitude": 41.3197787, "longitude": -96.0229571, "subtypes": "Urologist"}, {"name": "Steven C Koukol MD FACS", "address": "111 S 90th St, Omaha, NE 68114", "city": "Omaha", "state": "Nebraska", "state_code": "NE", "phone": "+1 402-397-9800", "website": "http://www.urologycenterpc.com/", "rating": 5, "reviews": 7, "place_id": "ChIJPemHtT6Nk4cRaTXOH2BtacM", "latitude": 41.2589395, "longitude": -96.05183129999999, "subtypes": "Urologist"}, {"name": "Dr. John H. Bishay, MD", "address": "4400 Emile St, Omaha, NE 68198", "city": "Omaha", "state": "Nebraska", "state_code": "NE", "phone": "", "website": "", "rating": 4.2, "reviews": 5, "place_id": "ChIJ7XwS7HmOk4cRFiyksJ0OkMw", "latitude": 41.2552145, "longitude": -95.97887899999999, "subtypes": "Urologist"}, {"name": "Gernon A. Longo, M.D.", "address": "111 S 90th St, Omaha, NE 68114", "city": "Omaha", "state": "Nebraska", "state_code": "NE", "phone": "+1 402-397-9800", "website": "http://www.urologycenterpc.com/", "rating": 5, "reviews": 1, "place_id": "ChIJPemHtT6Nk4cRsyddCFetp9I", "latitude": 41.2589037, "longitude": -96.0517737, "subtypes": "Urologist"}, {"name": "Jennifer Dwyer - UroHealth Partners", "address": "111 S 90th St, Omaha, NE 68114", "city": "Omaha", "state": "Nebraska", "state_code": "NE", "phone": "+1 402-397-9800", "website": "https://urohealthpartners.com/", "rating": 4.2, "reviews": 10, "place_id": "ChIJOaHByz6Nk4cR0mzIl3Bie7Y", "latitude": 41.2589037, "longitude": -96.05177379999999, "subtypes": "Urologist"}, {"name": "Adult & Pediatric Urology PC: Trainer Andrew F MD", "address": "2510 Bellevue Medical Center Dr, Bellevue, NE 68123", "city": "Bellevue", "state": "Nebraska", "state_code": "NE", "phone": "+1 402-397-7989", "website": "https://adultpediatricuro.com/", "rating": "", "reviews": "", "place_id": "ChIJ2Z1R29GJk4cRnn_eLPDKjvM", "latitude": 41.1372909, "longitude": -95.9479114, "subtypes": "Pediatric urologist"}, {"name": "Justin J. De Grado, MD", "address": "6901 N 72nd St Ste 22905, Omaha, NE 68122", "city": "Omaha", "state": "Nebraska", "state_code": "NE", "phone": "+1 402-717-2500", "website": "https://providers.chihealth.com/p/justin-j-de-grado-md-1982888228%3FskipPrescreen%3Dtrue", "rating": "", "reviews": "", "place_id": "ChIJ1e5-bpOTk4cRFPUC5eYv9lM", "latitude": 41.3217225, "longitude": -96.02128549999999, "subtypes": "Urologist"}, {"name": "Andrew Christiansen", "address": "UNMC PHYSICIANS BUFFETT CANCER CENTER, 505 S 45th St, Omaha, NE 681980001", "city": "Omaha", "state": "Nebraska", "state_code": "NE", "phone": "+1 402-559-5600", "website": "https://www.nebraskamed.com/doctors/andrew-j-christiansen", "rating": 5, "reviews": 1, "place_id": "ChIJR6LGxHmOk4cRd8Mwkzemu9k", "latitude": 41.2555074, "longitude": -95.9797241, "subtypes": "Urologist"}, {"name": "Peter M. Gordon, M.D., F.A.C.S.", "address": "111 S 90th St, Omaha, NE 68114", "city": "Omaha", "state": "Nebraska", "state_code": "NE", "phone": "+1 402-397-9800", "website": "http://www.urologycenterpc.com/", "rating": "", "reviews": "", "place_id": "ChIJPemHtT6Nk4cRWhYd3BKn6A8", "latitude": 41.2589395, "longitude": -96.05183129999999, "subtypes": "Urologist"}, {"name": "Christopher Corder - Uro Health Partners", "address": "111 S 90th St, Omaha, NE 68114", "city": "Omaha", "state": "Nebraska", "state_code": "NE", "phone": "+1 402-397-9800", "website": "https://urohealthpartners.com/", "rating": 4.3, "reviews": 3, "place_id": "ChIJOaHByz6Nk4cR3Md2bssVxpQ", "latitude": 41.2589037, "longitude": -96.05177379999999, "subtypes": "Urologist"}, {"name": "Adult & Pediatric Urology PC: Kuper David H MD", "address": "2510 Bellevue Medical Center Dr, Bellevue, NE 68123", "city": "Bellevue", "state": "Nebraska", "state_code": "NE", "phone": "+1 402-397-7989", "website": "https://adultpediatricuro.com/", "rating": "", "reviews": "", "place_id": "ChIJ2Z1R29GJk4cRnOSxn4YwV6Y", "latitude": 41.1372909, "longitude": -95.9479114, "subtypes": "Pediatric urologist"}, {"name": "Anja Zann, MD", "address": "8200 Dodge St, Omaha, NE 68114", "city": "Omaha", "state": "Nebraska", "state_code": "NE", "phone": "+1 402-955-4002", "website": "https://www.childrensnebraska.org/provider/3215616/anja-m-zann-md%3Futm_campaign%3Dgmb%26utm_medium%3Dorganic%26utm_source%3Dlocal", "rating": 5, "reviews": 2, "place_id": "ChIJKe9wRK6Nk4cRE7jRe-Lsz84", "latitude": 41.260315, "longitude": -96.0413444, "subtypes": "Urologist"}, {"name": "Anthony Oberle", "address": "111 S 90th St, Omaha, NE 681143907", "city": "Omaha", "state": "Nebraska", "state_code": "NE", "phone": "", "website": "", "rating": 5, "reviews": 2, "place_id": "ChIJOaHByz6Nk4cRck7hnEW8qEM", "latitude": 41.2589037, "longitude": -96.05177379999999, "subtypes": "Urologist"}, {"name": "Dr. Stephen W. Leslie, MD", "address": "601 N 30th St, Omaha, NE 68131", "city": "Omaha", "state": "Nebraska", "state_code": "NE", "phone": "+1 402-280-4505", "website": "http://www.creighton.edu/", "rating": 2, "reviews": 1, "place_id": "ChIJ602x10aOk4cRxYhIbWM_h6U", "latitude": 41.265087, "longitude": -95.95494099999999, "subtypes": "Urologist"}, {"name": "CHI Health Clinic Urology (Grand Island)", "address": "620 N Alpha St, Grand Island, NE 68803", "city": "Grand Island", "state": "Nebraska", "state_code": "NE", "phone": "+1 308-381-0473", "website": "https://providers.chihealth.com/l/chi-health-clinic-urology-grand-island-2925", "rating": 4.2, "reviews": 5, "place_id": "ChIJzR5CkUCHmYcRV-tSwMbD9xo", "latitude": 40.9245895, "longitude": -98.36665219999999, "subtypes": "Urology clinic"}, {"name": "Urology Partners of Nebraska", "address": "4101 Tiger Lily Rd #100, Lincoln, NE 68516", "city": "Lincoln", "state": "Nebraska", "state_code": "NE", "phone": "+1 402-413-2800", "website": "https://www.urologypartners.com/", "rating": 4.5, "reviews": 15, "place_id": "ChIJtxXoZhCXlocRe_bH48d5V8k", "latitude": 40.7064895, "longitude": -96.66167039999999, "subtypes": "Urologist"}, {"name": "Andrew J. Lepinski, M.D.", "address": "5500 Pine Lake Rd, Lincoln, NE 68516", "city": "Lincoln", "state": "Nebraska", "state_code": "NE", "phone": "+1 402-489-8888", "website": "http://lincolnurologypc.com/", "rating": 3.7, "reviews": 3, "place_id": "ChIJeXa2d2mWlocRmD51kIS1yJ8", "latitude": 40.7416094, "longitude": -96.64534689999999, "subtypes": "Urologist"}, {"name": "Dr. Raymond W. Conant, MD", "address": "1401 E H St, McCook, NE 69001", "city": "McCook", "state": "Nebraska", "state_code": "NE", "phone": "", "website": "", "rating": "", "reviews": "", "place_id": "ChIJXQuwi20qnocROWBRc9ckjyk", "latitude": 40.20508359999999, "longitude": -100.607249, "subtypes": "Urologist"}, {"name": "Great Plains Urology", "address": "611 W Francis St suite 200, North Platte, NE 69101", "city": "North Platte", "state": "Nebraska", "state_code": "NE", "phone": "+1 308-568-3500", "website": "https://www.gphealth.org/provider-directory/providers/millie-erickson/", "rating": 4.8, "reviews": 428, "place_id": "ChIJmxUc6u4idocRYIe7pjnv8Ts", "latitude": 41.1232032, "longitude": -100.771301, "subtypes": "Urology clinic"}, {"name": "Fremont Urology Health Center", "address": "2735 N Clarkson St, Fremont, NE 68025", "city": "Fremont", "state": "Nebraska", "state_code": "NE", "phone": "+1 402-727-5000", "website": "http://fremonturology.com/", "rating": 4.9, "reviews": 70, "place_id": "ChIJQ9FJVNRgkYcRHfQO-LhE4Pc", "latitude": 41.4557485, "longitude": -96.4905051, "subtypes": "Urology clinic"}, {"name": "Central Nebraska Urology: Greg Alberts, MD", "address": "2115 N Kansas Ave, Hastings, NE 68901", "city": "Hastings", "state": "Nebraska", "state_code": "NE", "phone": "+1 402-462-5109", "website": "", "rating": "", "reviews": "", "place_id": "ChIJx7daQeejmYcRtX-M6Ntx2GQ", "latitude": 40.6069437, "longitude": -98.38661189999999, "subtypes": "Urologist"}, {"name": "CHI Health Clinic Urology (Blair)", "address": "810 N 22nd St, Blair, NE 68008", "city": "Blair", "state": "Nebraska", "state_code": "NE", "phone": "+1 402-280-4505", "website": "https://www.chihealth.com/en/location-search/location-details.location.212731c9-09cd-47c9-965f-b676ca901ddc.html", "rating": "", "reviews": "", "place_id": "ChIJy4HE7F7Hk4cReCbcusI5lU8", "latitude": 41.551437, "longitude": -96.1444748, "subtypes": "Urologist"}, {"name": "Dr. James C. Wendt, MD", "address": "620 N Alpha St, Grand Island, NE 68803", "city": "Grand Island", "state": "Nebraska", "state_code": "NE", "phone": "+1 308-381-0473", "website": "", "rating": "", "reviews": "", "place_id": "ChIJfUU6Ve6GmYcRVoOvmrScCAY", "latitude": 40.9245895, "longitude": -98.36665219999999, "subtypes": "Urologist"}, {"name": "The Urology Center P.C.", "address": "4508 38th St Ste 210, Columbus, NE 68601", "city": "Columbus", "state": "Nebraska", "state_code": "NE", "phone": "+1 402-397-9800", "website": "https://www.urologycenterpc.com/", "rating": "", "reviews": "", "place_id": "ChIJ1VbxPXDskIcRzZDJj5Bij4s", "latitude": 41.4547133, "longitude": -97.3834188, "subtypes": "Urology clinic"}, {"name": "Dr. Stephen Lim", "address": "4014 Leavenworth St, Omaha, NE 68105", "city": "Omaha", "state": "Nebraska", "state_code": "NE", "phone": "+1 402-559-4292", "website": "", "rating": 3, "reviews": 1, "place_id": "ChIJVwkPGHuOk4cRbS7vB3OjsdE", "latitude": 41.2533999, "longitude": -95.97403469999999, "subtypes": "Urologist"}, {"name": "Dr. Sonny L. Johansson, MD", "address": "983135 Nebraska, Omaha, NE 68198", "city": "Omaha", "state": "Nebraska", "state_code": "NE", "phone": "+1 402-559-4186", "website": "", "rating": "", "reviews": "", "place_id": "ChIJ7XwS7HmOk4cRvHfgLHzxW88", "latitude": 41.2552145, "longitude": -95.97887899999999, "subtypes": "Urologist"}, {"name": "University-Ne Med Center Urology: Greenwald Herman M MD", "address": "4239 Farnam St # 710, Omaha, NE 68131", "city": "Omaha", "state": "Nebraska", "state_code": "NE", "phone": "+1 402-552-2525", "website": "", "rating": "", "reviews": "", "place_id": "ChIJPYC1t3COk4cRz5MqYQDwAhQ", "latitude": 41.2575304, "longitude": -95.9775021, "subtypes": "Urologist"}, {"name": "Galen Meyer", "address": "6901 N 72nd St, Omaha, NE 68122", "city": "Omaha", "state": "Nebraska", "state_code": "NE", "phone": "", "website": "", "rating": "", "reviews": "", "place_id": "ChIJX_rwi1SSk4cRCuWC5KiYQ4c", "latitude": 41.3218208, "longitude": -96.0213242, "subtypes": "Urologist"}, {"name": "Dr. Tim A. Richardson, MD", "address": "111 S 90th St, Omaha, NE 68114", "city": "Omaha", "state": "Nebraska", "state_code": "NE", "phone": "+1 402-397-9800", "website": "", "rating": "", "reviews": "", "place_id": "ChIJPemHtT6Nk4cRUFhHTq_kR5U", "latitude": 41.25887609999999, "longitude": -96.0518316, "subtypes": "Urologist"}, {"name": "Carlos A. Villanueva M.D.", "address": "111 N 84th St, Omaha, NE 68114", "city": "Omaha", "state": "Nebraska", "state_code": "NE", "phone": "+1 402-955-6799", "website": "", "rating": "", "reviews": "", "place_id": "ChIJn095XhSNk4cRb6TmhFAbG-A", "latitude": 41.26065819999999, "longitude": -96.04242099999999, "subtypes": "Urologist"}, {"name": "Unmc Physicians: Burton Lucas John MD", "address": "4400 Emile St #3, Omaha, NE 68198", "city": "Omaha", "state": "Nebraska", "state_code": "NE", "phone": "+1 402-559-8000", "website": "http://www.nebraskamed.com/", "rating": "", "reviews": "", "place_id": "ChIJc4nIhXmOk4cRXzv8a-l2oRw", "latitude": 41.2551316, "longitude": -95.97798379999999, "subtypes": "Urologist"}, {"name": "Paulos Yohannes, M.D.", "address": "6829 N 72nd St #7200, Omaha, NE 68134", "city": "Omaha", "state": "Nebraska", "state_code": "NE", "phone": "+1 402-391-0705", "website": "", "rating": "", "reviews": "", "place_id": "ChIJkfx8xlWSk4cRevA_CPGFLDc", "latitude": 41.3219384, "longitude": -96.0214833, "subtypes": "Urologist"}, {"name": "Kearney Urology Center PC", "address": "123 W 31st St, Kearney, NE 68847", "city": "Kearney", "state": "Nebraska", "state_code": "NE", "phone": "+1 308-237-7719", "website": "http://kearneyurologycenterpc.com/", "rating": 4.7, "reviews": 251, "place_id": "ChIJuZEyhJROmYcReUOjOy7JEmc", "latitude": 40.70662009999999, "longitude": -99.08381039999999, "subtypes": "Urologist"}, {"name": "CHI Health Clinic Urology (Elkhorn)", "address": "1625 N 205th St, Elkhorn, NE 68022", "city": "Elkhorn", "state": "Nebraska", "state_code": "NE", "phone": "+1 402-717-2500", "website": "https://providers.chihealth.com/l/chi-health-clinic-urology-elkhorn-808", "rating": "", "reviews": "", "place_id": "ChIJN2MX5ZTvk4cRbqR7B7S2CoI", "latitude": 41.274707, "longitude": -96.23541, "subtypes": "Urology clinic"}, {"name": "Kenneth Mccalla", "address": "1201 N Erie St, Lexington, NE 68850", "city": "Lexington", "state": "Nebraska", "state_code": "NE", "phone": "+1 308-324-5651", "website": "", "rating": "", "reviews": "", "place_id": "ChIJVVVVjIKEnocRtVcI1BL5LXI", "latitude": 40.7858929, "longitude": -99.7589814, "subtypes": "Urologist"}, {"name": "Millie P. Erickson, MD", "address": "611 W Francis St suite 200, North Platte, NE 69101", "city": "North Platte", "state": "Nebraska", "state_code": "NE", "phone": "+1 308-568-3500", "website": "", "rating": 5, "reviews": 36, "place_id": "ChIJ97XP1d8jdocRQjScZNUj0io", "latitude": 41.1232032, "longitude": -100.771301, "subtypes": "Urologist"}, {"name": "North Platte Regional Urology", "address": "611 W Francis St # 230, North Platte, NE 69101", "city": "North Platte", "state": "Nebraska", "state_code": "NE", "phone": "+1 308-534-3232", "website": "", "rating": "", "reviews": "", "place_id": "ChIJST4c6u4idocRBP2tcpkfUyQ", "latitude": 41.1232032, "longitude": -100.771301, "subtypes": "Urologist"}, {"name": "Dr. Jose Deguzman, MD", "address": "611 W Francis St, North Platte, NE 69101", "city": "North Platte", "state": "Nebraska", "state_code": "NE", "phone": "+1 308-568-3500", "website": "https://www.gphealth.org/provider-directory/providers/jose-deguzman-md/", "rating": 4.6, "reviews": 11, "place_id": "ChIJq6rq1u4idocR9sxjknde1TY", "latitude": 41.1232124, "longitude": -100.7713619, "subtypes": "Urologist"}, {"name": "Marlin Collier", "address": "611 W Francis St suite 200, North Platte, NE 69101", "city": "North Platte", "state": "Nebraska", "state_code": "NE", "phone": "+1 308-568-3500", "website": "", "rating": "", "reviews": "", "place_id": "ChIJFRXc1u4idocRysnT-EKVXoU", "latitude": 41.1232032, "longitude": -100.771301, "subtypes": "Urologist"}, {"name": "Dr. Michael L. Gallentine, MD", "address": "611 W Francis St suite 200, North Platte, NE 69101", "city": "North Platte", "state": "Nebraska", "state_code": "NE", "phone": "+1 308-534-3232", "website": "", "rating": "", "reviews": "", "place_id": "ChIJST4c6u4idocR3-w71jsv2JA", "latitude": 41.1232032, "longitude": -100.771301, "subtypes": "Urologist"}, {"name": "Dr. Mark B. Sorensen, MD", "address": "209 McNeel Ln, North Platte, NE 69101", "city": "North Platte", "state": "Nebraska", "state_code": "NE", "phone": "+1 308-534-6344", "website": "", "rating": "", "reviews": "", "place_id": "ChIJReTGCvIidocRmNZ57m4FrxU", "latitude": 41.1198342, "longitude": -100.7656976, "subtypes": "Urologist"}, {"name": "Dr. John N. Kabalin, MD", "address": "3911 Ave. B Suite 2200, Scottsbluff, NE 69361", "city": "Scottsbluff", "state": "Nebraska", "state_code": "NE", "phone": "+1 308-632-5315", "website": "http://www.scottsbluffurology.com/", "rating": "", "reviews": "", "place_id": "ChIJkQ4o0NhRZYcR7FFcyrOhGpI", "latitude": 41.887042, "longitude": -103.6646734, "subtypes": "Urologist"}, {"name": "Regional West Physicians Clinic-Urology, Dr. Acino", "address": "2 W 42nd St Ste 3600, Scottsbluff, NE 69361", "city": "Scottsbluff", "state": "Nebraska", "state_code": "NE", "phone": "+1 308-630-2450", "website": "http://www.physiciansclinic.net/", "rating": "", "reviews": "", "place_id": "ChIJR5Q-V99RZYcRrQR8tPooWOo", "latitude": 41.886696, "longitude": -103.6640864, "subtypes": "Urologist"}, {"name": "Nathan Ullrich", "address": "Two W 42nd St, Scottsbluff, NE 69361", "city": "Scottsbluff", "state": "Nebraska", "state_code": "NE", "phone": "+1 308-630-2450", "website": "http://www.rwhs.org/", "rating": "", "reviews": "", "place_id": "ChIJAQAAMN9RZYcR-Q0btxr3qi8", "latitude": 41.8883386, "longitude": -103.6796539, "subtypes": "Urologist"}, {"name": "Dr. William Waller", "address": "2 W 42nd St Ste 3600, Scottsbluff, NE 69361", "city": "Scottsbluff", "state": "Nebraska", "state_code": "NE", "phone": "+1 308-630-2450", "website": "", "rating": "", "reviews": "", "place_id": "ChIJAQAAMN9RZYcRVnx8gftL2Fw", "latitude": 41.8869116, "longitude": -103.6644925, "subtypes": "Urologist"}, {"name": "CHI Health Schuyler Clinic - Urology", "address": "1721 Colfax St, Schuyler, NE 68661", "city": "Schuyler", "state": "Nebraska", "state_code": "NE", "phone": "+1 402-352-4047", "website": "", "rating": "", "reviews": "", "place_id": "ChIJ2-A_BVAfkYcRhZTDwufm1zo", "latitude": 41.4557298, "longitude": -97.0608354, "subtypes": "Urologist"}, {"name": "Dr. Paulos Yohannes, MD", "address": "1760 County Rd J Suite 300, Wahoo, NE 68066", "city": "Wahoo", "state": "Nebraska", "state_code": "NE", "phone": "+1 402-443-4191", "website": "http://saundersmedicalcenter.com/", "rating": "", "reviews": "", "place_id": "ChIJDyWMPe1OkYcR_Z911gR39-o", "latitude": 41.1934238, "longitude": -96.63566999999999, "subtypes": "Urologist"}]