[{"name": "Urology Nevada - Sparks Location", "address": "5070 Ion Dr Suite 201, Sparks, NV 89436", "city": "Sparks", "state": "Nevada", "state_code": "NV", "phone": "+1 775-322-7811", "website": "https://urologynevada.com/", "rating": 4.8, "reviews": 271, "place_id": "ChIJQ73bOaY5mYARsTr8GN7_49U", "latitude": 39.584626, "longitude": -119.7305114, "subtypes": "Urology clinic"}, {"name": "Urology Nevada", "address": "5560 Kietzke Ln, Reno, NV 89511", "city": "Reno", "state": "Nevada", "state_code": "NV", "phone": "+1 775-322-7811", "website": "https://urologynevada.com/%3Futm_source%3Dgoogle%26utm_medium%3Dorganic%26utm_campaign%3Dkietzke_lane_care", "rating": 4.7, "reviews": 2336, "place_id": "ChIJy-0vdrFBmYAR6b-QpoR0rjg", "latitude": 39.464299, "longitude": -119.7877113, "subtypes": "Urology clinic"}, {"name": "Kanellos Angelo W MD", "address": "5560 Kietzke Ln, Reno, NV 89511", "city": "Reno", "state": "Nevada", "state_code": "NV", "phone": "+1 775-322-7811", "website": "http://www.urologynevada.com/", "rating": 4.9, "reviews": 220, "place_id": "ChIJ78LGgBwVmYAR6MF5SmnDy18", "latitude": 39.4641324, "longitude": -119.7875537, "subtypes": "Urologist"}, {"name": "Urology Specialists of Nevada", "address": "3150 N Tenaya Wy suite 165, Las Vegas, NV 89128", "city": "Las Vegas", "state": "Nevada", "state_code": "NV", "phone": "+1 702-877-0814", "website": "http://usonv.com/", "rating": 2.1, "reviews": 59, "place_id": "ChIJDZYWv5rqyIAR-lP8GFy5GFs", "latitude": 36.2167718, "longitude": -115.2495742, "subtypes": "Urology clinic"}, {"name": "Dr. David E. Hald, MD", "address": "5560 Kietzke Ln, Reno, NV 89511", "city": "Reno", "state": "Nevada", "state_code": "NV", "phone": "+1 775-322-7811", "website": "http://www.urologynevada.com/", "rating": 4.9, "reviews": 202, "place_id": "ChIJp6Hxfow_mYARPkn45FtcUeg", "latitude": 39.4640774, "longitude": -119.787568, "subtypes": "Urologist"}, {"name": "Urology Specialists of Nevada", "address": "58 N Pecos Rd, Henderson, NV 89074", "city": "Henderson", "state": "Nevada", "state_code": "NV", "phone": "+1 702-877-0814", "website": "http://usonv.com/", "rating": 2, "reviews": 71, "place_id": "ChIJo5GhTinOyIAR61DyI8DOwSc", "latitude": 36.0315895, "longitude": -115.0991058, "subtypes": "Urology clinic"}, {"name": "Ross E. Anderson MD", "address": "Urology Nevada, 5560 Kietzke Ln, Reno, NV 89511", "city": "Reno", "state": "Nevada", "state_code": "NV", "phone": "+1 775-322-7811", "website": "http://www.rossandersonmd.com/", "rating": 4.9, "reviews": 167, "place_id": "ChIJncMLcLs_mYARY98D42XxSuU", "latitude": 39.4640774, "longitude": -119.787568, "subtypes": "Urologist"}, {"name": "Dimitar Zlatev, MD", "address": "5560 Kietzke Ln, Reno, NV 89511", "city": "Reno", "state": "Nevada", "state_code": "NV", "phone": "+1 775-322-7811", "website": "https://urologynevada.com/", "rating": 5, "reviews": 154, "place_id": "ChIJMZNF1TY_mYARfYQmVANa3ek", "latitude": 39.4641324, "longitude": -119.7875537, "subtypes": "Urologist"}, {"name": "Remy Lamberts, md", "address": "5560 Kietzke Ln, Reno, NV 89511", "city": "Reno", "state": "Nevada", "state_code": "NV", "phone": "+1 775-322-7811", "website": "https://urologynevada.com/", "rating": 4.9, "reviews": 212, "place_id": "ChIJB27iT38_mYARWi_LT0mRPEM", "latitude": 39.4640774, "longitude": -119.787568, "subtypes": "Urologist"}, {"name": "Timothy Suttle, MD", "address": "5560 Kietzke Ln, Reno, NV 89511", "city": "Reno", "state": "Nevada", "state_code": "NV", "phone": "+1 775-322-7811", "website": "https://urologynevada.com/", "rating": 5, "reviews": 123, "place_id": "ChIJK2FG0j0_mYARVnskCZRdgEo", "latitude": 39.4641324, "longitude": -119.7875537, "subtypes": "Urologist"}, {"name": "John A. Freeman, MD", "address": "5560 Kietzke Ln, Reno, NV 89511", "city": "Reno", "state": "Nevada", "state_code": "NV", "phone": "+1 775-850-6500", "website": "", "rating": 4.5, "reviews": 36, "place_id": "ChIJ78LGgBwVmYARCDYlN9w5gN8", "latitude": 39.4641324, "longitude": -119.7875537, "subtypes": "Urologist"}, {"name": "Andrew Mazzone, MD", "address": "5560 Kietzke Ln, Reno, NV 89511", "city": "Reno", "state": "Nevada", "state_code": "NV", "phone": "+1 775-322-7811", "website": "https://urologynevada.com/", "rating": 5, "reviews": 109, "place_id": "ChIJhz8uhk0_mYARZIkjttOLvaQ", "latitude": 39.4641324, "longitude": -119.7875537, "subtypes": "Urologist"}, {"name": "Urology Specialists of Nevada", "address": "8410 W Warm Springs Rd, Las Vegas, NV 89113", "city": "Las Vegas", "state": "Nevada", "state_code": "NV", "phone": "+1 702-877-0814", "website": "http://www.usonv.com/", "rating": 2.3, "reviews": 31, "place_id": "ChIJ-zLm3mq5yIARfrz-Lrk8Spc", "latitude": 36.0562477, "longitude": -115.2754974, "subtypes": "Urology clinic"}, {"name": "Ryan Powers, DO", "address": "1425 Vista Ln, Carson City, NV 89703", "city": "Carson City", "state": "Nevada", "state_code": "NV", "phone": "+1 775-445-6680", "website": "https://www.carsontahoe.com/ryan-powers.html", "rating": 5, "reviews": 1, "place_id": "ChIJKXeBYcALmYARVzt3iD7HPso", "latitude": 39.1977204, "longitude": -119.7819039, "subtypes": "Urologist"}, {"name": "Urology Specialists of Nevada", "address": "2010 Wellness Way, Suite 200, Las Vegas, NV 89106", "city": "Las Vegas", "state": "Nevada", "state_code": "NV", "phone": "+1 702-877-0814", "website": "http://www.usonv.com/", "rating": 2.6, "reviews": 54, "place_id": "ChIJtUB4SxHByIARSYyt0R_tbGQ", "latitude": 36.162049, "longitude": -115.168456, "subtypes": "Urology clinic"}, {"name": "Christopher Tam, MD", "address": "5560 Kietzke Ln, Reno, NV 89511", "city": "Reno", "state": "Nevada", "state_code": "NV", "phone": "+1 775-322-7811", "website": "https://urologynevada.com/", "rating": 4.8, "reviews": 148, "place_id": "ChIJ56QyOgY_mYARR2EWj5-2RCY", "latitude": 39.4640774, "longitude": -119.787568, "subtypes": "Urologist"}, {"name": "Carson Tahoe Urology", "address": "1425 Vista Ln, Carson City, NV 89703", "city": "Carson City", "state": "Nevada", "state_code": "NV", "phone": "+1 775-445-6680", "website": "https://www.carsontahoe.com/carson-urologists-ltd.html", "rating": 3, "reviews": 15, "place_id": "ChIJ6wVxr78LmYARleZrvm7Kbv8", "latitude": 39.1977547, "longitude": -119.7819144, "subtypes": "Urology clinic"}, {"name": "Dr. Randall G. Nixon, MD", "address": "1425 Vista Ln, Carson City, NV 89703", "city": "Carson City", "state": "Nevada", "state_code": "NV", "phone": "+1 775-445-6680", "website": "https://www.carsontahoe.com/randall-nixon-md.html", "rating": 3, "reviews": 4, "place_id": "ChIJy3UiaykLmYARhz2VFRKDWKk", "latitude": 39.1976805, "longitude": -119.7819144, "subtypes": "Urologist"}, {"name": "Moore Kenneth P MD", "address": "1995 Errecart Blvd # 102, Elko, NV 89801", "city": "Elko", "state": "Nevada", "state_code": "NV", "phone": "+1 775-738-2218", "website": "", "rating": "", "reviews": "", "place_id": "ChIJEbiqo5kApoARG6R_cpqRsBk", "latitude": 40.8216389, "longitude": -115.7302504, "subtypes": "Urologist"}, {"name": "Joseph Drew, MD", "address": "1995 Errecart Blvd Suite 110, Elko, NV 89801", "city": "Elko", "state": "Nevada", "state_code": "NV", "phone": "+1 775-738-2600", "website": "https://www.nnmedicalgroup.com/urology", "rating": 5, "reviews": 25, "place_id": "ChIJAQDAQDfjoIARbGk7f82UHVM", "latitude": 40.9712938, "longitude": -117.7269828, "subtypes": "Urologist"}, {"name": "Alfred J. Brown, MD", "address": "1995 Errecart Blvd Suite 207, Elko, NV 89801", "city": "Elko", "state": "Nevada", "state_code": "NV", "phone": "+1 775-738-2600", "website": "https://www.nnmedicalgroup.com/provider/1790781995/alfred-j-brown-md", "rating": 3.4, "reviews": 5, "place_id": "ChIJH-fuo5kApoARIzGgMmA0Tm0", "latitude": 40.8230085, "longitude": -115.7310212, "subtypes": "Urologist"}, {"name": "Roland N. Chen, MD", "address": "1425 Vista Ln, Carson City, NV 89703", "city": "Carson City", "state": "Nevada", "state_code": "NV", "phone": "+1 775-883-1030", "website": "http://www.carsonurologists.com/", "rating": 3.8, "reviews": 11, "place_id": "ChIJy3UiaykLmYARKMm4WcXXc0o", "latitude": 39.1976917, "longitude": -119.7818687, "subtypes": "Urologist"}, {"name": "Carson Urologists Ltd: Urologists Carson MD", "address": "1425 Vista Ln, Carson City, NV 89703", "city": "Carson City", "state": "Nevada", "state_code": "NV", "phone": "+1 775-883-1030", "website": "http://carsonurologists.com/", "rating": 3, "reviews": 30, "place_id": "ChIJ_____7-mmYARBFUcV_8yESw", "latitude": 39.1976805, "longitude": -119.7819144, "subtypes": "Urologist"}, {"name": "Matthew McCormack, MD", "address": "5560 Kietzke Ln, Reno, NV 89511", "city": "Reno", "state": "Nevada", "state_code": "NV", "phone": "+1 775-322-7811", "website": "http://www.urologynevada.com/", "rating": 4.9, "reviews": 230, "place_id": "ChIJBTsGo3JAmYARK2yZLz_VHS8", "latitude": 39.4640774, "longitude": -119.787568, "subtypes": "Urologist"}, {"name": "Renown Urology Care", "address": "75 Pringle Way # 706, Reno, NV 89502", "city": "Reno", "state": "Nevada", "state_code": "NV", "phone": "+1 775-982-5770", "website": "https://www.renown.org/locations/renown-urology-care", "rating": 3.7, "reviews": 3, "place_id": "ChIJwQilOQFBmYARUgDtiJncMls", "latitude": 39.5263953, "longitude": -119.7948375, "subtypes": "Urologist"}, {"name": "Urologic Surgeons Ltd", "address": "1500 E 2nd St, Reno, NV 89502", "city": "Reno", "state": "Nevada", "state_code": "NV", "phone": "+1 775-322-7811", "website": "http://www.urologynevada.com/", "rating": "", "reviews": "", "place_id": "ChIJB7E9aalAmYARjOR-2LmAf3o", "latitude": 39.52686449999999, "longitude": -119.7932027, "subtypes": "Urology clinic"}, {"name": "Roland Goode", "address": "5560 Kietzke Ln, Reno, NV 89511", "city": "Reno", "state": "Nevada", "state_code": "NV", "phone": "+1 775-322-7811", "website": "https://urologynevada.com/", "rating": 4.9, "reviews": 197, "place_id": "ChIJVVWVv_g_mYARujsuKCyuEvw", "latitude": 39.4641324, "longitude": -119.7875537, "subtypes": "Urologist"}, {"name": "Reno NV", "address": "Reno, NV 89501", "city": "Reno", "state": "Nevada", "state_code": "NV", "phone": "", "website": "", "rating": 5, "reviews": 1, "place_id": "ChIJI82pcwBHmYARi8epTb_Ifho", "latitude": 39.529919, "longitude": -119.8142691, "subtypes": "Urology clinic"}, {"name": "Jennifer E. Reifsnyder, MD", "address": "1500 E 2nd St #300, Reno, NV 89502", "city": "Reno", "state": "Nevada", "state_code": "NV", "phone": "+1 775-982-6270", "website": "https://www.renown.org/find-a-doctor/jennifer-reifsnyder", "rating": 5, "reviews": 2, "place_id": "ChIJVxaFSK1BmYARQAmRG9VWsLc", "latitude": 39.5268648, "longitude": -119.7932799, "subtypes": "Pediatric urologist"}, {"name": "Dr. Thomas W. Brady, MD", "address": "1500 E 2nd St, Reno, NV 89502", "city": "Reno", "state": "Nevada", "state_code": "NV", "phone": "+1 775-322-7811", "website": "http://www.urologynevada.com/", "rating": 5, "reviews": 1, "place_id": "ChIJB7E9aalAmYARoYBIEp8WEFI", "latitude": 39.52686449999999, "longitude": -119.7932027, "subtypes": "Urologist"}, {"name": "Dr. Bruce J. Wallace, MD", "address": "699 Sierra Rose Dr A, Reno, NV 89511", "city": "Reno", "state": "Nevada", "state_code": "NV", "phone": "+1 775-689-3737", "website": "", "rating": 1, "reviews": 1, "place_id": "ChIJBTsGo3JAmYARtwkzXqiM1CA", "latitude": 39.47468, "longitude": -119.7999451, "subtypes": "Urologist"}, {"name": "Drew Joseph B MD", "address": "2005 Silverada Blvd, Reno, NV 89512", "city": "Reno", "state": "Nevada", "state_code": "NV", "phone": "+1 775-358-1312", "website": "", "rating": 1, "reviews": 1, "place_id": "ChIJF5mhqaY4mYARzGkMQEY_eME", "latitude": 39.5483387, "longitude": -119.7839745, "subtypes": "Urologist"}, {"name": "Dr. David Hald", "address": "1500 E 2nd St #300, Reno, NV 89502", "city": "Reno", "state": "Nevada", "state_code": "NV", "phone": "+1 775-322-7811", "website": "", "rating": 1, "reviews": 1, "place_id": "ChIJSS6cQqlAmYARhDiv7v7E2c4", "latitude": 39.5268648, "longitude": -119.7932799, "subtypes": "Urologist"}, {"name": "Derek Glazier", "address": "5560 Kietzke Ln, Reno, NV 89511", "city": "Reno", "state": "Nevada", "state_code": "NV", "phone": "+1 775-322-7811", "website": "https://urologynevada.com/our-physicians/advanced-practitioners/", "rating": "", "reviews": "", "place_id": "ChIJVVWVv_g_mYARfX_w8xI8r9M", "latitude": 39.4640774, "longitude": -119.787568, "subtypes": "Urologist"}, {"name": "Dr. Jonathan Garey-Sage", "address": "5560 Kietzke Ln Bldg A, Reno, NV 89511", "city": "Reno", "state": "Nevada", "state_code": "NV", "phone": "+1 775-284-1642", "website": "", "rating": 1, "reviews": 2, "place_id": "ChIJVVWVv_g_mYARJBj_r0DBqfs", "latitude": 39.4640774, "longitude": -119.787568, "subtypes": "Urologist"}, {"name": "Finn Cheryl J", "address": "1500 E 2nd St #302, Reno, NV 89502", "city": "Reno", "state": "Nevada", "state_code": "NV", "phone": "+1 775-322-7811", "website": "http://www.urologynevada.com/", "rating": "", "reviews": "", "place_id": "ChIJB7E9aalAmYARsQmraebMOqU", "latitude": 39.52686449999999, "longitude": -119.7932027, "subtypes": "Urologist"}, {"name": "Wheaton S Jean", "address": "1500 E 2nd St #300, Reno, NV 89502", "city": "Reno", "state": "Nevada", "state_code": "NV", "phone": "+1 775-322-7811", "website": "http://www.urologynevada.com/", "rating": "", "reviews": "", "place_id": "ChIJB7E9aalAmYARdvKjEOYD0r4", "latitude": 39.5268661, "longitude": -119.793236, "subtypes": "Urologist"}, {"name": "Freeman John A MD", "address": "689 Sierra Rose Dr, Reno, NV 89509", "city": "Reno", "state": "Nevada", "state_code": "NV", "phone": "+1 775-689-3737", "website": "", "rating": 3, "reviews": 2, "place_id": "ChIJBTsGo3JAmYAReySpUasMVV0", "latitude": 39.47468, "longitude": -119.7999449, "subtypes": "Urologist"}, {"name": "Gholdoian Garo MD", "address": "5560 Kietzke Ln, Reno, NV 89511", "city": "Reno", "state": "Nevada", "state_code": "NV", "phone": "+1 775-322-7811", "website": "", "rating": "", "reviews": "", "place_id": "ChIJB7E9aalAmYARjNoEe-k8imA", "latitude": 39.4641324, "longitude": -119.7875537, "subtypes": "Urologist"}, {"name": "Jewell Corinna", "address": "699 Sierra Rose Dr A, Reno, NV 89511", "city": "Reno", "state": "Nevada", "state_code": "NV", "phone": "+1 775-689-3733", "website": "", "rating": "", "reviews": "", "place_id": "ChIJBTsGo3JAmYARTFwiwOdkQmw", "latitude": 39.47468, "longitude": -119.799945, "subtypes": "Urologist"}, {"name": "Dr. Jonathan Garey-Sage", "address": "1500 E 2nd St #300, Reno, NV 89502", "city": "Reno", "state": "Nevada", "state_code": "NV", "phone": "+1 775-322-7811", "website": "", "rating": "", "reviews": "", "place_id": "ChIJSS6cQqlAmYARFEabsABBySM", "latitude": 39.5268648, "longitude": -119.7932799, "subtypes": "Urologist"}, {"name": "Dr. Timothy Redden", "address": "5560 Kietzke Ln Bldg A, Reno, NV 89511", "city": "Reno", "state": "Nevada", "state_code": "NV", "phone": "+1 775-284-1642", "website": "", "rating": "", "reviews": "", "place_id": "ChIJVVWVv_g_mYARxEj4bepAuLA", "latitude": 39.4640774, "longitude": -119.787568, "subtypes": "Urologist"}, {"name": "Dr. John Scott", "address": "5560 Kietzke Ln Bldg A, Reno, NV 89511", "city": "Reno", "state": "Nevada", "state_code": "NV", "phone": "+1 775-284-1642", "website": "", "rating": "", "reviews": "", "place_id": "ChIJVVWVv_g_mYARlnEVcezMtEI", "latitude": 39.4640774, "longitude": -119.787568, "subtypes": "Urologist"}, {"name": "Jamie Peatrowsky", "address": "5560 Kietzke Ln # A, Reno, NV 89511", "city": "Reno", "state": "Nevada", "state_code": "NV", "phone": "+1 775-284-1642", "website": "", "rating": "", "reviews": "", "place_id": "ChIJVVWVv_g_mYARDFX9T1jz41M", "latitude": 39.4640774, "longitude": -119.787568, "subtypes": "Urologist"}, {"name": "Las Vegas Urology", "address": "7500 Smoke Ranch Rd STE 200, Las Vegas, NV 89128", "city": "Las Vegas", "state": "Nevada", "state_code": "NV", "phone": "+1 702-385-4342", "website": "", "rating": 4.5, "reviews": 3939, "place_id": "ChIJRXSQRCDAyIARkc1jzroOOmw", "latitude": 36.2039093, "longitude": -115.257924, "subtypes": "Urology clinic"}, {"name": "Las Vegas Urology", "address": "3150 N Tenaya Wy #480, Las Vegas, NV 89128", "city": "Las Vegas", "state": "Nevada", "state_code": "NV", "phone": "+1 702-577-0024", "website": "", "rating": 4.4, "reviews": 181, "place_id": "ChIJVxjGfijAyIARSlASdmQ5NkE", "latitude": 36.2167567, "longitude": -115.2494756, "subtypes": "Urology clinic"}, {"name": "Las Vegas Urology", "address": "7150 W Sunset Rd #201A, Las Vegas, NV 89113", "city": "Las Vegas", "state": "Nevada", "state_code": "NV", "phone": "+1 702-385-4342", "website": "", "rating": 4.6, "reviews": 2400, "place_id": "ChIJr0FtUrfHyIARWDCVIYm-Oqs", "latitude": 36.0709191, "longitude": -115.2476328, "subtypes": "Urology clinic"}, {"name": "Dr. Victor E. Grigoriev", "address": "7500 Smoke Ranch Rd STE 200, Las Vegas, NV 89128", "city": "Las Vegas", "state": "Nevada", "state_code": "NV", "phone": "+1 702-233-0727", "website": "https://drgrigoriev.com/location/", "rating": 4.3, "reviews": 358, "place_id": "ChIJRXSQRCDAyIARVdXOuKGK85U", "latitude": 36.2038144, "longitude": -115.2578742, "subtypes": "Urologist"}, {"name": "Jason Orien, MD", "address": "3150 N Tenaya Wy suite 165, Las Vegas, NV 89128", "city": "Las Vegas", "state": "Nevada", "state_code": "NV", "phone": "+1 702-877-0817", "website": "https://www.jorienmd.com/", "rating": 5, "reviews": 9, "place_id": "ChIJc3WAdUbDyIAR4jybHgeB8CI", "latitude": 36.2167902, "longitude": -115.2495565, "subtypes": "Urologist"}, {"name": "Lawrence H. Newman, MD", "address": "7150 W Sunset Rd Suite 202b, Las Vegas, NV 89113", "city": "Las Vegas", "state": "Nevada", "state_code": "NV", "phone": "+1 702-385-4342", "website": "https://lasvegasurology.com/", "rating": 4.5, "reviews": 323, "place_id": "ChIJnYNUKbbHyIARlUCYl8fRr1s", "latitude": 36.0709711, "longitude": -115.2477149, "subtypes": "Urologist"}, {"name": "Dr. Sheldon J. Freedman MD LTD", "address": "653 N Town Center Dr #308, Las Vegas, NV 89144", "city": "Las Vegas", "state": "Nevada", "state_code": "NV", "phone": "+1 702-732-0282", "website": "http://www.freedmanurology.com/", "rating": 4.8, "reviews": 890, "place_id": "ChIJGxmsyHy4yIARqV7o7zzi1_w", "latitude": 36.1806759, "longitude": -115.3157231, "subtypes": "Urologist"}, {"name": "Pacific West Urology", "address": "4425 S Pecos Rd, Las Vegas, NV 89121", "city": "Las Vegas", "state": "Nevada", "state_code": "NV", "phone": "+1 725-225-5575", "website": "http://www.pacificwesturology.com/", "rating": 4.7, "reviews": 279, "place_id": "ChIJn1SCKKrByIARXiDmW0uH59o", "latitude": 36.1090277, "longitude": -115.1013188, "subtypes": "Urology clinic"}, {"name": "Las Vegas Vasectomy", "address": "9280 W Sunset Rd #400, Las Vegas, NV 89148", "city": "Las Vegas", "state": "Nevada", "state_code": "NV", "phone": "+1 702-293-0176", "website": "http://www.lasvegasvasectomy.com/", "rating": 5, "reviews": 69, "place_id": "ChIJgbe2yJ_AyIARLoEFtbJapuQ", "latitude": 36.071835, "longitude": -115.2947321, "subtypes": "Urology clinic"}, {"name": "Las Vegas Pediatric Urology - Dr. Andrew Hwang", "address": "653 N Town Center Dr Suite 407, Las Vegas, NV 89144", "city": "Las Vegas", "state": "Nevada", "state_code": "NV", "phone": "+1 702-728-5686", "website": "http://www.lasvegaspediatricurology.com/", "rating": 4, "reviews": 42, "place_id": "ChIJ3XTo78S_yIARQdTpXcljbII", "latitude": 36.180788, "longitude": -115.3155206, "subtypes": "Pediatric urologist"}, {"name": "Newman Urology", "address": "7150 W Sunset Rd #201A, Las Vegas, NV 89113", "city": "Las Vegas", "state": "Nevada", "state_code": "NV", "phone": "+1 702-948-1199", "website": "https://newmanurology.com/", "rating": 3.5, "reviews": 25, "place_id": "ChIJq3xJUgHHyIARt20ivmDdlhc", "latitude": 36.0709191, "longitude": -115.2476328, "subtypes": "Urologist"}, {"name": "Dr. Mulugeta D. Kassahun, MD", "address": "2010 Wellness Wy #200, Las Vegas, NV 89106", "city": "Las Vegas", "state": "Nevada", "state_code": "NV", "phone": "+1 702-877-0814", "website": "https://www.usonv.com/providers/mulugeta-kassahun", "rating": 3.2, "reviews": 36, "place_id": "ChIJJ1ydSxHByIARemJcKSRebKk", "latitude": 36.1620764, "longitude": -115.1685283, "subtypes": "Urologist"}, {"name": "Vasectomy Las Vegas", "address": "7150 W Sunset Rd #201, Las Vegas, NV 89113", "city": "Las Vegas", "state": "Nevada", "state_code": "NV", "phone": "+1 702-508-9890", "website": "https://vasectomylasvegas.com/", "rating": 5, "reviews": 3, "place_id": "ChIJIY0W2IXHyIARvy3AkJ0yzLY", "latitude": 36.0709688, "longitude": -115.2475939, "subtypes": "Urology clinic"}, {"name": "Craig Hunter", "address": "2010 Wellness Wy #200, Las Vegas, NV 891064142", "city": "Las Vegas", "state": "Nevada", "state_code": "NV", "phone": "+1 702-877-0814", "website": "", "rating": 5, "reviews": 2, "place_id": "ChIJo7B_q-vDyIARrdCoIk5dkc8", "latitude": 36.1620764, "longitude": -115.1685283, "subtypes": "Urologist"}, {"name": "Pediatric Urology of Las Vegas Dr. Waldo C. Feng", "address": "3131 La Canada St Suite 205, Las Vegas, NV 89169", "city": "Las Vegas", "state": "Nevada", "state_code": "NV", "phone": "+1 702-916-1996", "website": "http://pu-lv.com/", "rating": 3.2, "reviews": 24, "place_id": "ChIJG8tE5cS_yIAR8PPthHYUo5c", "latitude": 36.1323404, "longitude": -115.1332383, "subtypes": "Pediatric urologist"}, {"name": "Joel Abbott", "address": "4425 S Pecos Rd, Las Vegas, NV 89121", "city": "Las Vegas", "state": "Nevada", "state_code": "NV", "phone": "+1 725-225-5575", "website": "http://www.pacificwesturology.com/", "rating": 4, "reviews": 20, "place_id": "ChIJK3jr9wfByIAR_RR3p1FYkMA", "latitude": 36.1090277, "longitude": -115.1013188, "subtypes": "Urologist"}, {"name": "Dr. Jason N. Zommick, MD", "address": "5701 W Charleston Blvd, Las Vegas, NV 89146", "city": "Las Vegas", "state": "Nevada", "state_code": "NV", "phone": "+1 702-877-0814", "website": "https://www.usonv.com/providers/jason-zommick", "rating": 3.2, "reviews": 31, "place_id": "ChIJmy2STCnOyIAR4ct3lfd1IHU", "latitude": 36.1586429, "longitude": -115.2200227, "subtypes": "Urologist"}, {"name": "Dr. Michael P. Finkelstein, MD", "address": "2010 Wellness Wy #200, Las Vegas, NV 89106", "city": "Las Vegas", "state": "Nevada", "state_code": "NV", "phone": "+1 702-877-0814", "website": "https://www.usonv.com/providers/michael-finkelstein", "rating": 3.9, "reviews": 15, "place_id": "ChIJJ1ydSxHByIARiU-PePpHCIU", "latitude": 36.1620764, "longitude": -115.1685283, "subtypes": "Urologist"}, {"name": "David Ludlow", "address": "75o1, Trinity Peak Ave ste 100, Las Vegas, NV", "city": "Las Vegas", "state": "Nevada", "state_code": "NV", "phone": "+1 702-877-0814", "website": "", "rating": 5, "reviews": 4, "place_id": "ChIJP5VuvprqyIAR5Pwt-SqWZt8", "latitude": 36.2066363, "longitude": -115.2590513, "subtypes": "Urologist"}, {"name": "Las Vegas Urology: William Steinkohl MD", "address": "1701 N Green Valley Pkwy, Henderson, NV 89074", "city": "Henderson", "state": "Nevada", "state_code": "NV", "phone": "+1 702-896-9600", "website": "http://www.lasvegasurology.com/", "rating": 2.9, "reviews": 27, "place_id": "ChIJAU-GxNPRyIAR6_Y-bksF-Do", "latitude": 36.0354223, "longitude": -115.0854914, "subtypes": "Urologist"}, {"name": "Urology Specials of NV", "address": "4750 W Oakey Blvd suite 2b, Las Vegas, NV 89102", "city": "Las Vegas", "state": "Nevada", "state_code": "NV", "phone": "", "website": "", "rating": "", "reviews": "", "place_id": "ChIJ0w8sGADByIARVZ_cmg1t8h8", "latitude": 36.1522383, "longitude": -115.2064681, "subtypes": "Urology clinic"}, {"name": "Dr. Ranjit Jain, MD", "address": "700 Shadow Ln # 430, Las Vegas, NV 89106", "city": "Las Vegas", "state": "Nevada", "state_code": "NV", "phone": "+1 702-384-0500", "website": "", "rating": 5, "reviews": 2, "place_id": "ChIJAVxzMuvDyIAROgLbCS5KLNE", "latitude": 36.1620936, "longitude": -115.1657287, "subtypes": "Urologist"}, {"name": "Dr. Michael P. Verni, MD", "address": "653 N Town Center Dr # 302, Las Vegas, NV 89144", "city": "Las Vegas", "state": "Nevada", "state_code": "NV", "phone": "+1 702-212-3428", "website": "http://www.urologycenter-lasvegas.com/las_vegas_urology.html", "rating": 2.5, "reviews": 33, "place_id": "ChIJG8tE5cS_yIAR-h0e4Q0QgJk", "latitude": 36.1805637, "longitude": -115.3159257, "subtypes": "Urologist"}, {"name": "Las Vegas Urology", "address": "1701 N Green Valley Pkwy Suite 10C, Henderson, NV 89074", "city": "Henderson", "state": "Nevada", "state_code": "NV", "phone": "+1 702-896-9600", "website": "", "rating": 4.1, "reviews": 43, "place_id": "ChIJAU-GxNPRyIARaQ8aYqjS_v0", "latitude": 36.0353036, "longitude": -115.0854275, "subtypes": "Urology clinic"}, {"name": "Joseph V. Candela, MD", "address": "7500 Smoke Ranch Rd STE 200, Las Vegas, NV 89128", "city": "Las Vegas", "state": "Nevada", "state_code": "NV", "phone": "+1 702-385-4342", "website": "", "rating": 3, "reviews": 56, "place_id": "ChIJRXSQRCDAyIARlSWxl0HwQOQ", "latitude": 36.2038082, "longitude": -115.2578961, "subtypes": "Urologist"}, {"name": "Dr. James Plaire", "address": "3196 S Maryland Pkwy Ste 202, Las Vegas, NV 89109", "city": "Las Vegas", "state": "Nevada", "state_code": "NV", "phone": "+1 702-369-2993", "website": "https://cualv.com/team/james-chadwick-plaire/", "rating": 5, "reviews": 4, "place_id": "ChIJEw-2OovEyIARpnYtD1WndFc", "latitude": 36.131647, "longitude": -115.137753, "subtypes": "Urologist"}, {"name": "William R. Wise, MD, FACS", "address": "7500 Smoke Ranch Rd STE 200, Las Vegas, NV 89128", "city": "Las Vegas", "state": "Nevada", "state_code": "NV", "phone": "+1 702-385-4342", "website": "", "rating": 2.7, "reviews": 31, "place_id": "ChIJVxjGfijAyIAR3wbelDvFZNs", "latitude": 36.2038103, "longitude": -115.2579122, "subtypes": "Urologist"}, {"name": "Jason Zommick, M.D., F.A.C.S.", "address": "2010 Wellness Wy #200, Las Vegas, NV 89106", "city": "Las Vegas", "state": "Nevada", "state_code": "NV", "phone": "+1 702-877-0814", "website": "http://usonv.com/", "rating": 3.8, "reviews": 6, "place_id": "ChIJJ1ydSxHByIARV-8Ed5ZXskU", "latitude": 36.1620764, "longitude": -115.1685283, "subtypes": "Urologist"}, {"name": "Guillermo Patino, DO, FACS", "address": "7500 Smoke Ranch Rd STE 200, Las Vegas, NV 89128", "city": "Las Vegas", "state": "Nevada", "state_code": "NV", "phone": "+1 702-385-4342", "website": "", "rating": 3.5, "reviews": 19, "place_id": "ChIJXdJbS7HByIARzbDmwk3ryJ8", "latitude": 36.2038144, "longitude": -115.2578742, "subtypes": "Urologist"}, {"name": "Theodore Saitz", "address": "7150 W Sunset Rd #201A, Las Vegas, NV 891131981", "city": "Las Vegas", "state": "Nevada", "state_code": "NV", "phone": "+1 702-385-4342", "website": "", "rating": 5, "reviews": 1, "place_id": "ChIJq6rarbDHyIARmY7vMEMC06s", "latitude": 36.0709688, "longitude": -115.2475939, "subtypes": "Urologist"}, {"name": "Children's Urology Associates", "address": "653 N Town Center Dr #400, Las Vegas, NV 89144", "city": "Las Vegas", "state": "Nevada", "state_code": "NV", "phone": "+1 702-369-4999", "website": "http://cualv.com/", "rating": 2.6, "reviews": 11, "place_id": "ChIJG8tE5cS_yIARJCob-OIATnM", "latitude": 36.1805637, "longitude": -115.3159257, "subtypes": "Urology clinic"}, {"name": "Desert Urology", "address": "9280 W Sunset Rd, Las Vegas, NV 89148", "city": "Las Vegas", "state": "Nevada", "state_code": "NV", "phone": "+1 702-233-0727", "website": "", "rating": 2.3, "reviews": 3, "place_id": "ChIJTaCtyHy4yIARHIgy7F--0yc", "latitude": 36.0718295, "longitude": -115.2950205, "subtypes": "Urologist"}, {"name": "Dr. George Ganesan, MD", "address": "6670 S Tenaya Way #180, Las Vegas, NV 89113", "city": "Las Vegas", "state": "Nevada", "state_code": "NV", "phone": "+1 702-369-4999", "website": "", "rating": 2.7, "reviews": 7, "place_id": "ChIJl_2F-LjHyIARROEWf9ph88M", "latitude": 36.0669507, "longitude": -115.251234, "subtypes": "Urologist"}, {"name": "Dr. Vijay Goli, MD, FACS", "address": "7200 W Sunset Rd ste 202, Las Vegas, NV 89113", "city": "Las Vegas", "state": "Nevada", "state_code": "NV", "phone": "+1 702-909-7000", "website": "", "rating": 2.6, "reviews": 22, "place_id": "ChIJL5IaSCTByIARvo_TNPHuCVw", "latitude": 36.0708096, "longitude": -115.2498466, "subtypes": "Urologist"}, {"name": "Ganesan George S MD", "address": "3196 S Maryland Pkwy # 202A, Las Vegas, NV 89109", "city": "Las Vegas", "state": "Nevada", "state_code": "NV", "phone": "+1 702-369-4999", "website": "http://www.cualv.com/", "rating": 4.3, "reviews": 6, "place_id": "ChIJrWbKOovEyIARMuMXxRqlmS8", "latitude": 36.131647, "longitude": -115.137753, "subtypes": "Pediatric urologist"}, {"name": "Dr. John J. Dudek Jr, MD", "address": "2020 Goldring Ave, Las Vegas, NV 89106", "city": "Las Vegas", "state": "Nevada", "state_code": "NV", "phone": "+1 702-382-7055", "website": "", "rating": 4.1, "reviews": 9, "place_id": "ChIJu48SruvDyIARf9IcVfInEk0", "latitude": 36.1621264, "longitude": -115.1688092, "subtypes": "Urologist"}, {"name": "Dr. Casey Mccraw", "address": "7500 Smoke Ranch Rd STE 200, Las Vegas, NV 89128", "city": "Las Vegas", "state": "Nevada", "state_code": "NV", "phone": "+1 702-233-0727", "website": "https://lasvegasurology.com/people/casey-o-mccraw-md/", "rating": 1, "reviews": 1, "place_id": "ChIJ85LyTyDAyIARpnrih7dbwZk", "latitude": 36.2038103, "longitude": -115.2579122, "subtypes": "Urologist"}, {"name": "Vasectomy Pro", "address": "2440 W Horizon Ridge Pkwy #100, Henderson, NV 89052", "city": "Henderson", "state": "Nevada", "state_code": "NV", "phone": "+1 702-708-1857", "website": "https://www.vasectomypro.com/henderson", "rating": 5, "reviews": 225, "place_id": "ChIJZ89e4GW_yIARVV_rxCOSsNg", "latitude": 36.0065677, "longitude": -115.0927854, "subtypes": "Urologist"}, {"name": "Children's Urology Associates", "address": "6670 S Tenaya Way #180, Las Vegas, NV 89113", "city": "Las Vegas", "state": "Nevada", "state_code": "NV", "phone": "+1 702-369-4999", "website": "http://cualv.com/", "rating": 2.5, "reviews": 58, "place_id": "ChIJl_2F-LjHyIARJca1PqZ4gQQ", "latitude": 36.067234, "longitude": -115.2512969, "subtypes": "Pediatric urologist"}, {"name": "Vijay B. Goli, MD, FACS", "address": "7150 W Sunset Rd #201A, Las Vegas, NV 89113", "city": "Las Vegas", "state": "Nevada", "state_code": "NV", "phone": "+1 702-385-4342", "website": "", "rating": 3, "reviews": 45, "place_id": "ChIJO0FtUrfHyIARZ7iIIqQ8jVk", "latitude": 36.0709191, "longitude": -115.2476328, "subtypes": "Urologist"}, {"name": "David Miller, MD", "address": "7501 Trinity Peak Ave Suite 100, Las Vegas, NV 89128", "city": "Las Vegas", "state": "Nevada", "state_code": "NV", "phone": "+1 702-385-4342", "website": "https://davidtmillermd.com/", "rating": 4, "reviews": 4, "place_id": "ChIJM-ujJ3AO0mIRgcZRKSaNAII", "latitude": 36.2059362, "longitude": -115.2587507, "subtypes": "Urologist"}, {"name": "Avi Weiss", "address": "3150 N Tenaya Wy, Las Vegas, NV 89128", "city": "Las Vegas", "state": "Nevada", "state_code": "NV", "phone": "+1 702-877-0814", "website": "", "rating": "", "reviews": "", "place_id": "ChIJq6p6vprqyIARqk0uuptJTOU", "latitude": 36.2168087, "longitude": -115.2495388, "subtypes": "Urologist"}, {"name": "SARAH A. RYAN", "address": "620 Shadow Ln, Las Vegas, NV 891064119", "city": "Las Vegas", "state": "Nevada", "state_code": "NV", "phone": "+1 702-877-0814", "website": "", "rating": 1, "reviews": 3, "place_id": "ChIJ__-_wurDyIARDcOJfSOw9PY", "latitude": 36.1633772, "longitude": -115.1665905, "subtypes": "Urologist"}, {"name": "Las Vegas Prostate Cancer Center", "address": "7150 W Sunset Rd Suite 100, Las Vegas, NV 89113", "city": "Las Vegas", "state": "Nevada", "state_code": "NV", "phone": "+1 702-834-3961", "website": "", "rating": 3.1, "reviews": 28, "place_id": "ChIJO0FtUrfHyIARUeKMeRndX3I", "latitude": 36.0709711, "longitude": -115.247715, "subtypes": "Urologist"}, {"name": "Dr. Jayram Krishnan, DO, MBA", "address": "3131 La Canada St UNIT 217, Las Vegas, NV 89169", "city": "Las Vegas", "state": "Nevada", "state_code": "NV", "phone": "+1 702-796-8669", "website": "http://my.clevelandclinic.org/", "rating": 4.5, "reviews": 4, "place_id": "ChIJ2amM2ozEyIARhCMm6QVB-Dc", "latitude": 36.1326725, "longitude": -115.1331688, "subtypes": "Urologist"}, {"name": "DAVID V. LUDLOW", "address": "5400 S Rainbow Blvd, Las Vegas, NV 891181859", "city": "Las Vegas", "state": "Nevada", "state_code": "NV", "phone": "", "website": "", "rating": 1, "reviews": 1, "place_id": "ChIJ67ia4gDHyIARX41u9zGc8Ek", "latitude": 36.090141, "longitude": -115.2401806, "subtypes": "Urologist"}, {"name": "Ilya Gorbachinsky, MD", "address": "7150 W Sunset Rd suite 201a & 202b, Las Vegas, NV 89113", "city": "Las Vegas", "state": "Nevada", "state_code": "NV", "phone": "+1 702-385-4342", "website": "", "rating": 3.9, "reviews": 8, "place_id": "ChIJpz0ofXfHyIARETUh1VCANB4", "latitude": 36.0709191, "longitude": -115.2476328, "subtypes": "Urologist"}, {"name": "Dr. Scott A. Slavis, MD", "address": "2010 Wellness Wy #200, Las Vegas, NV 89106", "city": "Las Vegas", "state": "Nevada", "state_code": "NV", "phone": "+1 702-796-8669", "website": "", "rating": "", "reviews": "", "place_id": "ChIJVVVVVXTDyIARdXEQpWVQfXg", "latitude": 36.1620764, "longitude": -115.1685283, "subtypes": "Urologist"}, {"name": "Weiss Avi C MD", "address": "5701 W Charleston Blvd # 201, Las Vegas, NV 89146", "city": "Las Vegas", "state": "Nevada", "state_code": "NV", "phone": "+1 702-877-0814", "website": "http://usonv.com/", "rating": 2.3, "reviews": 6, "place_id": "ChIJJ1ydSxHByIARrGzPfgg5Jpo", "latitude": 36.1585977, "longitude": -115.2201099, "subtypes": "Urologist"}, {"name": "Dr. Robert B. McBeath", "address": "3150 N Tenaya Wy, Las Vegas, NV 89128", "city": "Las Vegas", "state": "Nevada", "state_code": "NV", "phone": "+1 702-877-0814", "website": "http://www.usonv.com/", "rating": "", "reviews": "", "place_id": "ChIJDZYWv5rqyIAR2AFHbxkwlTo", "latitude": 36.21666099999999, "longitude": -115.249417, "subtypes": "Urologist"}, {"name": "Dr. Gregorvia", "address": "Smoke Ranch Rd, Las Vegas, NV 89108", "city": "Las Vegas", "state": "Nevada", "state_code": "NV", "phone": "", "website": "", "rating": "", "reviews": "", "place_id": "ChIJL4HPxdHByIARvPrFugI8ZUc", "latitude": 36.203136, "longitude": -115.22833, "subtypes": "Urologist"}, {"name": "Las Vegas Urology", "address": "1397 S Loop Rd, Pahrump, NV 89048", "city": "Pahrump", "state": "Nevada", "state_code": "NV", "phone": "+1 702-316-1616", "website": "", "rating": "", "reviews": "", "place_id": "ChIJpQYR5UM5xoAR98_YWh-pKoc", "latitude": 36.199183, "longitude": -115.970345, "subtypes": "Urologist"}, {"name": "Dr. Kassahun", "address": "3150 N Tenaya Wy, Las Vegas, NV 89128", "city": "Las Vegas", "state": "Nevada", "state_code": "NV", "phone": "+1 702-877-0814", "website": "", "rating": "", "reviews": "", "place_id": "ChIJq6p6vprqyIAR47PSVYrhoso", "latitude": 36.2168087, "longitude": -115.2495388, "subtypes": "Urologist"}, {"name": "Dr. Mark E. Leo, MD", "address": "5701 W Charleston Blvd # 201, Las Vegas, NV 89146", "city": "Las Vegas", "state": "Nevada", "state_code": "NV", "phone": "+1 702-877-0814", "website": "http://usonv.com/", "rating": 3, "reviews": 2, "place_id": "ChIJJ1ydSxHByIARndTnr7y2xw8", "latitude": 36.1585044, "longitude": -115.2200856, "subtypes": "Urologist"}, {"name": "Dr. Robert A. Finelli, MD", "address": "3131 La Canada St, Las Vegas, NV 89169", "city": "Las Vegas", "state": "Nevada", "state_code": "NV", "phone": "+1 702-731-8115", "website": "http://sunrisehospital.com/", "rating": "", "reviews": "", "place_id": "ChIJ1SnR14zEyIARargfjxztfyA", "latitude": 36.1326668, "longitude": -115.1331864, "subtypes": "Urologist"}, {"name": "Urology Associates: Sparkuhl Alexander MD", "address": "700 Shadow Ln # 430, Las Vegas, NV 89106", "city": "Las Vegas", "state": "Nevada", "state_code": "NV", "phone": "+1 702-384-0500", "website": "", "rating": "", "reviews": "", "place_id": "ChIJAVxzMuvDyIARKbxWiprJsaA", "latitude": 36.1620936, "longitude": -115.1657287, "subtypes": "Urologist"}, {"name": "Dr. Jessica Casey", "address": "653 N Town Center Dr #400, Las Vegas, NV 89144", "city": "Las Vegas", "state": "Nevada", "state_code": "NV", "phone": "+1 702-369-4999", "website": "https://cualv.com/team/jessica-t-casey/", "rating": 5, "reviews": 1, "place_id": "ChIJ9_VE-8S_yIARrOM-tY3m0fI", "latitude": 36.1805637, "longitude": -115.3159257, "subtypes": "Pediatric urologist"}, {"name": "Steven B. Kurtz, MD", "address": "7150 W Sunset Rd suite 201a & 202b, Las Vegas, NV 89113", "city": "Las Vegas", "state": "Nevada", "state_code": "NV", "phone": "+1 702-385-4342", "website": "", "rating": 3.7, "reviews": 3, "place_id": "ChIJO0FtUrfHyIARIUpjgvQY9SA", "latitude": 36.0710487, "longitude": -115.2475738, "subtypes": "Urologist"}, {"name": "Dr. Andrew R. Grudzinski, MD", "address": "7500 Smoke Ranch Rd STE 200, Las Vegas, NV 89128", "city": "Las Vegas", "state": "Nevada", "state_code": "NV", "phone": "+1 702-385-4342", "website": "https://lasvegasurology.com/people/andrew-grudzinski-md/", "rating": 1, "reviews": 1, "place_id": "ChIJA4mYGpXByIARaZSyBIOCbRA", "latitude": 36.2038103, "longitude": -115.2579122, "subtypes": "Urologist"}, {"name": "Dr. Heather Barbier", "address": "1707 W Charleston Blvd #220, Las Vegas, NV 89102", "city": "Las Vegas", "state": "Nevada", "state_code": "NV", "phone": "+1 702-250-2500", "website": "", "rating": "", "reviews": "", "place_id": "ChIJDdKNJ5PDyIARNh2legM7R3U", "latitude": 36.1581055, "longitude": -115.1643467, "subtypes": "Urologist"}, {"name": "Dr. Ganesan Gnanasekaram", "address": "3201 S Maryland Pkwy, Las Vegas, NV 89109", "city": "Las Vegas", "state": "Nevada", "state_code": "NV", "phone": "+1 702-369-4999", "website": "", "rating": "", "reviews": "", "place_id": "ChIJEw-2OovEyIARfMq1LgAg5QY", "latitude": 36.1317294, "longitude": -115.1378817, "subtypes": "Urologist"}, {"name": "Dr. H. Tamiko Housley", "address": "5701 W Charleston Blvd # 201, Las Vegas, NV 89146", "city": "Las Vegas", "state": "Nevada", "state_code": "NV", "phone": "+1 702-877-0814", "website": "http://usonv.com/", "rating": "", "reviews": "", "place_id": "ChIJ42ryNRHByIARdN5zf906W7I", "latitude": 36.1585977, "longitude": -115.2201099, "subtypes": "Urologist"}, {"name": "Jeffrey Wilson", "address": "3150 N Tenaya Wy suite 165, Las Vegas, NV 891280462", "city": "Las Vegas", "state": "Nevada", "state_code": "NV", "phone": "+1 702-877-0814", "website": "", "rating": "", "reviews": "", "place_id": "ChIJP5VuvprqyIAR5RbJ5Xzh4Jk", "latitude": 36.2167902, "longitude": -115.2495565, "subtypes": "Urologist"}, {"name": "Dr. Mark E. Leo, MD", "address": "2010 Goldring Ave #200, Las Vegas, NV 89106", "city": "Las Vegas", "state": "Nevada", "state_code": "NV", "phone": "+1 702-877-0814", "website": "http://usonv.com/", "rating": "", "reviews": "", "place_id": "ChIJr7yYq-vDyIARRsx5KYBsaEI", "latitude": 36.162054, "longitude": -115.1684418, "subtypes": "Urologist"}, {"name": "Robert McBeath, M.D", "address": "5701 W Charleston Blvd # 201, Las Vegas, NV 89146", "city": "Las Vegas", "state": "Nevada", "state_code": "NV", "phone": "+1 702-877-0814", "website": "http://usonv.com/", "rating": 3, "reviews": 2, "place_id": "ChIJJ1ydSxHByIARzAmGeskUXH0", "latitude": 36.1585977, "longitude": -115.2201099, "subtypes": "Urologist"}, {"name": "Donald Hoard", "address": "3150 N Tenaya Wy, Las Vegas, NV 89128", "city": "Las Vegas", "state": "Nevada", "state_code": "NV", "phone": "+1 702-877-0814", "website": "", "rating": "", "reviews": "", "place_id": "ChIJq6p6vprqyIARy-8VsY1eN6c", "latitude": 36.2168087, "longitude": -115.2495388, "subtypes": "Urologist"}, {"name": "Dr. Marcus Erling", "address": "7455 W Washington Ave #301, Las Vegas, NV 89128", "city": "Las Vegas", "state": "Nevada", "state_code": "NV", "phone": "+1 702-732-3441", "website": "http://www.lmclabs.com/", "rating": "", "reviews": "", "place_id": "ChIJVf6uvkPAyIAR44Pa4MVy03U", "latitude": 36.1792124, "longitude": -115.2559415, "subtypes": "Urologist"}, {"name": "Dr. Ilya Gorbachinsky", "address": "7500 Smoke Ranch Rd STE 200, Las Vegas, NV 89128", "city": "Las Vegas", "state": "Nevada", "state_code": "NV", "phone": "+1 702-223-0727", "website": "", "rating": "", "reviews": "", "place_id": "ChIJ85LyTyDAyIARy7yMwMj2PAk", "latitude": 36.2038103, "longitude": -115.2579122, "subtypes": "Urologist"}, {"name": "Dr. Duojia Cooney", "address": "5701 W Charleston Blvd, Las Vegas, NV 89146", "city": "Las Vegas", "state": "Nevada", "state_code": "NV", "phone": "+1 702-877-0814", "website": "http://usonv.com/", "rating": "", "reviews": "", "place_id": "ChIJtUB4SxHByIARqwmQLL3vhPI", "latitude": 36.1585669, "longitude": -115.2200684, "subtypes": "Urologist"}, {"name": "Jeffrey M. Zapinsky, MD, FACS", "address": "2310 Corporate Cir Suite 200, Henderson, NV 89074", "city": "Henderson", "state": "Nevada", "state_code": "NV", "phone": "+1 702-385-4342", "website": "", "rating": 3.8, "reviews": 22, "place_id": "ChIJAU-GxNPRyIAR2_jBd7_f2wo", "latitude": 36.0253881, "longitude": -115.0912021, "subtypes": "Urologist"}, {"name": "Victor Grigoriev", "address": "7150 W Sunset Rd #201A, Las Vegas, NV 89113", "city": "Las Vegas", "state": "Nevada", "state_code": "NV", "phone": "+1 702-233-0727", "website": "", "rating": "", "reviews": "", "place_id": "ChIJq6rarbDHyIARXy35l7-L7-E", "latitude": 36.0709688, "longitude": -115.2475939, "subtypes": "Urologist"}, {"name": "Urology Limited", "address": "8915 S Pecos Rd, Henderson, NV 89074", "city": "Henderson", "state": "Nevada", "state_code": "NV", "phone": "+1 702-563-0698", "website": "", "rating": "", "reviews": "", "place_id": "ChIJEzDXei_OyIAR40QtklX7sdE", "latitude": 36.0272554, "longitude": -115.1022543, "subtypes": "Urology clinic"}, {"name": "Candela Joseph V MD", "address": "7150 W Sunset Rd #201A, Las Vegas, NV 89113", "city": "Las Vegas", "state": "Nevada", "state_code": "NV", "phone": "+1 702-233-0727", "website": "http://lasvegasurology.com/", "rating": "", "reviews": "", "place_id": "ChIJ6wGCTbfHyIAR1Z4v8l7apUU", "latitude": 36.0709711, "longitude": -115.2477149, "subtypes": "Urologist"}, {"name": "Dr. Casey McCraw MD", "address": "2310 Corporate Cir, Henderson, NV 89074", "city": "Henderson", "state": "Nevada", "state_code": "NV", "phone": "+1 702-341-9000", "website": "https://drcaseymccraw.com/", "rating": 3.9, "reviews": 17, "place_id": "ChIJL7tcMwnPyIARv_sT6oDk2Rs", "latitude": 36.0253881, "longitude": -115.0912021, "subtypes": "Urologist"}, {"name": "American Academy Of Urology", "address": "9053 S Pecos Rd, Henderson, NV 89074", "city": "Henderson", "state": "Nevada", "state_code": "NV", "phone": "+1 702-735-8000", "website": "", "rating": 1, "reviews": 1, "place_id": "ChIJq2_wzyXOyIAR2KmEd1B359g", "latitude": 36.0252425, "longitude": -115.1013822, "subtypes": "Urology clinic"}, {"name": "Scott L.Baranoff, MD, FACS", "address": "2310 Corporate Cir Suite 200, Henderson, NV 89074", "city": "Henderson", "state": "Nevada", "state_code": "NV", "phone": "+1 702-385-4342", "website": "", "rating": 3, "reviews": 13, "place_id": "ChIJq2_wzyXOyIAR-eqh5WETbCQ", "latitude": 36.0254429, "longitude": -115.0906165, "subtypes": "Urologist"}, {"name": "David Abramowitz", "address": "7500 Smoke Ranch Rd STE 200, Las Vegas, NV 89128", "city": "Las Vegas", "state": "Nevada", "state_code": "NV", "phone": "+1 626-359-8111", "website": "", "rating": "", "reviews": "", "place_id": "ChIJ85LyTyDAyIAR3IL0jWH76gg", "latitude": 36.2038103, "longitude": -115.2579122, "subtypes": "Urologist"}, {"name": "David Ludlow", "address": "1800 W Charleston Blvd, Las Vegas, NV 89102", "city": "Las Vegas", "state": "Nevada", "state_code": "NV", "phone": "+1 702-280-5937", "website": "", "rating": "", "reviews": "", "place_id": "ChIJAQDAnOzDyIARFRxzuEilnI0", "latitude": 36.1597127, "longitude": -115.1673316, "subtypes": "Urologist"}, {"name": "Sela Zvi MD", "address": "330 Lola Ln #100, Pahrump, NV 89048", "city": "Pahrump", "state": "Nevada", "state_code": "NV", "phone": "+1 702-877-1887", "website": "", "rating": 4.5, "reviews": 2, "place_id": "ChIJlfO7KMI3xoARbXRL0Csg0K4", "latitude": 36.2150683, "longitude": -116.02377, "subtypes": "Urologist"}, {"name": "Mirfendereski Seyedqumars MD", "address": "330 Lola Ln #100, Pahrump, NV 89048", "city": "Pahrump", "state": "Nevada", "state_code": "NV", "phone": "+1 702-877-1887", "website": "", "rating": "", "reviews": "", "place_id": "ChIJlfO7KMI3xoARqtOyZoWgkpo", "latitude": 36.2150683, "longitude": -116.02377, "subtypes": "Urologist"}, {"name": "Reinkemeyer Joseph A MD", "address": "699 Sierra Rose Dr A, Reno, NV 89511", "city": "Reno", "state": "Nevada", "state_code": "NV", "phone": "+1 775-689-3737", "website": "", "rating": "", "reviews": "", "place_id": "ChIJBTsGo3JAmYARmbfaV9WGR_o", "latitude": 39.47468, "longitude": -119.799945, "subtypes": "Urologist"}, {"name": "Dr. Mark E. Leo, MD", "address": "56 N Pecos Rd, Henderson, NV 89074", "city": "Henderson", "state": "Nevada", "state_code": "NV", "phone": "+1 702-877-0814", "website": "http://usonv.com/", "rating": "", "reviews": "", "place_id": "ChIJmy2STCnOyIAR160IuazpiaQ", "latitude": 36.031547, "longitude": -115.0996973, "subtypes": "Urologist"}, {"name": "Dr. Ilya Gorbachinsky", "address": "1701 N Green Valley Pkwy Suite 10C, Henderson, NV 89074", "city": "Henderson", "state": "Nevada", "state_code": "NV", "phone": "+1 702-233-0727", "website": "", "rating": "", "reviews": "", "place_id": "ChIJVYMz2NPRyIAR10HpajNzJ78", "latitude": 36.0356324, "longitude": -115.0859574, "subtypes": "Urologist"}, {"name": "Freedman Urology", "address": "653 N Town Center Dr #308, Las Vegas, NV 89144", "city": "Las Vegas", "state": "Nevada", "state_code": "NV", "phone": "+1 702-732-0282", "website": "https://www.freedmanurology.com/", "rating": 3, "reviews": 4, "place_id": "ChIJD5SeISS_yIARTTAjn3tTqcQ", "latitude": 36.180788, "longitude": -115.3155206, "subtypes": "Urologist"}, {"name": "Dr. George S. Ganesan, MD, FAAP, FACS", "address": "653 N Town Center Dr # 114, Las Vegas, NV 89144", "city": "Las Vegas", "state": "Nevada", "state_code": "NV", "phone": "+1 702-369-4999", "website": "http://cualv.com/team/george-ganesan/", "rating": 3.7, "reviews": 3, "place_id": "ChIJG8tE5cS_yIARYOkm0Nds9BI", "latitude": 36.180586, "longitude": -115.3158256, "subtypes": "Pediatric urologist"}, {"name": "David Ludlow", "address": "56 N Pecos Rd Ste B, Henderson, NV 89074", "city": "Henderson", "state": "Nevada", "state_code": "NV", "phone": "+1 702-877-0814", "website": "", "rating": 5, "reviews": 1, "place_id": "ChIJRzBATCnOyIARFWg_4y3QTYk", "latitude": 36.0315478, "longitude": -115.0997065, "subtypes": "Urologist"}, {"name": "Dr. Ilya Gorbachinsky", "address": "2310 Corporate Cir Suite 200, Henderson, NV 89074", "city": "Henderson", "state": "Nevada", "state_code": "NV", "phone": "+1 702-233-0727", "website": "", "rating": 3.3, "reviews": 8, "place_id": "ChIJKWJBZC_OyIARC6pWeq3LaEA", "latitude": 36.0254429, "longitude": -115.0906165, "subtypes": "Urologist"}, {"name": "Dr. Guillermo Patino", "address": "1701 N Green Valley Pkwy Suite 10C, Henderson, NV 89074", "city": "Henderson", "state": "Nevada", "state_code": "NV", "phone": "+1 702-233-0727", "website": "", "rating": 1, "reviews": 2, "place_id": "ChIJVYMz2NPRyIARf0e7oYieZwM", "latitude": 36.0353049, "longitude": -115.0854332, "subtypes": "Urologist"}, {"name": "Dr. Mulugeta D. Kassahun, MD", "address": "56 N Pecos Rd, Henderson, NV 89074", "city": "Henderson", "state": "Nevada", "state_code": "NV", "phone": "+1 702-877-0814", "website": "http://usonv.com/", "rating": 2.5, "reviews": 8, "place_id": "ChIJmy2STCnOyIARSdmJpOM_JBw", "latitude": 36.0315556, "longitude": -115.0996371, "subtypes": "Urologist"}, {"name": "Nevada Kidney Disease And Hypertension Center", "address": "6330 S Pecos Rd, Las Vegas, NV 89120", "city": "Las Vegas", "state": "Nevada", "state_code": "NV", "phone": "", "website": "", "rating": 5, "reviews": 1, "place_id": "ChIJ-b9Er_7PyIAROT4Wic1UoOQ", "latitude": 36.0740043, "longitude": -115.0993266, "subtypes": "Pediatric urologist"}, {"name": "S", "address": "2245 Renaissance Dr, Las Vegas, NV 89119", "city": "Las Vegas", "state": "Nevada", "state_code": "NV", "phone": "+1 725-265-1401", "website": "", "rating": 3.7, "reviews": 3, "place_id": "ChIJvTunglDFyIAReKWrAhja5RM", "latitude": 36.1023799, "longitude": -115.122051, "subtypes": "Urologist"}, {"name": "Tisha Muraoka, APN", "address": "653 N Town Center Dr # 114, Las Vegas, NV 89144", "city": "Las Vegas", "state": "Nevada", "state_code": "NV", "phone": "+1 702-369-4999", "website": "http://cualv.com/", "rating": "", "reviews": "", "place_id": "ChIJG8tE5cS_yIAREXxo59nseJU", "latitude": 36.180586, "longitude": -115.3158256, "subtypes": "Pediatric urologist"}, {"name": "Joseph Candela", "address": "9053 S Pecos Rd Suite 2900, Henderson, NV 89074", "city": "Henderson", "state": "Nevada", "state_code": "NV", "phone": "+1 702-233-0727", "website": "", "rating": 5, "reviews": 1, "place_id": "ChIJBaOWuCXOyIAR_16Y1sXOyuQ", "latitude": 36.0252281, "longitude": -115.101525, "subtypes": "Urologist"}, {"name": "Children's Urology Associates", "address": "2637 W Horizon Ridge Pkwy STE 140, Henderson, NV 89052", "city": "Henderson", "state": "Nevada", "state_code": "NV", "phone": "+1 702-369-4999", "website": "http://www.cualv.com/", "rating": 2.9, "reviews": 9, "place_id": "ChIJAU-GxNPRyIARIETVx-y_b2o", "latitude": 35.99996489999999, "longitude": -115.1013457, "subtypes": "Urology clinic"}, {"name": "Guillermo Patino, DO, FACS", "address": "2310 Corporate Cir Suite 200, Henderson, NV 89074", "city": "Henderson", "state": "Nevada", "state_code": "NV", "phone": "+1 702-735-8000", "website": "", "rating": 2, "reviews": 1, "place_id": "ChIJsbIHl-3RyIAR6TiofOvJxq0", "latitude": 36.0254429, "longitude": -115.0906165, "subtypes": "Urologist"}, {"name": "Dr. Michael P. Finkelstein, MD", "address": "56 N Pecos Rd Ste B, Henderson, NV 89074", "city": "Henderson", "state": "Nevada", "state_code": "NV", "phone": "+1 702-877-0814", "website": "http://usonv.com/", "rating": 3.5, "reviews": 11, "place_id": "ChIJmy2STCnOyIAR3xCgJijlY6Q", "latitude": 36.031547, "longitude": -115.0996973, "subtypes": "Urologist"}, {"name": "Wise William R MD", "address": "1701 N Green Valley Pkwy # 10C, Henderson, NV 89074", "city": "Henderson", "state": "Nevada", "state_code": "NV", "phone": "+1 702-341-9000", "website": "http://www.lasvegasurology.com/", "rating": 1, "reviews": 2, "place_id": "ChIJzQ7TgtHRyIAR_laao6EntgE", "latitude": 36.0350814, "longitude": -115.0849608, "subtypes": "Urologist"}, {"name": "Jason Orien, MD", "address": "58 N Pecos Rd, Henderson, NV 89074", "city": "Henderson", "state": "Nevada", "state_code": "NV", "phone": "+1 702-877-0814", "website": "https://www.jorienmd.com/", "rating": "", "reviews": "", "place_id": "ChIJAY_SnFXPyIAREa51S2bQTGM", "latitude": 36.0316001, "longitude": -115.0992803, "subtypes": "Urologist"}, {"name": "Dr. Douglas Debenham", "address": "1701 N Green Valley Pkwy Suite 10C, Henderson, NV 89074", "city": "Henderson", "state": "Nevada", "state_code": "NV", "phone": "+1 702-834-3961", "website": "", "rating": "", "reviews": "", "place_id": "ChIJVYMz2NPRyIARZc9vweJGryk", "latitude": 36.0356324, "longitude": -115.0859574, "subtypes": "Urologist"}, {"name": "Dr. Robert B. Mcbeath, MD", "address": "56 N Pecos Rd, Henderson, NV 89074", "city": "Henderson", "state": "Nevada", "state_code": "NV", "phone": "+1 702-877-0814", "website": "http://usonv.com/", "rating": "", "reviews": "", "place_id": "ChIJmy2STCnOyIARtcI3kj91ais", "latitude": 36.031547, "longitude": -115.0996973, "subtypes": "Urologist"}, {"name": "LANETTE RICKBORN", "address": "10001 S Eastern Ave, Henderson, NV 89052", "city": "Henderson", "state": "Nevada", "state_code": "NV", "phone": "", "website": "", "rating": "", "reviews": "", "place_id": "ChIJAQAwUhLOyIARTX9lBnMX0vc", "latitude": 36.0059643, "longitude": -115.1141982, "subtypes": "Urologist"}, {"name": "Vijay Goli", "address": "1701 N Green Valley Pkwy Suite 10C, Henderson, NV 89074", "city": "Henderson", "state": "Nevada", "state_code": "NV", "phone": "+1 702-233-0727", "website": "", "rating": "", "reviews": "", "place_id": "ChIJVYMz2NPRyIAR2r6Ji_8Hj3M", "latitude": 36.0356324, "longitude": -115.0859574, "subtypes": "Urologist"}, {"name": "William Steinkohl", "address": "9053 S Pecos Rd Suite 2900, Henderson, NV 89074", "city": "Henderson", "state": "Nevada", "state_code": "NV", "phone": "+1 702-735-8000", "website": "", "rating": "", "reviews": "", "place_id": "ChIJBaOWuCXOyIARH-nuOWyVaDM", "latitude": 36.0252281, "longitude": -115.101525, "subtypes": "Urologist"}, {"name": "Vijay Goli", "address": "9053 S Pecos Rd Suite 2900, Henderson, NV 89074", "city": "Henderson", "state": "Nevada", "state_code": "NV", "phone": "+1 702-385-4342", "website": "", "rating": "", "reviews": "", "place_id": "ChIJBaOWuCXOyIAROqT3ZSHwzlg", "latitude": 36.0252281, "longitude": -115.101525, "subtypes": "Urologist"}, {"name": "Capitol Urology", "address": "925 Ironwood Dr, Minden, NV 89423", "city": "Minden", "state": "Nevada", "state_code": "NV", "phone": "+1 775-782-3061", "website": "", "rating": 4, "reviews": 1, "place_id": "ChIJ25PmRYO9mYAR836e9eG8efs", "latitude": 38.9626214, "longitude": -119.7782591, "subtypes": "Urology clinic"}, {"name": "Carson Urologists", "address": "1677 Lucerne St, Minden, NV 89423", "city": "Minden", "state": "Nevada", "state_code": "NV", "phone": "+1 775-883-1030", "website": "http://carsonurologists.com/", "rating": 1, "reviews": 3, "place_id": "ChIJL6T7D5q9mYARyCBx5ghzl6w", "latitude": 38.9595972, "longitude": -119.7722122, "subtypes": "Urology clinic"}, {"name": "Dr. James A. Cunningham, MD", "address": "897 Ironwood Dr, Minden, NV 89423", "city": "Minden", "state": "Nevada", "state_code": "NV", "phone": "+1 775-782-1610", "website": "https://www.carsonvalleyhealth.org/latest-news/blog/2022/november/cvmc-welcomes-james-cunningham-md-to-ironwood-sp/", "rating": 3, "reviews": 6, "place_id": "ChIJy3UiaykLmYAR3cH2Cqc53Tg", "latitude": 38.963945, "longitude": -119.77826, "subtypes": "Urologist"}, {"name": "Randall Nixon, MD", "address": "1677 Lucerne St, Minden, NV 89423", "city": "Minden", "state": "Nevada", "state_code": "NV", "phone": "+1 775-445-6680", "website": "https://www.carsontahoe.com/randall-nixon-md.html", "rating": 3, "reviews": 2, "place_id": "ChIJL6T7D5q9mYARUzNQ0SGnl3g", "latitude": 38.9595972, "longitude": -119.7722122, "subtypes": "Urologist"}, {"name": "Jeffrey Upton, MD", "address": "1677 Lucerne St, Minden, NV 89423", "city": "Minden", "state": "Nevada", "state_code": "NV", "phone": "+1 775-445-6680", "website": "https://www.carsontahoe.com/jeffrey-upton-md.html", "rating": "", "reviews": "", "place_id": "ChIJefWMKCuBmIART2nM0zHP8fQ", "latitude": 38.9596112, "longitude": -119.7722382, "subtypes": "Urologist"}, {"name": "Dr. Roland N. Chen, MD", "address": "1677 Lucerne St, Minden, NV 89423", "city": "Minden", "state": "Nevada", "state_code": "NV", "phone": "+1 775-883-1030", "website": "", "rating": "", "reviews": "", "place_id": "ChIJL6T7D5q9mYARPY2JCx00VMg", "latitude": 38.9595972, "longitude": -119.7722122, "subtypes": "Urologist"}, {"name": "Ryan Powers, DO", "address": "1677 Lucerne St, Minden, NV 89423", "city": "Minden", "state": "Nevada", "state_code": "NV", "phone": "+1 775-445-6680", "website": "https://www.carsontahoe.com/ryan-powers.html", "rating": "", "reviews": "", "place_id": "ChIJcRRmHNi9mYARw0rKWKTfyXo", "latitude": 38.9596112, "longitude": -119.7722382, "subtypes": "Urologist"}, {"name": "Craig Hunter", "address": "2310 Corporate Cir Suite 200, Henderson, NV 89074", "city": "Henderson", "state": "Nevada", "state_code": "NV", "phone": "+1 702-877-0814", "website": "", "rating": 3, "reviews": 6, "place_id": "ChIJP5VuvprqyIARugrOuzoE_f4", "latitude": 36.0254429, "longitude": -115.0906165, "subtypes": "Urologist"}, {"name": "Jeffrey Zapinsky", "address": "8915 S Pecos Rd Suite 19A, Henderson, NV 89074", "city": "Henderson", "state": "Nevada", "state_code": "NV", "phone": "+1 702-233-0727", "website": "", "rating": 2.3, "reviews": 3, "place_id": "ChIJKWJBZC_OyIARzLw5KzclaMM", "latitude": 36.0272357, "longitude": -115.1019437, "subtypes": "Urologist"}, {"name": "Larsen Laurie D MD", "address": "100 N Green Valley Pkwy #310, Henderson, NV 89074", "city": "Henderson", "state": "Nevada", "state_code": "NV", "phone": "+1 702-990-0330", "website": "", "rating": "", "reviews": "", "place_id": "ChIJO6VNXtvRyIARI9szT1daNEs", "latitude": 36.0257751, "longitude": -115.0839881, "subtypes": "Urologist"}, {"name": "Dr. Eliot M. Horowitz, MD", "address": "9053 S Pecos Rd Suite 2900, Henderson, NV 89074", "city": "Henderson", "state": "Nevada", "state_code": "NV", "phone": "+1 702-735-3555", "website": "", "rating": "", "reviews": "", "place_id": "ChIJq2_wzyXOyIARZgpSLmI1TmI", "latitude": 36.0252476, "longitude": -115.1013299, "subtypes": "Urologist"}, {"name": "Jason Orien", "address": "8410 W Warm Springs Rd, Las Vegas, NV 89113", "city": "Las Vegas", "state": "Nevada", "state_code": "NV", "phone": "", "website": "", "rating": 5, "reviews": 1, "place_id": "ChIJVVWFr_PHyIARsI0ELacAxSY", "latitude": 36.0562973, "longitude": -115.2755301, "subtypes": "Urologist"}, {"name": "Carson Urology", "address": "801 E Williams Ave Suite 3310, Fallon, NV 89406", "city": "Fallon", "state": "Nevada", "state_code": "NV", "phone": "+1 775-423-9244", "website": "", "rating": 5, "reviews": 1, "place_id": "ChIJefWMKCuBmIARPUeVzPFbtUo", "latitude": 39.476247, "longitude": -118.765865, "subtypes": "Urologist"}, {"name": "Brian Montgomery", "address": "801 E Williams Ave, Fallon, NV 89406", "city": "Fallon", "state": "Nevada", "state_code": "NV", "phone": "+1 775-883-1030", "website": "", "rating": "", "reviews": "", "place_id": "ChIJURhXMiuBmIARhYFhJ9YA6GI", "latitude": 39.4766121, "longitude": -118.7662421, "subtypes": "Urologist"}, {"name": "Dr. Roland N. Chen, MD", "address": "801 E Williams Ave, Fallon, NV 89406", "city": "Fallon", "state": "Nevada", "state_code": "NV", "phone": "+1 775-423-6273", "website": "", "rating": "", "reviews": "", "place_id": "ChIJefWMKCuBmIARjD_UQuVQS84", "latitude": 39.4764965, "longitude": -118.7661321, "subtypes": "Urologist"}, {"name": "Riesenberg Daniel MD", "address": "1041 Bayhead Ct, Las Vegas, NV 89138", "city": "Las Vegas", "state": "Nevada", "state_code": "NV", "phone": "+1 702-233-2678", "website": "", "rating": "", "reviews": "", "place_id": "ChIJw-fHL0--yIARTJ1VTk1wlRI", "latitude": 36.1611389, "longitude": -115.3407448, "subtypes": "Urologist"}, {"name": "Crowley Jim D MD", "address": "653 N Town Center Dr, Las Vegas, NV 89144", "city": "Las Vegas", "state": "Nevada", "state_code": "NV", "phone": "+1 702-212-3428", "website": "", "rating": "", "reviews": "", "place_id": "ChIJG8tE5cS_yIARSSHHOXOEY-E", "latitude": 36.180586, "longitude": -115.3158256, "subtypes": "Urologist"}, {"name": "Kanellos Angelo W MD", "address": "5560 Kietzke Ln, Reno, NV 89511", "city": "Reno", "state": "Nevada", "state_code": "NV", "phone": "+1 775-322-7811", "website": "http://www.urologynevada.com/", "rating": 4.9, "reviews": 220, "place_id": "ChIJ78LGgBwVmYAR6MF5SmnDy18", "latitude": 39.4641324, "longitude": -119.7875537, "subtypes": "Urologist"}, {"name": "Las Vegas Urology", "address": "7500 Smoke Ranch Rd STE 200, Las Vegas, NV 89128", "city": "Las Vegas", "state": "Nevada", "state_code": "NV", "phone": "+1 702-385-4342", "website": "", "rating": 4.5, "reviews": 3939, "place_id": "ChIJRXSQRCDAyIARkc1jzroOOmw", "latitude": 36.2039093, "longitude": -115.257924, "subtypes": "Urology clinic"}, {"name": "Las Vegas Urology", "address": "7150 W Sunset Rd #201A, Las Vegas, NV 89113", "city": "Las Vegas", "state": "Nevada", "state_code": "NV", "phone": "+1 702-385-4342", "website": "", "rating": 4.6, "reviews": 2400, "place_id": "ChIJr0FtUrfHyIARWDCVIYm-Oqs", "latitude": 36.0709191, "longitude": -115.2476328, "subtypes": "Urology clinic"}, {"name": "Urology Specialists of Nevada", "address": "3150 N Tenaya Wy suite 165, Las Vegas, NV 89128", "city": "Las Vegas", "state": "Nevada", "state_code": "NV", "phone": "+1 702-877-0814", "website": "http://usonv.com/", "rating": 2.1, "reviews": 59, "place_id": "ChIJDZYWv5rqyIAR-lP8GFy5GFs", "latitude": 36.2167718, "longitude": -115.2495742, "subtypes": "Urology clinic"}, {"name": "Las Vegas Vasectomy", "address": "9280 W Sunset Rd #400, Las Vegas, NV 89148", "city": "Las Vegas", "state": "Nevada", "state_code": "NV", "phone": "+1 702-293-0176", "website": "http://www.lasvegasvasectomy.com/", "rating": 5, "reviews": 69, "place_id": "ChIJgbe2yJ_AyIARLoEFtbJapuQ", "latitude": 36.071835, "longitude": -115.2947321, "subtypes": "Urology clinic"}, {"name": "Las Vegas Urology", "address": "3150 N Tenaya Wy #480, Las Vegas, NV 89128", "city": "Las Vegas", "state": "Nevada", "state_code": "NV", "phone": "+1 702-577-0024", "website": "", "rating": 4.4, "reviews": 181, "place_id": "ChIJVxjGfijAyIARSlASdmQ5NkE", "latitude": 36.2167567, "longitude": -115.2494756, "subtypes": "Urology clinic"}, {"name": "Lawrence H. Newman, MD", "address": "7150 W Sunset Rd Suite 202b, Las Vegas, NV 89113", "city": "Las Vegas", "state": "Nevada", "state_code": "NV", "phone": "+1 702-385-4342", "website": "https://lasvegasurology.com/", "rating": 4.5, "reviews": 323, "place_id": "ChIJnYNUKbbHyIARlUCYl8fRr1s", "latitude": 36.0709711, "longitude": -115.2477149, "subtypes": "Urologist"}, {"name": "Pacific West Urology", "address": "4425 S Pecos Rd, Las Vegas, NV 89121", "city": "Las Vegas", "state": "Nevada", "state_code": "NV", "phone": "+1 725-225-5575", "website": "http://www.pacificwesturology.com/", "rating": 4.7, "reviews": 279, "place_id": "ChIJn1SCKKrByIARXiDmW0uH59o", "latitude": 36.1090277, "longitude": -115.1013188, "subtypes": "Urology clinic"}, {"name": "Dr. Mulugeta D. Kassahun, MD", "address": "2010 Wellness Wy #200, Las Vegas, NV 89106", "city": "Las Vegas", "state": "Nevada", "state_code": "NV", "phone": "+1 702-877-0814", "website": "https://www.usonv.com/providers/mulugeta-kassahun", "rating": 3.2, "reviews": 36, "place_id": "ChIJJ1ydSxHByIARemJcKSRebKk", "latitude": 36.1620764, "longitude": -115.1685283, "subtypes": "Urologist"}, {"name": "Joel Abbott", "address": "4425 S Pecos Rd, Las Vegas, NV 89121", "city": "Las Vegas", "state": "Nevada", "state_code": "NV", "phone": "+1 725-225-5575", "website": "http://www.pacificwesturology.com/", "rating": 4, "reviews": 20, "place_id": "ChIJK3jr9wfByIAR_RR3p1FYkMA", "latitude": 36.1090277, "longitude": -115.1013188, "subtypes": "Urologist"}, {"name": "Dr. Sheldon J. Freedman MD LTD", "address": "653 N Town Center Dr #308, Las Vegas, NV 89144", "city": "Las Vegas", "state": "Nevada", "state_code": "NV", "phone": "+1 702-732-0282", "website": "http://www.freedmanurology.com/", "rating": 4.8, "reviews": 890, "place_id": "ChIJGxmsyHy4yIARqV7o7zzi1_w", "latitude": 36.1806759, "longitude": -115.3157231, "subtypes": "Urologist"}, {"name": "Las Vegas Urology", "address": "1397 S Loop Rd, Pahrump, NV 89048", "city": "Pahrump", "state": "Nevada", "state_code": "NV", "phone": "+1 702-316-1616", "website": "", "rating": "", "reviews": "", "place_id": "ChIJpQYR5UM5xoAR98_YWh-pKoc", "latitude": 36.199183, "longitude": -115.970345, "subtypes": "Urologist"}, {"name": "Urology Specialists of Nevada", "address": "58 N Pecos Rd, Henderson, NV 89074", "city": "Henderson", "state": "Nevada", "state_code": "NV", "phone": "+1 702-877-0814", "website": "http://usonv.com/", "rating": 2, "reviews": 71, "place_id": "ChIJo5GhTinOyIAR61DyI8DOwSc", "latitude": 36.0315895, "longitude": -115.0991058, "subtypes": "Urology clinic"}, {"name": "Dr. Victor E. Grigoriev", "address": "7500 Smoke Ranch Rd STE 200, Las Vegas, NV 89128", "city": "Las Vegas", "state": "Nevada", "state_code": "NV", "phone": "+1 702-233-0727", "website": "https://drgrigoriev.com/location/", "rating": 4.3, "reviews": 358, "place_id": "ChIJRXSQRCDAyIARVdXOuKGK85U", "latitude": 36.2038144, "longitude": -115.2578742, "subtypes": "Urologist"}, {"name": "Urology Specialists of Nevada", "address": "2010 Wellness Way, Suite 200, Las Vegas, NV 89106", "city": "Las Vegas", "state": "Nevada", "state_code": "NV", "phone": "+1 702-877-0814", "website": "http://www.usonv.com/", "rating": 2.6, "reviews": 54, "place_id": "ChIJtUB4SxHByIARSYyt0R_tbGQ", "latitude": 36.162049, "longitude": -115.168456, "subtypes": "Urology clinic"}, {"name": "Newman Urology", "address": "7150 W Sunset Rd #201A, Las Vegas, NV 89113", "city": "Las Vegas", "state": "Nevada", "state_code": "NV", "phone": "+1 702-948-1199", "website": "https://newmanurology.com/", "rating": 3.5, "reviews": 25, "place_id": "ChIJq3xJUgHHyIARt20ivmDdlhc", "latitude": 36.0709191, "longitude": -115.2476328, "subtypes": "Urologist"}, {"name": "Joseph V. Candela, MD", "address": "7500 Smoke Ranch Rd STE 200, Las Vegas, NV 89128", "city": "Las Vegas", "state": "Nevada", "state_code": "NV", "phone": "+1 702-385-4342", "website": "", "rating": 3, "reviews": 56, "place_id": "ChIJRXSQRCDAyIARlSWxl0HwQOQ", "latitude": 36.2038082, "longitude": -115.2578961, "subtypes": "Urologist"}, {"name": "Dr. Vijay Goli, MD, FACS", "address": "7200 W Sunset Rd ste 202, Las Vegas, NV 89113", "city": "Las Vegas", "state": "Nevada", "state_code": "NV", "phone": "+1 702-909-7000", "website": "", "rating": 2.6, "reviews": 22, "place_id": "ChIJL5IaSCTByIARvo_TNPHuCVw", "latitude": 36.0708096, "longitude": -115.2498466, "subtypes": "Urologist"}, {"name": "Jason Orien, MD", "address": "3150 N Tenaya Wy suite 165, Las Vegas, NV 89128", "city": "Las Vegas", "state": "Nevada", "state_code": "NV", "phone": "+1 702-877-0817", "website": "https://www.jorienmd.com/", "rating": 5, "reviews": 9, "place_id": "ChIJc3WAdUbDyIAR4jybHgeB8CI", "latitude": 36.2167902, "longitude": -115.2495565, "subtypes": "Urologist"}, {"name": "Vijay B. Goli, MD, FACS", "address": "7150 W Sunset Rd #201A, Las Vegas, NV 89113", "city": "Las Vegas", "state": "Nevada", "state_code": "NV", "phone": "+1 702-385-4342", "website": "", "rating": 3, "reviews": 45, "place_id": "ChIJO0FtUrfHyIARZ7iIIqQ8jVk", "latitude": 36.0709191, "longitude": -115.2476328, "subtypes": "Urologist"}, {"name": "Carson Tahoe Urology", "address": "1425 Vista Ln, Carson City, NV 89703", "city": "Carson City", "state": "Nevada", "state_code": "NV", "phone": "+1 775-445-6680", "website": "https://www.carsontahoe.com/carson-urologists-ltd.html", "rating": 3, "reviews": 15, "place_id": "ChIJ6wVxr78LmYARleZrvm7Kbv8", "latitude": 39.1977547, "longitude": -119.7819144, "subtypes": "Urology clinic"}, {"name": "Ryan Powers, DO", "address": "1425 Vista Ln, Carson City, NV 89703", "city": "Carson City", "state": "Nevada", "state_code": "NV", "phone": "+1 775-445-6680", "website": "https://www.carsontahoe.com/ryan-powers.html", "rating": 5, "reviews": 1, "place_id": "ChIJKXeBYcALmYARVzt3iD7HPso", "latitude": 39.1977204, "longitude": -119.7819039, "subtypes": "Urologist"}, {"name": "Carson Urologists", "address": "1677 Lucerne St, Minden, NV 89423", "city": "Minden", "state": "Nevada", "state_code": "NV", "phone": "+1 775-883-1030", "website": "http://carsonurologists.com/", "rating": 1, "reviews": 3, "place_id": "ChIJL6T7D5q9mYARyCBx5ghzl6w", "latitude": 38.9595972, "longitude": -119.7722122, "subtypes": "Urology clinic"}, {"name": "Dr. Randall G. Nixon, MD", "address": "1425 Vista Ln, Carson City, NV 89703", "city": "Carson City", "state": "Nevada", "state_code": "NV", "phone": "+1 775-445-6680", "website": "https://www.carsontahoe.com/randall-nixon-md.html", "rating": 3, "reviews": 4, "place_id": "ChIJy3UiaykLmYARhz2VFRKDWKk", "latitude": 39.1976805, "longitude": -119.7819144, "subtypes": "Urologist"}, {"name": "Roland N. Chen, MD", "address": "1425 Vista Ln, Carson City, NV 89703", "city": "Carson City", "state": "Nevada", "state_code": "NV", "phone": "+1 775-883-1030", "website": "http://www.carsonurologists.com/", "rating": 3.8, "reviews": 11, "place_id": "ChIJy3UiaykLmYARKMm4WcXXc0o", "latitude": 39.1976917, "longitude": -119.7818687, "subtypes": "Urologist"}, {"name": "Carson Urologists, Ltd.", "address": "213 S Whitacre St, Yerington, NV 89447", "city": "Yerington", "state": "Nevada", "state_code": "NV", "phone": "+1 800-207-5004", "website": "http://carsonurologists.com/", "rating": "", "reviews": "", "place_id": "ChIJ0V6tl-E4mIARC1MaikOYEf0", "latitude": 38.9840873, "longitude": -119.166905, "subtypes": "Urology clinic"}, {"name": "Carson Urologists Ltd: Urologists Carson MD", "address": "1425 Vista Ln, Carson City, NV 89703", "city": "Carson City", "state": "Nevada", "state_code": "NV", "phone": "+1 775-883-1030", "website": "http://carsonurologists.com/", "rating": 3, "reviews": 30, "place_id": "ChIJ_____7-mmYARBFUcV_8yESw", "latitude": 39.1976805, "longitude": -119.7819144, "subtypes": "Urologist"}, {"name": "Las Vegas Urology", "address": "1701 N Green Valley Pkwy Suite 10C, Henderson, NV 89074", "city": "Henderson", "state": "Nevada", "state_code": "NV", "phone": "+1 702-896-9600", "website": "", "rating": 4.1, "reviews": 43, "place_id": "ChIJAU-GxNPRyIARaQ8aYqjS_v0", "latitude": 36.0353036, "longitude": -115.0854275, "subtypes": "Urology clinic"}, {"name": "Carson Tahoe Urology", "address": "1425 Vista Ln, Carson City, NV 89703", "city": "Carson City", "state": "Nevada", "state_code": "NV", "phone": "+1 775-445-6680", "website": "https://www.carsontahoe.com/carson-urologists-ltd.html", "rating": 3, "reviews": 15, "place_id": "ChIJ6wVxr78LmYARleZrvm7Kbv8", "latitude": 39.1977547, "longitude": -119.7819144, "subtypes": "Urology clinic"}, {"name": "Ryan Powers, DO", "address": "1425 Vista Ln, Carson City, NV 89703", "city": "Carson City", "state": "Nevada", "state_code": "NV", "phone": "+1 775-445-6680", "website": "https://www.carsontahoe.com/ryan-powers.html", "rating": 5, "reviews": 1, "place_id": "ChIJKXeBYcALmYARVzt3iD7HPso", "latitude": 39.1977204, "longitude": -119.7819039, "subtypes": "Urologist"}, {"name": "Carson Urologists", "address": "1677 Lucerne St, Minden, NV 89423", "city": "Minden", "state": "Nevada", "state_code": "NV", "phone": "+1 775-883-1030", "website": "http://carsonurologists.com/", "rating": 1, "reviews": 3, "place_id": "ChIJL6T7D5q9mYARyCBx5ghzl6w", "latitude": 38.9595972, "longitude": -119.7722122, "subtypes": "Urology clinic"}, {"name": "Dr. Randall G. Nixon, MD", "address": "1425 Vista Ln, Carson City, NV 89703", "city": "Carson City", "state": "Nevada", "state_code": "NV", "phone": "+1 775-445-6680", "website": "https://www.carsontahoe.com/randall-nixon-md.html", "rating": 3, "reviews": 4, "place_id": "ChIJy3UiaykLmYARhz2VFRKDWKk", "latitude": 39.1976805, "longitude": -119.7819144, "subtypes": "Urologist"}, {"name": "Roland N. Chen, MD", "address": "1425 Vista Ln, Carson City, NV 89703", "city": "Carson City", "state": "Nevada", "state_code": "NV", "phone": "+1 775-883-1030", "website": "http://www.carsonurologists.com/", "rating": 3.8, "reviews": 11, "place_id": "ChIJy3UiaykLmYARKMm4WcXXc0o", "latitude": 39.1976917, "longitude": -119.7818687, "subtypes": "Urologist"}, {"name": "Carson Urologists, Ltd.", "address": "213 S Whitacre St, Yerington, NV 89447", "city": "Yerington", "state": "Nevada", "state_code": "NV", "phone": "+1 800-207-5004", "website": "http://carsonurologists.com/", "rating": "", "reviews": "", "place_id": "ChIJ0V6tl-E4mIARC1MaikOYEf0", "latitude": 38.9840873, "longitude": -119.166905, "subtypes": "Urology clinic"}, {"name": "Carson Urologists Ltd: Urologists Carson MD", "address": "1425 Vista Ln, Carson City, NV 89703", "city": "Carson City", "state": "Nevada", "state_code": "NV", "phone": "+1 775-883-1030", "website": "http://carsonurologists.com/", "rating": 3, "reviews": 30, "place_id": "ChIJ_____7-mmYARBFUcV_8yESw", "latitude": 39.1976805, "longitude": -119.7819144, "subtypes": "Urologist"}]