[{"name": "Vincent Fiorica MD", "address": "3917 W Rd Suite 250, Los Alamos, NM 87544", "city": "Los Alamos", "state": "New Mexico", "state_code": "NM", "phone": "+1 505-661-9150", "website": "https://www.losalamosmedicalgroup.com/", "rating": "", "reviews": "", "place_id": "ChIJxVAGwmwTGIcRUgxo2hGjVp8", "latitude": 35.8800364, "longitude": -106.3031138, "subtypes": "Urologist"}, {"name": "Milroy Michael D MD", "address": "3491 Trinity Dr, Los Alamos, NM 87544", "city": "Los Alamos", "state": "New Mexico", "state_code": "NM", "phone": "", "website": "", "rating": "", "reviews": "", "place_id": "ChIJ0WlZzVoSGIcRzhv-u6yEbdc", "latitude": 35.8827034, "longitude": -106.3135922, "subtypes": "Urologist"}, {"name": "Dr. Pavel V. Mourachov, MD", "address": "3917 W Rd, Los Alamos, NM 87544", "city": "Los Alamos", "state": "New Mexico", "state_code": "NM", "phone": "+1 505-661-8500", "website": "", "rating": "", "reviews": "", "place_id": "ChIJ6dIHtVwSGIcROAXRq92KaMY", "latitude": 35.881939, "longitude": -106.318279, "subtypes": "Urologist"}, {"name": "Rio Grande Urology", "address": "2545 Don Roser Dr, Las Cruces, NM 88011", "city": "Las Cruces", "state": "New Mexico", "state_code": "NM", "phone": "+1 575-522-7880", "website": "https://rgu.us.com/", "rating": 4.2, "reviews": 360, "place_id": "ChIJxeTaROQX3oYRFvyay6S44PY", "latitude": 32.2893822, "longitude": -106.7368457, "subtypes": "Urology clinic"}, {"name": "Presbyterian Urology at Rust Physician Office Building", "address": "Enter on Ronda Rd, Physician Office Bldg, 2400 Unser Blvd SE, Suite 19300, Level 1, Rio Rancho, NM 87124", "city": "Rio Rancho", "state": "New Mexico", "state_code": "NM", "phone": "+1 505-563-6565", "website": "https://www.phs.org/doctors-services/specialties/urology/rio-rancho%3Futm_source%3Dgmb%26utm_medium%3Dorganic%26utm_campaign%3Dlisting%26utm_content%3D_loc_rr_rmc_urology__187", "rating": 2.3, "reviews": 9, "place_id": "ChIJhzdklwtxIocRAa3pzVKmIG4", "latitude": 35.2194715, "longitude": -106.6934593, "subtypes": "Urologist"}, {"name": "Dr Ghasem Imani, MD | Urologist | Presbyterian Urology", "address": "2400 Unser Blvd SE, Rio Rancho, NM 87124", "city": "Rio Rancho", "state": "New Mexico", "state_code": "NM", "phone": "+1 505-563-6565", "website": "https://www2.phs.org/providers/ghasem-imani/1609307966%3Futm_source%3Dgmb%26utm_medium%3Dorganic%26utm_campaign%3Dlisting%26utm_content%3Dprov_urology_imani_1609307966", "rating": 4.2, "reviews": 5, "place_id": "ChIJo9PyGX9xIocRx9AJlm3Y6ME", "latitude": 35.2192997, "longitude": -106.6932671, "subtypes": "Urologist"}, {"name": "Dr Joshua Belle, MD | Urologist | Presbyterian Urology", "address": "2400 Unser Blvd SE Ste 18200, Rio Rancho, NM 87124", "city": "Rio Rancho", "state": "New Mexico", "state_code": "NM", "phone": "+1 505-563-6565", "website": "https://www2.phs.org/providers/joshua-belle/1043692494%3Futm_source%3Dgmb%26utm_medium%3Dorganic%26utm_campaign%3Dlisting%26utm_content%3Dprov_urology_belle_1043692494", "rating": 2.5, "reviews": 4, "place_id": "ChIJUWCil19xIocRkkq6ip5MPIQ", "latitude": 35.2192997, "longitude": -106.6932671, "subtypes": "Urologist"}, {"name": "Dr. Frances Alba", "address": "3001 Broadmoor Blvd NE, Rio Rancho, NM 87144", "city": "Rio Rancho", "state": "New Mexico", "state_code": "NM", "phone": "+1 505-272-0572", "website": "", "rating": "", "reviews": "", "place_id": "ChIJVVVVNv56IocR_gJB3Z5IIjw", "latitude": 35.3088335, "longitude": -106.6797927, "subtypes": "Urologist"}, {"name": "Carrie Stewart, MD", "address": "465 St Michaels Dr Ste 110, Santa Fe, NM 87505", "city": "Santa Fe", "state": "New Mexico", "state_code": "NM", "phone": "+1 505-982-3534", "website": "https://www.christushealth.org/find-a-doctor/Carrie-Stewart-51778%3Futm_source%3DGBP%26utm_medium%3Dorganic%26utm_campaign%3DGBP-listing", "rating": 4.9, "reviews": 96, "place_id": "ChIJN5V7_6hJ3YARC-M4c4e-9Ug", "latitude": 35.6510677, "longitude": -105.9505746, "subtypes": "Urologist"}, {"name": "Eric Anderson, MD", "address": "465 St Michaels Dr Ste 110, Santa Fe, NM 87505", "city": "Santa Fe", "state": "New Mexico", "state_code": "NM", "phone": "+1 505-982-3534", "website": "https://www.christushealth.org/find-a-doctor/Eric-Anderson-39645%3Futm_source%3DGBP%26utm_medium%3Dorganic%26utm_campaign%3DGBP-listing", "rating": 4.8, "reviews": 113, "place_id": "ChIJQc7IfYtQGIcREfTa9La-Pmc", "latitude": 35.6604225, "longitude": -105.9457192, "subtypes": "Urologist"}, {"name": "Presbyterian Urology at Santa Fe Medical Center", "address": "4801 Beckner Rd, Santa Fe, NM 87507", "city": "Santa Fe", "state": "New Mexico", "state_code": "NM", "phone": "+1 505-772-2000", "website": "https://www.phs.org/doctors-services/specialties/urology/santa-fe%3Futm_source%3Dgmb%26utm_medium%3Dorganic%26utm_campaign%3Dlisting%26utm_content%3D_loc_sf_sfmc_urology__207", "rating": "", "reviews": "", "place_id": "ChIJG124WwxbGIcR8YrMaDywFX4", "latitude": 35.61569679999999, "longitude": -106.0243997, "subtypes": "Urology clinic"}, {"name": "Eric Shaw, MD", "address": "465 St Michaels Dr Ste 110, Santa Fe, NM 87505", "city": "Santa Fe", "state": "New Mexico", "state_code": "NM", "phone": "+1 505-982-3534", "website": "https://www.christushealth.org/find-a-doctor/eric-shaw-69250%3Futm_source%3DGBP%26utm_medium%3Dorganic%26utm_campaign%3DGBP-listing", "rating": 4.8, "reviews": 69, "place_id": "ChIJZxrAHBhRGIcRCAPclUONTfw", "latitude": 35.6511374, "longitude": -105.9505263, "subtypes": "Urologist"}, {"name": "Dr Margaret Le, MD | Urologist | Presbyterian Urology", "address": "4801 Beckner Rd, Santa Fe, NM 87507", "city": "Santa Fe", "state": "New Mexico", "state_code": "NM", "phone": "+1 505-772-2000", "website": "https://www.phs.org/doctors-services/specialties/urology/%3Futm_source%3Dgmb%26utm_medium%3Dorganic%26utm_campaign%3Dlisting%26utm_content%3Dprov_urology_le_1801162003", "rating": 2.6, "reviews": 5, "place_id": "ChIJRfiy-_NbGIcRcquw_vh-ZU4", "latitude": 35.6165864, "longitude": -106.0251239, "subtypes": "Urologist"}, {"name": "Dr. Stephen P. Lucero, MD", "address": "2990 Rodeo Park Dr E 1st Floor, Santa Fe, NM 87505", "city": "Santa Fe", "state": "New Mexico", "state_code": "NM", "phone": "+1 505-428-5400", "website": "", "rating": 3, "reviews": 2, "place_id": "ChIJQbqppaVQGIcROggDvD_dg94", "latitude": 35.6334696, "longitude": -105.9632614, "subtypes": "Urologist"}, {"name": "Nephrophiles, Llc", "address": "2904 Rodeo Park Dr E, Santa Fe, NM 87505", "city": "Santa Fe", "state": "New Mexico", "state_code": "NM", "phone": "+1 505-982-4276", "website": "https://www.nephrophiles.org/", "rating": 4.5, "reviews": 2, "place_id": "ChIJ-wXUi4xQGIcRvuSZQVsgpyg", "latitude": 35.6382705, "longitude": -105.9596288, "subtypes": "Urologist"}, {"name": "Milroy Michael D MD", "address": "1630 Hospital Dr # B, Santa Fe, NM 87505", "city": "Santa Fe", "state": "New Mexico", "state_code": "NM", "phone": "+1 505-820-0484", "website": "", "rating": "", "reviews": "", "place_id": "ChIJQc7IfYtQGIcRFAqsM7qwG8Y", "latitude": 35.6618647, "longitude": -105.9489809, "subtypes": "Urologist"}, {"name": "Dr. Robert M. Zone, MD", "address": "14 General Sage Dr, Santa Fe, NM 87505", "city": "Santa Fe", "state": "New Mexico", "state_code": "NM", "phone": "+1 505-995-0934", "website": "", "rating": "", "reviews": "", "place_id": "ChIJlTUIRcNQGIcRucB5VGFU-Q8", "latitude": 35.6429607, "longitude": -105.9356235, "subtypes": "Urologist"}, {"name": "Steven C Robeson & Associates PC", "address": "1630 Hospital Dr # D, Santa Fe, NM 87505", "city": "Santa Fe", "state": "New Mexico", "state_code": "NM", "phone": "+1 505-982-3534", "website": "", "rating": "", "reviews": "", "place_id": "ChIJQc7IfYtQGIcRNMwGQnILHsI", "latitude": 35.6618647, "longitude": -105.9489809, "subtypes": "Urologist"}, {"name": "Darina Linnik, PA-C", "address": "465 St Michaels Dr Ste 110, Santa Fe, NM 87505", "city": "Santa Fe", "state": "New Mexico", "state_code": "NM", "phone": "+1 505-982-3534", "website": "https://www.christushealth.org/find-a-doctor/Darina-Linnik-95909%3Futm_source%3DGBP%26utm_medium%3Dorganic%26utm_campaign%3DGBP-listing", "rating": "", "reviews": "", "place_id": "ChIJ90gw141RGIcRmcHPxqw7e_o", "latitude": 35.6511113, "longitude": -105.9506068, "subtypes": "Urologist"}, {"name": "San Juan Health Partners Urology", "address": "2700 N Farmington Ave #1, Farmington, NM 87401", "city": "Farmington", "state": "New Mexico", "state_code": "NM", "phone": "+1 505-609-6380", "website": "https://www.sanjuanregional.com/urology", "rating": 4.7, "reviews": 901, "place_id": "ChIJv6G631-FO4cRWDfGIdMt_sM", "latitude": 36.7545166, "longitude": -108.1766281, "subtypes": "Urologist"}, {"name": "Adult & Pediatric Urology", "address": "2300 E 30th St # B-106, Farmington, NM 87401", "city": "Farmington", "state": "New Mexico", "state_code": "NM", "phone": "+1 505-327-9111", "website": "http://adult-pediatricurology.com/", "rating": 4.9, "reviews": 279, "place_id": "ChIJRQ0vShKPO4cRaY0GWIGo1Lw", "latitude": 36.7570304, "longitude": -108.1753768, "subtypes": "Urology clinic"}, {"name": "McCulloch Allen W MD", "address": "2300 E 30th St B-106, Farmington, NM 87401", "city": "Farmington", "state": "New Mexico", "state_code": "NM", "phone": "+1 505-327-9111", "website": "http://www.adultpediatricuro.com/", "rating": 3.4, "reviews": 5, "place_id": "ChIJRQ0vShKPO4cRlArGUIoU-Sg", "latitude": 36.7572543, "longitude": -108.1765016, "subtypes": "Urologist"}, {"name": "Dr. Daniel Mannas", "address": "2700 N Farmington Ave Bldg E Ste 1, Farmington, NM 87401", "city": "Farmington", "state": "New Mexico", "state_code": "NM", "phone": "+1 505-609-6380", "website": "https://www.sanjuanregional.com/urology", "rating": 5, "reviews": 3, "place_id": "ChIJq6qq7hKPO4cRrjN61caNtIA", "latitude": 36.7547807, "longitude": -108.1769015, "subtypes": "Urologist"}, {"name": "Dr. Christopher Taylor - San Juan Health Partners Urology", "address": "2700 N Farmington Ave Bldg E Suite #1, Farmington, NM 87401", "city": "Farmington", "state": "New Mexico", "state_code": "NM", "phone": "+1 505-609-6380", "website": "https://www.sanjuanregional.com/urology", "rating": 1, "reviews": 1, "place_id": "ChIJq6qq7hKPO4cRjWQCWC8c84k", "latitude": 36.7545311, "longitude": -108.176646, "subtypes": "Urologist"}, {"name": "Dr Daniel Mecca, MD | Urologist | Presbyterian Urology", "address": "121 El Paso Rd, Ruidoso, NM 88345", "city": "Ruidoso", "state": "New Mexico", "state_code": "NM", "phone": "+1 575-630-8350", "website": "https://www.phs.org/doctors-services/specialties/urology", "rating": "", "reviews": "", "place_id": "ChIJO9CaUpXP4YYR8KAhw4gd9z0", "latitude": 33.3215519, "longitude": -105.6315848, "subtypes": "Urologist"}, {"name": "Aaron Geswaldo, DO", "address": "4701 Montgomery Blvd NE, Albuquerque, NM 87109", "city": "Albuquerque", "state": "New Mexico", "state_code": "NM", "phone": "+1 505-727-7800", "website": "https://lovelace.com/find-a-provider/provider/1639174550%3Futm_source%3Dpg-google%26utm_medium%3Dorganic%26utm_campaign%3Dpg-listings", "rating": 5, "reviews": 3, "place_id": "ChIJv6Kismt1IocR-iqEU0BCuaM", "latitude": 35.1318214, "longitude": -106.5914549, "subtypes": "Urologist"}, {"name": "MD for Men", "address": "8300 Carmel Ave NE STE 303, Albuquerque, NM 87122", "city": "Albuquerque", "state": "New Mexico", "state_code": "NM", "phone": "+1 505-433-4665", "website": "https://www.mdformen.com/", "rating": 4.8, "reviews": 505, "place_id": "ChIJS2_jd5R1IocRiUzNpBhdS98", "latitude": 35.1744691, "longitude": -106.552342, "subtypes": "Urology clinic"}, {"name": "Dr. Satyan K. Shah, MD", "address": "2211 Lomas Blvd NE, Albuquerque, NM 87106", "city": "Albuquerque", "state": "New Mexico", "state_code": "NM", "phone": "+1 505-272-2336", "website": "", "rating": 4.5, "reviews": 8, "place_id": "ChIJax4ZyFwLIocRBp06lgaPEl0", "latitude": 35.0876557, "longitude": -106.6176789, "subtypes": "Urologist"}, {"name": "Presbyterian Urology in Albuquerque at Presbyterian Hospital", "address": "201 Cedar St SE Suite 5660, Albuquerque, NM 87106", "city": "Albuquerque", "state": "New Mexico", "state_code": "NM", "phone": "+1 505-563-6565", "website": "https://www.phs.org/doctors-services/specialties/urology/presbyterian%3Futm_source%3Dgmb%26utm_medium%3Dorganic%26utm_campaign%3Dlisting%26utm_content%3D_loc_abq_ph_urology__186", "rating": 1.9, "reviews": 35, "place_id": "ChIJE-_JUwINIocRi1qx2PTSKzQ", "latitude": 35.0816144, "longitude": -106.6354914, "subtypes": "Urologist"}, {"name": "Scott B. Jennings, MD", "address": "2400 Rio Rancho Blvd SE, Albuquerque, NM 87124", "city": "Albuquerque", "state": "New Mexico", "state_code": "NM", "phone": "", "website": "", "rating": "", "reviews": "", "place_id": "ChIJXxBDrmFxIocRw72Ey6SKQO0", "latitude": 35.2173097, "longitude": -106.6619905, "subtypes": "Urologist"}, {"name": "Tomy Perez", "address": "6701 Jefferson St NE, Albuquerque, NM 87109", "city": "Albuquerque", "state": "New Mexico", "state_code": "NM", "phone": "+1 505-727-6200", "website": "https://lovelace.com/doctors/tomy-perez-md%3Futm_source%3DGMB%26utm_medium%3Dorganic", "rating": 4.5, "reviews": 35, "place_id": "ChIJ36agbFp0IocR6xqQrjJeSys", "latitude": 35.157776, "longitude": -106.5948701, "subtypes": "Urologist"}, {"name": "Dr Sean Tirney, MD | Urologist | Presbyterian Urology", "address": "201 Cedar St SE, Albuquerque, NM 87106", "city": "Albuquerque", "state": "New Mexico", "state_code": "NM", "phone": "+1 505-563-6565", "website": "https://www2.phs.org/providers/sean-tirney/1063484848%3Futm_source%3Dgmb%26utm_medium%3Dorganic%26utm_campaign%3Dlisting%26utm_content%3Dprov_urology_tirney_1063484848", "rating": 5, "reviews": 1, "place_id": "ChIJPVC4e0oNIocRi3qaI7dXYMw", "latitude": 35.0816144, "longitude": -106.6354914, "subtypes": "Urologist"}, {"name": "Aaron Geswaldo, DO", "address": "6701 Jefferson St NE, Albuquerque, NM 87109", "city": "Albuquerque", "state": "New Mexico", "state_code": "NM", "phone": "+1 505-727-6200", "website": "https://lovelace.com/find-a-provider/provider/1639174550%3Futm_source%3Dpg-google%26utm_medium%3Dorganic%26utm_campaign%3Dpg-listings", "rating": 4.3, "reviews": 43, "place_id": "ChIJKQ2zt1B1IocRFdL44ge_IaU", "latitude": 35.157778, "longitude": -106.5939439, "subtypes": "Urologist"}, {"name": "Andrew Grollman, MD", "address": "6701 Jefferson St NE, Albuquerque, NM 87109", "city": "Albuquerque", "state": "New Mexico", "state_code": "NM", "phone": "+1 505-727-6200", "website": "https://lovelace.com/find-a-provider/provider/1811157100%3Futm_source%3Dpg-google%26utm_medium%3Dorganic%26utm_campaign%3Dpg-listings", "rating": 2.9, "reviews": 56, "place_id": "ChIJf5LQFeB1IocRMnFbRDdpUgU", "latitude": 35.1578199, "longitude": -106.5948647, "subtypes": "Urologist"}, {"name": "Dr Scott Jennings, MD | Urologist | Presbyterian Urology", "address": "201 Cedar St SE, Albuquerque, NM 87106", "city": "Albuquerque", "state": "New Mexico", "state_code": "NM", "phone": "+1 505-563-6565", "website": "https://www2.phs.org/providers/scott-jennings/1841269420%3Futm_source%3Dgmb%26utm_medium%3Dorganic%26utm_campaign%3Dlisting%26utm_content%3Dprov_urology_jennings_1841269420", "rating": 1, "reviews": 1, "place_id": "ChIJ5eeZqSQNIocRiIJtr_q-ijs", "latitude": 35.0816144, "longitude": -106.6354914, "subtypes": "Urologist"}, {"name": "Dr. Mark D. Thomas, MD", "address": "200 Oak St NE #5, Albuquerque, NM 87106", "city": "Albuquerque", "state": "New Mexico", "state_code": "NM", "phone": "+1 505-243-8462", "website": "", "rating": 5, "reviews": 1, "place_id": "ChIJ57a9MqIMIocR6U8MCbxT0JI", "latitude": 35.0836907, "longitude": -106.6357202, "subtypes": "Urologist"}, {"name": "Albuquerque Urology Associates: Floyd Jr V Taylor MD", "address": "610 Broadway Blvd NE, Albuquerque, NM 87102", "city": "Albuquerque", "state": "New Mexico", "state_code": "NM", "phone": "+1 505-242-3991", "website": "", "rating": "", "reviews": "", "place_id": "ChIJaQga8LoMIocRi9KNGDDS1Go", "latitude": 35.0885977, "longitude": -106.6433005, "subtypes": "Urologist"}, {"name": "Dr Stefan Gutow, MD | Urologist | Presbyterian Urology", "address": "201 Cedar St SE, Albuquerque, NM 87106", "city": "Albuquerque", "state": "New Mexico", "state_code": "NM", "phone": "+1 505-563-6565", "website": "https://www.phs.org/doctors-services/specialties/urology/%3Futm_source%3Dgmb%26utm_medium%3Dorganic%26utm_campaign%3Dlisting%26utm_content%3Dprov_urology_gutow_1386691772", "rating": 3.2, "reviews": 13, "place_id": "ChIJaQga8LoMIocRwHP_Zp4M40o", "latitude": 35.0816144, "longitude": -106.6354914, "subtypes": "Urologist"}, {"name": "Damara L. Kaplan, MD", "address": "4901 Lang Ave NE, Albuquerque, NM 87109", "city": "Albuquerque", "state": "New Mexico", "state_code": "NM", "phone": "+1 505-842-8171", "website": "https://healthspecialistsnm.com/our-team/damara-l-kaplan/%3Futm_source%3DGMBSocialClimb%26utm_medium%3DDamaraL.Kaplan%252CMD", "rating": 3.7, "reviews": 9, "place_id": "ChIJaQga8LoMIocRC8KAwOwsAEs", "latitude": 35.173875, "longitude": -106.5901397, "subtypes": "Urologist"}, {"name": "Maxx Gallegos", "address": "2211 Lomas Blvd NE Fl 1, Albuquerque, NM 87106", "city": "Albuquerque", "state": "New Mexico", "state_code": "NM", "phone": "+1 505-272-0572", "website": "", "rating": 5, "reviews": 2, "place_id": "ChIJsdkus1wLIocR-krTFM7MAL8", "latitude": 35.0881658, "longitude": -106.6173752, "subtypes": "Urologist"}, {"name": "Dr Alexander Bandin, MD | Urologist | Presbyterian Urology in Albuquerque", "address": "201 Cedar St SE, Albuquerque, NM 87106", "city": "Albuquerque", "state": "New Mexico", "state_code": "NM", "phone": "+1 505-563-6565", "website": "https://www2.phs.org/providers/alexander-bandin/1790149433%3Futm_source%3Dgmb%26utm_medium%3Dorganic%26utm_campaign%3Dlisting%26utm_content%3Dprov_urologist_bandin_1790149433", "rating": "", "reviews": "", "place_id": "ChIJy53RSm5xIocR4ukq5-QzuUU", "latitude": 35.0812558, "longitude": -106.6356933, "subtypes": "Urologist"}, {"name": "Dr. Jason M. Wilson, MD", "address": "2211 Lomas Blvd NE, Albuquerque, NM 87106", "city": "Albuquerque", "state": "New Mexico", "state_code": "NM", "phone": "+1 505-272-2336", "website": "", "rating": 5, "reviews": 3, "place_id": "ChIJax4ZyFwLIocR4zgA4P5pl9o", "latitude": 35.0876557, "longitude": -106.6176789, "subtypes": "Pediatric urologist"}, {"name": "Dr. Peter Headley", "address": "4901 Lang Ave NE, Albuquerque, NM 87109", "city": "Albuquerque", "state": "New Mexico", "state_code": "NM", "phone": "+1 505-842-8171", "website": "http://nmcancercenter.org/%3Futm_source%3DGMBSocialClimb%26utm_medium%3DDr.PeterHeadley", "rating": 5, "reviews": 4, "place_id": "ChIJAQDw-roMIocR8Kx_DL8qbKo", "latitude": 35.173875, "longitude": -106.5901397, "subtypes": "Urologist"}, {"name": "Dr Jeremy Shelton, MD | Urologist | Presbyterian Urology", "address": "201 Cedar St SE, Albuquerque, NM 87106", "city": "Albuquerque", "state": "New Mexico", "state_code": "NM", "phone": "+1 505-563-6565", "website": "https://www2.phs.org/providers/jeremy-shelton/1316002686%3Futm_source%3Dgmb%26utm_medium%3Dorganic%26utm_campaign%3Dlisting%26utm_content%3Dprov_urology_shelton_1316002686", "rating": "", "reviews": "", "place_id": "ChIJBQ0jL2ANIocRyAifEqLDBG0", "latitude": 35.0812558, "longitude": -106.6356933, "subtypes": "Urologist"}, {"name": "Dr. Norman S. Schomer, MD", "address": "4600 Montgomery Blvd NE, Albuquerque, NM 87109", "city": "Albuquerque", "state": "New Mexico", "state_code": "NM", "phone": "+1 505-872-9053", "website": "", "rating": 3, "reviews": 2, "place_id": "ChIJLQ_-cN10IocR42OkEFdLuYk", "latitude": 35.1305012, "longitude": -106.5915028, "subtypes": "Urologist"}, {"name": "Alba Frances M MD", "address": "1 University of New Mexico, Albuquerque, NM 87131", "city": "Albuquerque", "state": "New Mexico", "state_code": "NM", "phone": "+1 505-277-0111", "website": "", "rating": "", "reviews": "", "place_id": "ChIJvSJxml0LIocRLOH0R1m0lSw", "latitude": 35.0840254, "longitude": -106.6209972, "subtypes": "Urologist"}, {"name": "Andrew Grollman, MD", "address": "4701 Montgomery Blvd NE, Albuquerque, NM 87109", "city": "Albuquerque", "state": "New Mexico", "state_code": "NM", "phone": "+1 505-727-7800", "website": "https://lovelace.com/find-a-provider/provider/1811157100%3Futm_source%3Dpg-google%26utm_medium%3Dorganic%26utm_campaign%3Dpg-listings", "rating": "", "reviews": "", "place_id": "ChIJ51_iRAZ1IocRKuwd25MGjWM", "latitude": 35.1318214, "longitude": -106.5914549, "subtypes": "Urologist"}, {"name": "Dr. Lawrence J. Gibel, MD", "address": "1501 San Pedro Dr SE # 41, Albuquerque, NM 87108", "city": "Albuquerque", "state": "New Mexico", "state_code": "NM", "phone": "+1 505-265-1711", "website": "http://www.albuquerque.va.gov/", "rating": "", "reviews": "", "place_id": "ChIJFYzFuE0KIocRvjJLT33JUk0", "latitude": 35.0554081, "longitude": -106.5777683, "subtypes": "Urologist"}, {"name": "Jessica Ming", "address": "2211 Lomas Blvd NE, Albuquerque, NM 87106", "city": "Albuquerque", "state": "New Mexico", "state_code": "NM", "phone": "+1 505-265-1711", "website": "https://hsc.unm.edu/directory/ming-jessica.html", "rating": "", "reviews": "", "place_id": "ChIJsdkus1wLIocRCQwayPodFGg", "latitude": 35.0881658, "longitude": -106.6173752, "subtypes": "Pediatric urologist"}, {"name": "Satyan Shah", "address": "1201 Camino de Salud NE, Albuquerque, NM 87102", "city": "Albuquerque", "state": "New Mexico", "state_code": "NM", "phone": "+1 505-272-4946", "website": "https://hsc.unm.edu/directory/shah-satyan.html", "rating": "", "reviews": "", "place_id": "ChIJyW_pNVYLIocRD8iibhPEpGw", "latitude": 35.095872, "longitude": -106.6277341, "subtypes": "Urologist"}, {"name": "Julie Riley", "address": "2211 Lomas Blvd NE Fl 1, Albuquerque, NM 87106", "city": "Albuquerque", "state": "New Mexico", "state_code": "NM", "phone": "+1 480-977-3277", "website": "", "rating": "", "reviews": "", "place_id": "ChIJsdkus1wLIocR31WkckY4j58", "latitude": 35.0881658, "longitude": -106.6173752, "subtypes": "Urologist"}, {"name": "Marvalyn Decambre MD, MPH, FAAP", "address": "2735 E Northrise Dr, Las Cruces, NM 88011", "city": "Las Cruces", "state": "New Mexico", "state_code": "NM", "phone": "+1 575-288-4070", "website": "https://www.memorialphysicianpractices.com/", "rating": 4.7, "reviews": 3, "place_id": "ChIJIzeCk4sX3oYRULvsNs-mxpk", "latitude": 32.3541341, "longitude": -106.7587027, "subtypes": "Urologist"}, {"name": "Dr. Robert C. Kolosseus, MD", "address": "2545 Don Roser Dr, Las Cruces, NM 88011", "city": "Las Cruces", "state": "New Mexico", "state_code": "NM", "phone": "+1 575-522-7880", "website": "http://rgu.us.com/", "rating": 3.6, "reviews": 18, "place_id": "ChIJ81l5vO0X3oYR9s0SDj3xRkU", "latitude": 32.2894168, "longitude": -106.7367926, "subtypes": "Urologist"}, {"name": "Thomas Gormley, M.D.", "address": "2545 Don Roser Dr, Las Cruces, NM 88011", "city": "Las Cruces", "state": "New Mexico", "state_code": "NM", "phone": "+1 575-522-7880", "website": "https://rgu.us.com/", "rating": 2.6, "reviews": 31, "place_id": "ChIJxeTaROQX3oYRav1sIVSv0b8", "latitude": 32.2894594, "longitude": -106.7368273, "subtypes": "Urologist"}, {"name": "Patrick Showalter, MD", "address": "2735 E Northrise Dr, Las Cruces, NM 88011", "city": "Las Cruces", "state": "New Mexico", "state_code": "NM", "phone": "+1 575-288-4070", "website": "https://www.memorialphysicianpractices.com/", "rating": 2.7, "reviews": 15, "place_id": "ChIJlwNHif73Y4gRLEkWNAIdo4E", "latitude": 32.3545166, "longitude": -106.7587572, "subtypes": "Urologist"}, {"name": "Jesus Herrera-Murillo", "address": "2545 Don Roser Dr, Las Cruces, NM 880119107", "city": "Las Cruces", "state": "New Mexico", "state_code": "NM", "phone": "+1 575-522-7880", "website": "https://rgu.us.com/2023/08/22/welcome-rgus-newest-urologist-dr-jesus-herrera-murillo/", "rating": 3.5, "reviews": 6, "place_id": "ChIJwa5xve0X3oYR28CWp4GnT_w", "latitude": 32.2894169, "longitude": -106.7367925, "subtypes": "Urologist"}, {"name": "Dr. Ray C. Kolosseus, MD", "address": "2701 Missouri Ave STE A, Las Cruces, NM 88011", "city": "Las Cruces", "state": "New Mexico", "state_code": "NM", "phone": "+1 575-522-7880", "website": "http://rgu.us.com/", "rating": 1, "reviews": 1, "place_id": "ChIJxeTaROQX3oYRAa5QyyLWTrY", "latitude": 32.2999005, "longitude": -106.7388297, "subtypes": "Urologist"}, {"name": "Dr. Mark Bieri", "address": "2545 Don Roser Dr, Las Cruces, NM 88011", "city": "Las Cruces", "state": "New Mexico", "state_code": "NM", "phone": "+1 575-522-7880", "website": "http://rgu.us.com/", "rating": 2.7, "reviews": 3, "place_id": "ChIJ81l5vO0X3oYRizMls9DjdvM", "latitude": 32.2894168, "longitude": -106.7367926, "subtypes": "Urologist"}, {"name": "Rosella M. Vialpando", "address": "2545 Don Roser Dr, Las Cruces, NM 88011", "city": "Las Cruces", "state": "New Mexico", "state_code": "NM", "phone": "+1 575-522-7880", "website": "http://rgu.us.com/", "rating": "", "reviews": "", "place_id": "ChIJ81l5vO0X3oYREUKSnefU7iM", "latitude": 32.2894264, "longitude": -106.7367565, "subtypes": "Urologist"}, {"name": "Robert W. Woodruff, MD", "address": "755 S Telshor Blvd, Las Cruces, NM 88011", "city": "Las Cruces", "state": "New Mexico", "state_code": "NM", "phone": "+1 505-522-5666", "website": "", "rating": "", "reviews": "", "place_id": "ChIJ9fBkT1k93oYRDF8wY3SsoZ0", "latitude": 32.311682, "longitude": -106.7408112, "subtypes": "Urologist"}, {"name": "Roberto F. Labayen, MD", "address": "612 N 13th St # G, Artesia, NM 88210", "city": "Artesia", "state": "New Mexico", "state_code": "NM", "phone": "+1 575-748-8311", "website": "", "rating": 1, "reviews": 2, "place_id": "ChIJTQZaUJKu44YRh0JFU5Zicpc", "latitude": 32.847845, "longitude": -104.411793, "subtypes": "Urologist"}, {"name": "Dr. Stephen Lucero", "address": "1399 Weimer Rd Suite 600, Taos, NM 87571", "city": "Taos", "state": "New Mexico", "state_code": "NM", "phone": "+1 575-758-3141", "website": "", "rating": 4.2, "reviews": 5, "place_id": "ChIJk_aIDrxkF4cRcJx-h8X7AYs", "latitude": 36.3686711, "longitude": -105.576212, "subtypes": "Urologist"}, {"name": "Dr. Christopher Hoover", "address": "1900 Redrock Dr, Gallup, NM 87301", "city": "Gallup", "state": "New Mexico", "state_code": "NM", "phone": "+1 505-726-6733", "website": "https://www.rmch.org/staff/bio.php%3Fdoc_id%3D81333", "rating": "", "reviews": "", "place_id": "ChIJq6panmPeJIcRk8t0OKzRSZI", "latitude": 35.5068103, "longitude": -108.7275668, "subtypes": "Urologist"}, {"name": "Smith Mark w MD", "address": "1901 Redrock Dr, Gallup, NM 87301", "city": "Gallup", "state": "New Mexico", "state_code": "NM", "phone": "+1 505-863-7000", "website": "http://www.rmch.org/", "rating": "", "reviews": "", "place_id": "ChIJofQ1oWPeJIcRL1BciDaDIt4", "latitude": 35.5073833, "longitude": -108.7271284, "subtypes": "Urologist"}, {"name": "Giudice Richard O MD", "address": "2240 College Dr, Gallup, NM 87301", "city": "Gallup", "state": "New Mexico", "state_code": "NM", "phone": "+1 505-726-2400", "website": "", "rating": "", "reviews": "", "place_id": "ChIJ8_PkxmXeJIcRkOhZ-Z5HwEo", "latitude": 35.5019451, "longitude": -108.7292254, "subtypes": "Urologist"}, {"name": "Dr. John E. Wright, MD", "address": "516 Nizhoni Blvd, Gallup, NM 87301", "city": "Gallup", "state": "New Mexico", "state_code": "NM", "phone": "+1 505-722-1000", "website": "", "rating": "", "reviews": "", "place_id": "ChIJt6tBhmHeJIcRWQnFkQLwql4", "latitude": 35.5080675, "longitude": -108.7304835, "subtypes": "Urologist"}, {"name": "Dr Richard Tushman, MD | Urologist | Presbyterian Urology", "address": "2421 W 21st St, Clovis, NM 88101", "city": "Clovis", "state": "New Mexico", "state_code": "NM", "phone": "+1 575-769-7577", "website": "https://www.phs.org/doctors-services/specialties/urology/%3Futm_source%3Dgmb%26utm_medium%3Dorganic%26utm_campaign%3Dlisting%26utm_content%3Dprov_urology_tushman_1568493773", "rating": 3.7, "reviews": 3, "place_id": "ChIJwTJNFLHfAocR37hwwcLIeFc", "latitude": 34.4186318, "longitude": -103.2379435, "subtypes": "Urologist"}, {"name": "Presbyterian Urology in Clovis at Plains Regional Medical Center", "address": "2421 W 21st St Suite B, Clovis, NM 88101", "city": "Clovis", "state": "New Mexico", "state_code": "NM", "phone": "+1 575-769-7577", "website": "https://www.phs.org/doctors-services/specialties/urology/clovis%3Futm_source%3Dgmb%26utm_medium%3Dorganic%26utm_campaign%3Dlisting%26utm_content%3D_loc_clovis_prmc_urology__188", "rating": 3, "reviews": 2, "place_id": "ChIJ1Tpo_P_fAocROhLtX2eQ-Pc", "latitude": 34.4184482, "longitude": -103.2378845, "subtypes": "Urologist"}, {"name": "Lash Amos Urolog MD", "address": "1304 E 32nd St, Silver City, NM 88061", "city": "Silver City", "state": "New Mexico", "state_code": "NM", "phone": "+1 575-534-0556", "website": "", "rating": 2.4, "reviews": 7, "place_id": "ChIJ-6CxvXS42IYRJ4aR8lg4MNg", "latitude": 32.7946641, "longitude": -108.2615297, "subtypes": "Urologist"}, {"name": "Presbyterian Urology at Espanola Hospital", "address": "1010 Spruce St, Espa\u00f1ola, NM 87532", "city": "Espa\u00f1ola", "state": "New Mexico", "state_code": "NM", "phone": "+1 505-367-0340", "website": "https://www.phs.org/doctors-services/specialties/urology/espanola%3Futm_source%3Dgmb%26utm_medium%3Dorganic%26utm_campaign%3Dgmblisting%26utm_content%3D_loc_espanola_peh_urology__301", "rating": "", "reviews": "", "place_id": "ChIJrxalewo9GIcRR4tqH-xy1W0", "latitude": 35.9972875, "longitude": -106.0883593, "subtypes": "Urology clinic"}, {"name": "Presbyterian: Dr Stefan Gutow, MD", "address": "1010 Spruce St, Espa\u00f1ola, NM 87532", "city": "Espa\u00f1ola", "state": "New Mexico", "state_code": "NM", "phone": "+1 505-367-0340", "website": "https://pmgdirectory.phs.org/details/1289/stefan-gutow-urology-albuquerque-espanola-rio_rancho%3Futm_source%3Dgmb", "rating": "", "reviews": "", "place_id": "ChIJ47HeJps9GIcR8DZNtVaiGbk", "latitude": 35.9972067, "longitude": -106.0877646, "subtypes": "Urologist"}, {"name": "Ossorio Julio M MD", "address": "1600 N Main St, Lovington, NM 88260", "city": "Lovington", "state": "New Mexico", "state_code": "NM", "phone": "+1 575-396-6611", "website": "http://www.nor-lea.org/", "rating": "", "reviews": "", "place_id": "ChIJU-rGuXLa_IYRtcHrf9pouF4", "latitude": 32.9653048, "longitude": -103.347555, "subtypes": "Urologist"}, {"name": "Benjamin Montgomery, MD", "address": "1600 Main St, Lovington, NM 88260", "city": "Lovington", "state": "New Mexico", "state_code": "NM", "phone": "+1 575-396-6611", "website": "", "rating": "", "reviews": "", "place_id": "ChIJ712cQHvb_IYRD37gatuOlyU", "latitude": 32.9641419, "longitude": -103.3479531, "subtypes": "Urologist"}, {"name": "Robert Smaltz, MD", "address": "2539 Medical Dr Complex A, # 103, Alamogordo, NM 88310", "city": "Alamogordo", "state": "New Mexico", "state_code": "NM", "phone": "+1 575-446-5145", "website": "https://www.christushealth.org/find-a-doctor/robert-smaltz-83394%3Futm_source%3DGBP%26utm_medium%3Dorganic%26utm_campaign%3DGBP-listing", "rating": 3.2, "reviews": 30, "place_id": "ChIJ50skvjdQ4IYRCgrK0FoaIqM", "latitude": 32.9247981, "longitude": -105.932742, "subtypes": "Urologist"}, {"name": "CHRISTUS Trinity Clinic", "address": "2539 Medical Dr Complex A, # 103, Alamogordo, NM 88310", "city": "Alamogordo", "state": "New Mexico", "state_code": "NM", "phone": "+1 575-446-5145", "website": "https://www.christushealth.org/locations/trinity-clinic-alamogordo-urology%3Futm_source%3DGBP%26utm_medium%3Dorganic%26utm_campaign%3DGBP-listing", "rating": 3.4, "reviews": 5, "place_id": "ChIJpaLJCjdQ4IYR007dSim_1Do", "latitude": 32.9247892, "longitude": -105.932681, "subtypes": "Urology clinic"}, {"name": "Dr. Peter M. Campbell, MD", "address": "1417 Rockwood, Alamogordo, NM 88310", "city": "Alamogordo", "state": "New Mexico", "state_code": "NM", "phone": "", "website": "", "rating": "", "reviews": "", "place_id": "ChIJAYXYdFRQ4IYRExtaAIP5eCQ", "latitude": 32.9048462, "longitude": -105.9273497, "subtypes": "Urologist"}, {"name": "Pecos Valley Urology", "address": "2420 W Pierce St #102, Carlsbad, NM 88220", "city": "Carlsbad", "state": "New Mexico", "state_code": "NM", "phone": "+1 575-628-5068", "website": "https://www.pecosvalleydocs.com/our-locations/pecos-valley-urology-2479%3Futm_source%3Dgmb%26utm_medium%3Dhomepage%26utm_campaign%3Dbiz-listings", "rating": "", "reviews": "", "place_id": "ChIJI47jbKd544YRhJ8mdRNpCis", "latitude": 32.4419808, "longitude": -104.256991, "subtypes": "Urology clinic"}, {"name": "Pecos Valley Urology", "address": "2420 W Pierce St #102, Carlsbad, NM 88220", "city": "Carlsbad", "state": "New Mexico", "state_code": "NM", "phone": "+1 575-628-5068", "website": "https://www.pecosvalleydocs.com/our-locations/pecos-valley-urology-2479%3Futm_source%3Dgmb%26utm_medium%3Dhomepage%26utm_campaign%3Dbiz-listings", "rating": "", "reviews": "", "place_id": "ChIJI47jbKd544YRhJ8mdRNpCis", "latitude": 32.4419808, "longitude": -104.256991, "subtypes": "Urology clinic"}, {"name": "Mitchell Petty, D.O.", "address": "2420 W Pierce St #102, Carlsbad, NM 88220", "city": "Carlsbad", "state": "New Mexico", "state_code": "NM", "phone": "+1 575-628-5068", "website": "https://www.pecosvalleydocs.com/doctors-providers/petty-mitchell-do-10212%3Futm_source%3Dgmb%26utm_medium%3Dhomepage%26utm_campaign%3Dbiz-listings", "rating": 5, "reviews": 26, "place_id": "ChIJxbLUGiF544YR4RW_nPgp6U4", "latitude": 32.4419808, "longitude": -104.256991, "subtypes": "Urologist"}, {"name": "Rio Grande Urology", "address": "2545 Don Roser Dr, Las Cruces, NM 88011", "city": "Las Cruces", "state": "New Mexico", "state_code": "NM", "phone": "+1 575-522-7880", "website": "https://rgu.us.com/", "rating": 4.2, "reviews": 360, "place_id": "ChIJxeTaROQX3oYRFvyay6S44PY", "latitude": 32.2893822, "longitude": -106.7368457, "subtypes": "Urology clinic"}, {"name": "Pecos Valley Urology", "address": "2420 W Pierce St #102, Carlsbad, NM 88220", "city": "Carlsbad", "state": "New Mexico", "state_code": "NM", "phone": "+1 575-628-5068", "website": "https://www.pecosvalleydocs.com/our-locations/pecos-valley-urology-2479%3Futm_source%3Dgmb%26utm_medium%3Dhomepage%26utm_campaign%3Dbiz-listings", "rating": "", "reviews": "", "place_id": "ChIJI47jbKd544YRhJ8mdRNpCis", "latitude": 32.4419808, "longitude": -104.256991, "subtypes": "Urology clinic"}, {"name": "Mitchell Petty, D.O.", "address": "2420 W Pierce St #102, Carlsbad, NM 88220", "city": "Carlsbad", "state": "New Mexico", "state_code": "NM", "phone": "+1 575-628-5068", "website": "https://www.pecosvalleydocs.com/doctors-providers/petty-mitchell-do-10212%3Futm_source%3Dgmb%26utm_medium%3Dhomepage%26utm_campaign%3Dbiz-listings", "rating": 5, "reviews": 26, "place_id": "ChIJxbLUGiF544YR4RW_nPgp6U4", "latitude": 32.4419808, "longitude": -104.256991, "subtypes": "Urologist"}]