[{"name": "Black Bradford MD", "address": "885 S Sawburg Ave, Alliance, OH 44601", "city": "Alliance", "state": "Ohio", "state_code": "OH", "phone": "+1 330-823-1112", "website": "http://www.ohiourological.com/", "rating": 4, "reviews": 9, "place_id": "ChIJy1YkZhG1NogROr7MYZbvt8U", "latitude": 40.9132746, "longitude": -81.13523049999999, "subtypes": "Urologist"}, {"name": "Dayton Physicians Network Urology", "address": "2350 Miami Valley Dr Suite 500, Centerville, OH 45459", "city": "Centerville", "state": "Ohio", "state_code": "OH", "phone": "+1 937-293-1622", "website": "https://www.daytonphysicians.com/", "rating": 3.3, "reviews": 39, "place_id": "ChIJ2V6UJeaPQIgRHdr4IueIp3Q", "latitude": 39.6525283, "longitude": -84.1145959, "subtypes": "Urologist"}, {"name": "Spencer Hill, MD", "address": "2350 Miami Valley Dr Suite 500, Centerville, OH 45459", "city": "Centerville", "state": "Ohio", "state_code": "OH", "phone": "+1 937-293-1622", "website": "https://www.daytonphysicians.com/spencer-hill-md/", "rating": 4.8, "reviews": 72, "place_id": "ChIJE8wArxSPQIgRnpYS_gW9ANc", "latitude": 39.6525283, "longitude": -84.1145959, "subtypes": "Urologist"}, {"name": "Blake B. Anderson, MD", "address": "2350 Miami Valley Dr Suite 500, Centerville, OH 45459", "city": "Centerville", "state": "Ohio", "state_code": "OH", "phone": "+1 937-293-1622", "website": "https://daytonphysicians.com/blake-b-anderson-md/", "rating": 4.7, "reviews": 47, "place_id": "ChIJXbQ-qOaPQIgRJgPTX3Id1Xs", "latitude": 39.6524582, "longitude": -84.114458, "subtypes": "Urologist"}, {"name": "Krishnanath Gaitonde, MD, MBA", "address": "2350 Miami Valley Dr Suite 500, Centerville, OH 45459", "city": "Centerville", "state": "Ohio", "state_code": "OH", "phone": "+1 937-293-1622", "website": "https://www.daytonphysicians.com/krishnanath-gaitonde-md-mba/", "rating": 4.9, "reviews": 48, "place_id": "ChIJUa-UgyGPQIgR2kZXm48tOZs", "latitude": 39.6525283, "longitude": -84.1145959, "subtypes": "Urologist"}, {"name": "Matthew Smith, MD", "address": "9000 N Main St #200, Dayton, OH 45415", "city": "Dayton", "state": "Ohio", "state_code": "OH", "phone": "+1 937-293-1622", "website": "https://daytonphysicians.com/mathew-smith-md/", "rating": 4.9, "reviews": 79, "place_id": "ChIJwZfx9KuPQIgRucBYJ8j8M38", "latitude": 39.8556016, "longitude": -84.2719694, "subtypes": "Urologist"}, {"name": "Erik S. Weise, MD", "address": "2350 Miami Valley Dr Suite 500, Centerville, OH 45459", "city": "Centerville", "state": "Ohio", "state_code": "OH", "phone": "+1 937-293-1622", "website": "https://www.daytonphysicians.com/erik-s-weise-md/", "rating": 4.6, "reviews": 68, "place_id": "ChIJ06LDLuaPQIgRJneR96lvPqU", "latitude": 39.6524582, "longitude": -84.114458, "subtypes": "Urologist"}, {"name": "Dr. Shane T. Russell, MD", "address": "6780 Loop Rd, Dayton, OH 45459", "city": "Dayton", "state": "Ohio", "state_code": "OH", "phone": "", "website": "http://www.vasectomyreversalohio.com/", "rating": 4.9, "reviews": 54, "place_id": "ChIJa2YpgoqFQIgR3Yp_YmgGQlY", "latitude": 39.6460346, "longitude": -84.1476344, "subtypes": "Urologist"}, {"name": "SouthWest Urology - Medina", "address": "3647 Medina Rd, Medina, OH 44256", "city": "Medina", "state": "Ohio", "state_code": "OH", "phone": "+1 330-725-0600", "website": "https://www.southwesturology.com/", "rating": 4.8, "reviews": 81, "place_id": "ChIJ_1j2JWzIMIgRBRDoCM5Fz88", "latitude": 41.1372152, "longitude": -81.8189129, "subtypes": "Urology clinic"}, {"name": "Michael Jordan, DO", "address": "500 London Ave Entrance D, Marysville, OH 43040", "city": "Marysville", "state": "Ohio", "state_code": "OH", "phone": "+1 937-578-2626", "website": "http://memorialohio.com/", "rating": 4.9, "reviews": 676, "place_id": "ChIJRf8mwKXFOIgRnZpak-LYdxw", "latitude": 40.2306811, "longitude": -83.36898219999999, "subtypes": "Urologist"}, {"name": "Central Ohio Urology Group", "address": "11301 Upper Gilchrist Rd Suite A, Mt Vernon, OH 43050", "city": "Mt Vernon", "state": "Ohio", "state_code": "OH", "phone": "+1 614-396-2684", "website": "https://www.centralohiourology.com/locations/mt-vernon/", "rating": "", "reviews": "", "place_id": "ChIJccYk0-HNOYgRCVt6SUXuWSY", "latitude": 40.3969205, "longitude": -82.4383325, "subtypes": "Urology clinic"}, {"name": "OhioHealth Physician Group Urology Marion", "address": "1040 Delaware Ave, Marion, OH 43302", "city": "Marion", "state": "Ohio", "state_code": "OH", "phone": "+1 740-383-7950", "website": "https://www.ohiohealth.com/ohiohealth-physician-group/our-specialties/urology/our-locations/marion/%3Futm_source%3Dyext%26utm_medium%3Dlistings%26utm_campaign%3Dwebsiteclicksfacility", "rating": 3, "reviews": 4, "place_id": "ChIJO4EbFXMbOYgRafsRBVyKHLg", "latitude": 40.5702744, "longitude": -83.1204989, "subtypes": "Urologist"}, {"name": "The Urology Group - Oxford", "address": "110 N Poplar St, Oxford, OH 45056", "city": "Oxford", "state": "Ohio", "state_code": "OH", "phone": "+1 513-841-7900", "website": "https://www.urologygroup.com/location/oxford/%3Futm_source%3Dgmb%26utm_medium%3Dorganic%26utm_campaign%3Doxford%26utm_content%3Dlocation-page", "rating": 4.1, "reviews": 17, "place_id": "ChIJRWCZzHI9QIgRW8QztUdydDM", "latitude": 39.5123471, "longitude": -84.7415135, "subtypes": "Urologist"}, {"name": "The Urology Group - Anderson", "address": "7525 State Rd Ste B, Cincinnati, OH 45255", "city": "Cincinnati", "state": "Ohio", "state_code": "OH", "phone": "+1 513-841-7795", "website": "https://www.urologygroup.com/location/anderson-state-road/%3Futm_source%3Dgmb%26utm_medium%3Dorganic%26utm_campaign%3Danderson%26utm_content%3Dlocation-page", "rating": 4.8, "reviews": 263, "place_id": "ChIJo1Da-DSpQYgRVHS4ryD5gaM", "latitude": 39.0832484, "longitude": -84.34889319999999, "subtypes": "Urologist"}, {"name": "Wood County Urology Bowling Green", "address": "960 W Wooster St # 101, Bowling Green, OH 43402", "city": "Bowling Green", "state": "Ohio", "state_code": "OH", "phone": "+1 419-352-1404", "website": "https://www.woodcountyhospital.org/providers/specialties/urology%3Futm_source%3DGMBSocialClimb%26utm_medium%3DUrology", "rating": 4.9, "reviews": 265, "place_id": "ChIJn_GF2Y8LPIgRRf2crlI_1wU", "latitude": 41.3753046, "longitude": -83.6670146, "subtypes": "Urology clinic"}, {"name": "The Urology Group - Norwood Surgery Center", "address": "2000 Joseph E Sanker Blvd, Cincinnati, OH 45212", "city": "Cincinnati", "state": "Ohio", "state_code": "OH", "phone": "+1 513-841-7400", "website": "https://www.urologygroup.com/location/norwood-campus/%3Futm_source%3Dgmb%26utm_medium%3Dorganic%26utm_campaign%3Dnorwood-surgery%26utm_content%3Dlocation-page", "rating": 4.7, "reviews": 2219, "place_id": "ChIJt_xKW5GyQYgRnU1t9LY9-qc", "latitude": 39.1665271, "longitude": -84.45897769999999, "subtypes": "Urologist"}, {"name": "Brandon B. Mudd, MD", "address": "2000 Joseph E Sanker Blvd, Cincinnati, OH 45212", "city": "Cincinnati", "state": "Ohio", "state_code": "OH", "phone": "+1 513-841-7500", "website": "https://www.urologygroup.com/physician/brandon-b-mudd-m-d/%3Futm_source%3Dgmb%26utm_medium%3Dorganic%26utm_campaign%3Dbrandon-mudd-norwood%26utm_content%3Dstaff-page", "rating": 4.9, "reviews": 39, "place_id": "ChIJX0o3FKazQYgRoGt9me0_jWQ", "latitude": 39.1619898, "longitude": -84.45361989999999, "subtypes": "Urologist"}, {"name": "The Christ Hospital Physicians - Urology", "address": "2123 Auburn Ave #441, Cincinnati, OH 45219", "city": "Cincinnati", "state": "Ohio", "state_code": "OH", "phone": "+1 513-721-7373", "website": "https://www.thechristhospital.com/services/urology", "rating": 2.5, "reviews": 15, "place_id": "ChIJR2bJdO-zQYgRdgcT3OXmE5M", "latitude": 39.1211546, "longitude": -84.510667, "subtypes": "Urology clinic"}, {"name": "Y. H Hong, MD", "address": "2123 Auburn Ave #441, Cincinnati, OH 45219", "city": "Cincinnati", "state": "Ohio", "state_code": "OH", "phone": "+1 513-721-7373", "website": "https://www.thechristhospital.com/physician-details%3FProvider%3D%25230017U5RMU", "rating": 4.6, "reviews": 11, "place_id": "ChIJCzyT1lyzQYgRdPZ0XXuICck", "latitude": 39.1206597, "longitude": -84.5097725, "subtypes": "Urologist"}, {"name": "Nilesh Patil, MD", "address": "222 Piedmont Ave suite 7200, Cincinnati, OH 45219", "city": "Cincinnati", "state": "Ohio", "state_code": "OH", "phone": "+1 513-475-8787", "website": "https://www.uchealth.com/en/provider-profiles/patil-nilesh-1497904205", "rating": 4.3, "reviews": 6, "place_id": "ChIJweQvNZazQYgRLJw6QUJFZqI", "latitude": 39.136548, "longitude": -84.5050286, "subtypes": "Urologist"}, {"name": "Dr. Courtney Plattner", "address": "222 Piedmont Ave, Cincinnati, OH 45219", "city": "Cincinnati", "state": "Ohio", "state_code": "OH", "phone": "+1 513-418-2639", "website": "https://www.uchealth.com/en/provider-profiles/plattner-courtney-1114243870", "rating": 4.3, "reviews": 6, "place_id": "ChIJZWDU4JazQYgR5e-DU6JiwzI", "latitude": 39.1366661, "longitude": -84.5046023, "subtypes": "Urologist"}, {"name": "Jennifer L. Bennett, MD", "address": "2123 Auburn Ave Suite 434, Cincinnati, OH 45219", "city": "Cincinnati", "state": "Ohio", "state_code": "OH", "phone": "+1 513-841-7795", "website": "https://www.thechristhospital.com/physician-details%3FProvider%3DS47P0TME6F", "rating": 3.3, "reviews": 15, "place_id": "ChIJbwFsoO-zQYgRY22Lkuf4HaM", "latitude": 39.1207145, "longitude": -84.50977809999999, "subtypes": "Urologist"}, {"name": "Tri-State Urologic Services", "address": "2000 Joseph E Sanker Blvd, Cincinnati, OH 45212", "city": "Cincinnati", "state": "Ohio", "state_code": "OH", "phone": "+1 513-542-5142", "website": "", "rating": 1.7, "reviews": 6, "place_id": "ChIJt_xKW5GyQYgR__5LiM5V_TI", "latitude": 39.166439, "longitude": -84.45902219999999, "subtypes": "Urologist"}, {"name": "The Urology Group - Westside", "address": "3301 Mercy Health Blvd Suite 525, Cincinnati, OH 45211", "city": "Cincinnati", "state": "Ohio", "state_code": "OH", "phone": "+1 513-841-7700", "website": "https://www.urologygroup.com/location/westside/%3Futm_source%3Dgmb%26utm_medium%3Dorganic%26utm_campaign%3Dwestside%26utm_content%3Dlocation-page", "rating": 4.7, "reviews": 311, "place_id": "ChIJV7Igil3KQYgRprkA7lttGnE", "latitude": 39.1811464, "longitude": -84.59734739999999, "subtypes": "Urologist"}, {"name": "Ryan M. Flynn, MD", "address": "3301 Mercy Health Blvd Suite 525, Cincinnati, OH 45211", "city": "Cincinnati", "state": "Ohio", "state_code": "OH", "phone": "+1 513-841-7700", "website": "https://www.urologygroup.com/physician/ryan-m-flynn/%3Futm_source%3Dgmb%26utm_medium%3Dorganic%26utm_campaign%3Dryan-flynn%26utm_content%3Dstaff-page", "rating": 5, "reviews": 83, "place_id": "ChIJNcq8ZDW1QYgRu-bEBw6eYHM", "latitude": 39.1809331, "longitude": -84.5966369, "subtypes": "Urologist"}, {"name": "Brandon B. Mudd, MD", "address": "3301 Mercy Health Blvd Suite 525, Cincinnati, OH 45211", "city": "Cincinnati", "state": "Ohio", "state_code": "OH", "phone": "+1 513-841-7700", "website": "https://www.urologygroup.com/physician/brandon-b-mudd-m-d/%3Futm_source%3Dgmb%26utm_medium%3Dorganic%26utm_campaign%3Dbrandon-mudd-westside%26utm_content%3Dstaff-page", "rating": "", "reviews": "", "place_id": "ChIJU2936b-1QYgR9upQt0SIwwE", "latitude": 39.1811464, "longitude": -84.59734739999999, "subtypes": "Urologist"}, {"name": "King's Daughters Portsmouth Urology", "address": "1729 Kinneys Ln #103, Portsmouth, OH 45662", "city": "Portsmouth", "state": "Ohio", "state_code": "OH", "phone": "+1 740-355-1900", "website": "http://kingsdaughtershealth.com/", "rating": 2.8, "reviews": 4, "place_id": "ChIJwfi-flmLRogRK5OBOMivwjQ", "latitude": 38.7483026, "longitude": -82.9804747, "subtypes": "Urologist"}, {"name": "Licking Memorial Urology", "address": "1980 Tamarack Rd, Newark, OH 43055", "city": "Newark", "state": "Ohio", "state_code": "OH", "phone": "+1 220-564-7520", "website": "https://www.lmhealth.org/Services-Facilities/Physician-Practices/Urology.aspx", "rating": 5, "reviews": 9, "place_id": "ChIJ52B1-yQXOIgRLsiM6zzycho", "latitude": 40.0416653, "longitude": -82.4646983, "subtypes": "Urologist"}, {"name": "Dr. Roy Brown", "address": "1980 Tamarack Rd, Newark, OH 43055", "city": "Newark", "state": "Ohio", "state_code": "OH", "phone": "+1 220-564-7520", "website": "https://www.lmhealth.org/Services-Facilities/Physician-Practices/Urology", "rating": 2.9, "reviews": 17, "place_id": "ChIJi7z7i8SKR4gRpgxRLpSxTsE", "latitude": 40.0417626, "longitude": -82.4646581, "subtypes": "Urologist"}, {"name": "Urological Center", "address": "1980 Tamarack Rd, Newark, OH 43055", "city": "Newark", "state": "Ohio", "state_code": "OH", "phone": "+1 740-344-1516", "website": "", "rating": 3, "reviews": 2, "place_id": "ChIJCRczGHIWOIgRZx3nMSx6ODI", "latitude": 40.0416653, "longitude": -82.4646983, "subtypes": "Urologist"}, {"name": "Derrick Reedus", "address": "1320 W Main St, Newark, OH 430551822", "city": "Newark", "state": "Ohio", "state_code": "OH", "phone": "+1 220-564-4000", "website": "", "rating": 2.3, "reviews": 3, "place_id": "ChIJ____LzwWOIgRfP7JrLTg8mU", "latitude": 40.0482907, "longitude": -82.45022589999999, "subtypes": "Urologist"}, {"name": "GU Ohio", "address": "905 N 21st St, Newark, OH 43055", "city": "Newark", "state": "Ohio", "state_code": "OH", "phone": "+1 740-255-5189", "website": "https://www.guohio.com/", "rating": "", "reviews": "", "place_id": "ChIJiaA-Vos9OIgR9O6GWUSvYQw", "latitude": 40.0728702, "longitude": -82.4296122, "subtypes": "Urologist"}, {"name": "Cleveland Urology Associates", "address": "10500 Antenucci Blvd, Garfield Heights, OH 44125", "city": "Garfield Heights", "state": "Ohio", "state_code": "OH", "phone": "+1 440-891-6500", "website": "", "rating": 4.5, "reviews": 117, "place_id": "ChIJifXpYHzjMIgRwjBe8pUYPfk", "latitude": 41.411122, "longitude": -81.61099349999999, "subtypes": "Urology clinic"}, {"name": "Cleveland Clinic Hillcrest Hospital Urology", "address": "6770 Mayfield Rd, Cleveland, OH 44124", "city": "Cleveland", "state": "Ohio", "state_code": "OH", "phone": "+1 216-444-5600", "website": "https://my.clevelandclinic.org/", "rating": 5, "reviews": 2, "place_id": "ChIJQaUnsv0DMYgRElPwUkJ8u8A", "latitude": 41.5189849, "longitude": -81.435158, "subtypes": "Urology clinic"}, {"name": "Urology Partners - Fairview", "address": "18099 Lorain Ave, Cleveland, OH 44111", "city": "Cleveland", "state": "Ohio", "state_code": "OH", "phone": "+1 216-941-0333", "website": "http://urologypartners.net/", "rating": 4.9, "reviews": 303, "place_id": "ChIJ_5fSNHXtMIgRTH0e8RaOjIA", "latitude": 41.4501406, "longitude": -81.8240132, "subtypes": "Urology clinic"}, {"name": "Dr. Jihad H. Kaouk, MD", "address": "9500 Euclid Ave, Cleveland, OH 44106", "city": "Cleveland", "state": "Ohio", "state_code": "OH", "phone": "+1 216-444-5600", "website": "https://my.clevelandclinic.org/staff/4363-jihad-kaouk", "rating": 4.3, "reviews": 18, "place_id": "ChIJUXh0BJn7MIgRoTpMUtCfw_w", "latitude": 41.5026725, "longitude": -81.6204621, "subtypes": "Urologist"}, {"name": "Hadley Wood, MD", "address": "9500 Euclid Ave, Cleveland, OH 44195", "city": "Cleveland", "state": "Ohio", "state_code": "OH", "phone": "+1 216-444-5600", "website": "http://my.clevelandclinic.org/staff_directory/staff_display%3Fdoctorid%3D13672", "rating": 4.7, "reviews": 13, "place_id": "ChIJUXh0BJn7MIgRdbSOt8J6WMM", "latitude": 41.5025982, "longitude": -81.6211125, "subtypes": "Urologist"}, {"name": "Irma J. Lengu, MD", "address": "9500 Euclid Ave, Cleveland, OH 44195", "city": "Cleveland", "state": "Ohio", "state_code": "OH", "phone": "+1 216-444-2200", "website": "https://my.clevelandclinic.org/", "rating": 3.9, "reviews": 31, "place_id": "ChIJM7MZGQLwMIgR_Zs2gckosnE", "latitude": 41.502539, "longitude": -81.6210658, "subtypes": "Urologist"}, {"name": "Stein Robert J MD", "address": "9500 Euclid Ave, Cleveland, OH 44195", "city": "Cleveland", "state": "Ohio", "state_code": "OH", "phone": "+1 216-445-4800", "website": "https://my.clevelandclinic.org/staff/7504-robert-stein", "rating": 4.5, "reviews": 15, "place_id": "ChIJUXh0BJn7MIgRREFUkei2Qzw", "latitude": 41.502548, "longitude": -81.6206114, "subtypes": "Urologist"}, {"name": "University Hospitals Urology Institute", "address": "29001 Cedar Rd suite 202, Lyndhurst, OH 44124", "city": "Lyndhurst", "state": "Ohio", "state_code": "OH", "phone": "+1 216-844-3009", "website": "https://www.uhhospitals.org/services/urology-services", "rating": 3, "reviews": 6, "place_id": "ChIJq9MR6MMDMYgRS99lOLGSSVU", "latitude": 41.5018453, "longitude": -81.47557979999999, "subtypes": "Urology clinic"}, {"name": "Dr. Steven C. Campbell, MD", "address": "9500 Euclid Ave, Cleveland, OH 44106", "city": "Cleveland", "state": "Ohio", "state_code": "OH", "phone": "+1 216-444-5600", "website": "http://my.clevelandclinic.org/staff_directory/staff_display.aspx%3Fdoctorid%3D6257", "rating": 5, "reviews": 1, "place_id": "ChIJUXh0BJn7MIgR8SDqTyuWMGQ", "latitude": 41.5025982, "longitude": -81.6211125, "subtypes": "Urologist"}, {"name": "Dr. Nannan Thirumavalavan", "address": "11100 Euclid Ave, Cleveland, OH 44106", "city": "Cleveland", "state": "Ohio", "state_code": "OH", "phone": "+1 216-285-5036", "website": "https://clevelandmenshealth.com/locations/cleveland-office/", "rating": 4.7, "reviews": 11, "place_id": "ChIJeypZGrQDMYgRqFWks0JQY40", "latitude": 41.5062405, "longitude": -81.6053771, "subtypes": "Urologist"}, {"name": "Cleveland Men's Health", "address": "11100 Euclid Ave, Cleveland, OH 44106", "city": "Cleveland", "state": "Ohio", "state_code": "OH", "phone": "+1 216-285-5036", "website": "https://clevelandmenshealth.com/locations/cleveland-office/", "rating": "", "reviews": "", "place_id": "ChIJla6In6T7MIgRgteydI5DcRM", "latitude": 41.5062405, "longitude": -81.6053771, "subtypes": "Urology clinic"}, {"name": "Goldman Howard B MD", "address": "9500 Euclid Ave, Cleveland, OH 44195", "city": "Cleveland", "state": "Ohio", "state_code": "OH", "phone": "+1 216-444-5600", "website": "https://my.clevelandclinic.org/staff/2406-howard-goldman", "rating": 4.6, "reviews": 5, "place_id": "ChIJQaUnsv0DMYgRl82O0CALoss", "latitude": 41.5027703, "longitude": -81.6208279, "subtypes": "Urologist"}, {"name": "Glickman Urology", "address": "6770 Mayfield Rd #226, Cleveland, OH 44124", "city": "Cleveland", "state": "Ohio", "state_code": "OH", "phone": "+1 440-461-6430", "website": "https://my.clevelandclinic.org/departments/urology-kidney", "rating": 3, "reviews": 4, "place_id": "ChIJ3Q9s7lMBMYgRfMR3uQ2gkdk", "latitude": 41.5189189, "longitude": -81.435332, "subtypes": "Urologist"}, {"name": "J. Patrick Spirnak, MD", "address": "5 Severance Cir, Cleveland Heights, OH 44118", "city": "Cleveland Heights", "state": "Ohio", "state_code": "OH", "phone": "+1 216-251-6990", "website": "https://www.uhhospitals.org/doctors/Spirnak-John-1295724136", "rating": 3.9, "reviews": 18, "place_id": "ChIJM7MZGQLwMIgRjRTnm9NW88w", "latitude": 41.515916, "longitude": -81.5481245, "subtypes": "Urologist"}, {"name": "Cleveland Men's Health", "address": "29001 Cedar Rd, Lyndhurst, OH 44124", "city": "Lyndhurst", "state": "Ohio", "state_code": "OH", "phone": "+1 216-285-5036", "website": "https://clevelandmenshealth.com/locations/lyndhurst-office/", "rating": "", "reviews": "", "place_id": "ChIJYcN3upoDMYgRbun2W3-Fkog", "latitude": 41.5021605, "longitude": -81.47563009999999, "subtypes": "Urology clinic"}, {"name": "Berglund Ryan K MD", "address": "9500 Euclid Ave, Cleveland, OH 44195", "city": "Cleveland", "state": "Ohio", "state_code": "OH", "phone": "+1 216-445-2182", "website": "http://my.clevelandclinic.org/", "rating": 3.2, "reviews": 9, "place_id": "ChIJUXh0BJn7MIgRJUlej78TTTw", "latitude": 41.5026725, "longitude": -81.6204621, "subtypes": "Urologist"}, {"name": "Carvell Nguyen, MD", "address": "2500 Metrohealth Dr, Cleveland, OH 44109", "city": "Cleveland", "state": "Ohio", "state_code": "OH", "phone": "+1 216-778-2222", "website": "https://www.metrohealth.org/physician/carvell-nguyen-149286", "rating": 4.8, "reviews": 12, "place_id": "ChIJO-prhv3vMIgR_L3FUxscd18", "latitude": 41.4607746, "longitude": -81.6987862, "subtypes": "Urologist"}, {"name": "Cleveland Urology Associates", "address": "20050 Harvard Rd Suite 102, Warrensville Heights, OH 44122", "city": "Warrensville Heights", "state": "Ohio", "state_code": "OH", "phone": "+1 440-891-6500", "website": "", "rating": "", "reviews": "", "place_id": "ChIJXUgHXEv9MIgRrDK8mBG-Cuw", "latitude": 41.448136, "longitude": -81.5373348, "subtypes": "Urology clinic"}, {"name": "Vasavada Sandip MD", "address": "9500 Euclid Ave Q10, Cleveland, OH 44195", "city": "Cleveland", "state": "Ohio", "state_code": "OH", "phone": "+1 216-445-0296", "website": "http://my.clevelandclinic.org/", "rating": 3.9, "reviews": 8, "place_id": "ChIJUXh0BJn7MIgRpt1kikC1TJ8", "latitude": 41.5023637, "longitude": -81.6206718, "subtypes": "Urologist"}, {"name": "Urologists Institute", "address": "1611 S Green Rd #106, Cleveland, OH 44121", "city": "Cleveland", "state": "Ohio", "state_code": "OH", "phone": "+1 216-844-3009", "website": "http://www.uhhospitals.org/", "rating": "", "reviews": "", "place_id": "ChIJHa9auvf9MIgRUnyXABEP34Y", "latitude": 41.5157283, "longitude": -81.5183686, "subtypes": "Urologist"}, {"name": "Dr. Sanford S. Luria, MD", "address": "6770 Mayfield Rd #226, Cleveland, OH 44124", "city": "Cleveland", "state": "Ohio", "state_code": "OH", "phone": "+1 440-461-6430", "website": "http://my.clevelandclinic.org/", "rating": 3.4, "reviews": 5, "place_id": "ChIJQaUnsv0DMYgRkv3CKObKG7U", "latitude": 41.5189189, "longitude": -81.435332, "subtypes": "Urologist"}, {"name": "Matthew Maurice", "address": "9500 Euclid Ave, Cleveland, OH 44195", "city": "Cleveland", "state": "Ohio", "state_code": "OH", "phone": "+1 216-444-2273", "website": "https://my.clevelandclinic.org/staff/20018-matthew-maurice", "rating": 5, "reviews": 2, "place_id": "ChIJ-5kzhZn7MIgRwQPY_v5mvYE", "latitude": 41.5030489, "longitude": -81.6206201, "subtypes": "Urologist"}, {"name": "University Urologists Inc: Herman Kajal MD", "address": "1611 S Green Rd #106, Cleveland, OH 44121", "city": "Cleveland", "state": "Ohio", "state_code": "OH", "phone": "+1 216-844-8455", "website": "", "rating": "", "reviews": "", "place_id": "ChIJLyl5EPf9MIgRf_sOcQvlgOc", "latitude": 41.5156716, "longitude": -81.518502, "subtypes": "Urologist"}, {"name": "Nehemia Hampel Inc", "address": "14100 Cedar Rd #130, Cleveland, OH 44121", "city": "Cleveland", "state": "Ohio", "state_code": "OH", "phone": "+1 216-381-5888", "website": "", "rating": 1, "reviews": 1, "place_id": "ChIJzdO3K5H9MIgRnWj-dkjUnJw", "latitude": 41.5005982, "longitude": -81.5319416, "subtypes": "Urology clinic"}, {"name": "Kenneth Angermeier, MD", "address": "9500 Euclid Ave, Cleveland, OH 44195", "city": "Cleveland", "state": "Ohio", "state_code": "OH", "phone": "+1 216-444-5600", "website": "https://my.clevelandclinic.org/staff/893-kenneth-angermeier", "rating": 5, "reviews": 6, "place_id": "ChIJUXh0BJn7MIgRaIn12Q8xtx8", "latitude": 41.5022353, "longitude": -81.62228309999999, "subtypes": "Urologist"}, {"name": "Dr. Wahib E. Isac, MD", "address": "9500 Euclid Ave, Cleveland, OH 44106", "city": "Cleveland", "state": "Ohio", "state_code": "OH", "phone": "+1 216-444-2200", "website": "http://my.clevelandclinic.org/", "rating": 5, "reviews": 1, "place_id": "ChIJQ3x73Jn7MIgR6G-z2MuiLsg", "latitude": 41.5026388, "longitude": -81.6210615, "subtypes": "Urologist"}, {"name": "Dr. Jonathan C. Boyd, MD", "address": "6770 Mayfield Rd # 237, Cleveland, OH 44124", "city": "Cleveland", "state": "Ohio", "state_code": "OH", "phone": "+1 440-461-8989", "website": "https://my.clevelandclinic.org/staff/4922-jonathan-boyd", "rating": 5, "reviews": 2, "place_id": "ChIJQaUnsv0DMYgRCpvQn0TGuwo", "latitude": 41.5189189, "longitude": -81.435332, "subtypes": "Urologist"}, {"name": "Cleveland Men's Health", "address": "1000 Auburn Dr, Beachwood, OH 44122", "city": "Beachwood", "state": "Ohio", "state_code": "OH", "phone": "+1 216-285-5036", "website": "https://clevelandmenshealth.com/locations/beachwood-office/", "rating": "", "reviews": "", "place_id": "ChIJuRNVcYYDMYgRXEnZY0uPCRY", "latitude": 41.4535726, "longitude": -81.4956402, "subtypes": "Urology clinic"}, {"name": "Cleveland Urology Associates", "address": "18780 Bagley Rd Suite 108, Middleburg Heights, OH 44130", "city": "Middleburg Heights", "state": "Ohio", "state_code": "OH", "phone": "+1 440-891-6500", "website": "https://clevelandurology.net/", "rating": 1.1, "reviews": 7, "place_id": "ChIJ_ZaoYGzrMIgRPq6sPzAttBo", "latitude": 41.37343329999999, "longitude": -81.83310949999999, "subtypes": "Urology clinic"}, {"name": "Pediatric & Adolescent Urology", "address": "14100 Cedar Rd # 280, Cleveland, OH 44121", "city": "Cleveland", "state": "Ohio", "state_code": "OH", "phone": "+1 216-292-2111", "website": "", "rating": 5, "reviews": 1, "place_id": "ChIJy2oC1JD9MIgRGvkQFwAVvMI", "latitude": 41.5007176, "longitude": -81.5319265, "subtypes": "Urologist"}, {"name": "Dr. Drogo Karl K. Montague, MD", "address": "9500 Euclid Ave, Cleveland, OH 44195", "city": "Cleveland", "state": "Ohio", "state_code": "OH", "phone": "+1 800-223-2273", "website": "http://my.clevelandclinic.org/", "rating": 4, "reviews": 4, "place_id": "ChIJUXh0BJn7MIgREk80F5xG5UM", "latitude": 41.502823, "longitude": -81.62172199999999, "subtypes": "Urologist"}, {"name": "Adam Calaway, MD, MPH", "address": "11100 Euclid Ave 1st Floor, Cleveland, OH 44106", "city": "Cleveland", "state": "Ohio", "state_code": "OH", "phone": "+1 216-844-3009", "website": "https://www.uhhospitals.org/doctors/Calaway-Adam-1366704967%3Futm_campaign%3DCalaway_Adam_11100_Euclid_Ave%26utm_source%3Dyext%26utm_medium%3Dlocallisting%26utm_content%3Dwebsite_url", "rating": 5, "reviews": 1, "place_id": "ChIJ4ZXMUoj7MIgR2OGP1OJKQWA", "latitude": 41.5078296, "longitude": -81.6060135, "subtypes": "Urologist"}, {"name": "Yi-Chia Lin", "address": "2010 E 90th St, Cleveland, OH 44106", "city": "Cleveland", "state": "Ohio", "state_code": "OH", "phone": "+1 216-444-2273", "website": "https://my.clevelandclinic.org/staff/30409-yi-chia-lin", "rating": 5, "reviews": 1, "place_id": "ChIJk8nUXpj7MIgR8I_DO25hMOI", "latitude": 41.5029247, "longitude": -81.62371739999999, "subtypes": "Urologist"}, {"name": "Scott Lundy", "address": "9500 Euclid Ave, Cleveland, OH 441950001", "city": "Cleveland", "state": "Ohio", "state_code": "OH", "phone": "+1 216-444-8975", "website": "https://my.clevelandclinic.org/staff/28398-scott-lundy", "rating": 5, "reviews": 4, "place_id": "ChIJYbyMdZn7MIgRHxcWbtf4BkA", "latitude": 41.502539, "longitude": -81.6210658, "subtypes": "Urologist"}, {"name": "Petar Bajic", "address": "9500 Euclid Ave, Cleveland, OH 44195", "city": "Cleveland", "state": "Ohio", "state_code": "OH", "phone": "+1 216-444-2200", "website": "", "rating": 5, "reviews": 1, "place_id": "ChIJYbyMdZn7MIgRhxovmBfTAlE", "latitude": 41.502539, "longitude": -81.6210658, "subtypes": "Urologist"}, {"name": "Nima Almassi", "address": "9500 Euclid Ave, Cleveland, OH 44195", "city": "Cleveland", "state": "Ohio", "state_code": "OH", "phone": "+1 216-444-2200", "website": "https://my.clevelandclinic.org/staff/26511-nima-almassi", "rating": 5, "reviews": 2, "place_id": "ChIJYbyMdZn7MIgRY7IEBrGsnYE", "latitude": 41.502539, "longitude": -81.6210658, "subtypes": "Urologist"}, {"name": "Dr. Mark J. Noble, MD", "address": "9500 Euclid Ave # A100, Cleveland, OH 44195", "city": "Cleveland", "state": "Ohio", "state_code": "OH", "phone": "+1 216-445-8501", "website": "http://my.clevelandclinic.org/", "rating": 5, "reviews": 3, "place_id": "ChIJUXh0BJn7MIgRbbUYoOzOKlk", "latitude": 41.5025982, "longitude": -81.6211125, "subtypes": "Urologist"}, {"name": "Klein Eric A MD", "address": "9500 Euclid Ave, Cleveland, OH 44106", "city": "Cleveland", "state": "Ohio", "state_code": "OH", "phone": "+1 216-444-5600", "website": "", "rating": 4.2, "reviews": 5, "place_id": "ChIJUXh0BJn7MIgRI9oz-FGMdmw", "latitude": 41.5025982, "longitude": -81.6211125, "subtypes": "Urologist"}, {"name": "Darius Unwala", "address": "9500 Euclid Ave, Cleveland, OH 44195", "city": "Cleveland", "state": "Ohio", "state_code": "OH", "phone": "+1 216-442-1102", "website": "https://my.clevelandclinic.org/staff/24002-darius-j-unwala", "rating": 3.3, "reviews": 7, "place_id": "ChIJYbyMdZn7MIgRSsk1CziJDLw", "latitude": 41.502539, "longitude": -81.6210658, "subtypes": "Urologist"}, {"name": "Cleveland Urology Associates", "address": "1320 Corporate Dr #200, Hudson, OH 44236", "city": "Hudson", "state": "Ohio", "state_code": "OH", "phone": "+1 440-891-6500", "website": "https://clevelandurology.net/", "rating": 1, "reviews": 1, "place_id": "ChIJK67p6EEhMYgRD7kksfjxefA", "latitude": 41.2143083, "longitude": -81.4414444, "subtypes": "Urology clinic"}, {"name": "Dr. Venkatesh Krishnamurthi, MD", "address": "9500 Euclid Ave # A100, Cleveland, OH 44195", "city": "Cleveland", "state": "Ohio", "state_code": "OH", "phone": "+1 216-444-0393", "website": "", "rating": 3.7, "reviews": 6, "place_id": "ChIJUXh0BJn7MIgRwFMG5PLHX-c", "latitude": 41.5026185, "longitude": -81.621087, "subtypes": "Urologist"}, {"name": "Ulchaker James MD", "address": "9500 Euclid Ave Q10, Cleveland, OH 44195", "city": "Cleveland", "state": "Ohio", "state_code": "OH", "phone": "+1 216-445-1786", "website": "", "rating": 5, "reviews": 2, "place_id": "ChIJUXh0BJn7MIgRxntUkFCFI8w", "latitude": 41.5025982, "longitude": -81.6211125, "subtypes": "Urologist"}, {"name": "Dr. John C. Rabets, MD", "address": "9500 Euclid Ave, Cleveland, OH 44106", "city": "Cleveland", "state": "Ohio", "state_code": "OH", "phone": "+1 216-444-9896", "website": "http://my.clevelandclinic.org/", "rating": 4, "reviews": 4, "place_id": "ChIJUXh0BJn7MIgRQDROurWiVNw", "latitude": 41.5025982, "longitude": -81.6211125, "subtypes": "Urologist"}, {"name": "Simon Kim, MD - UH Cleveland Medical Center", "address": "11100 Euclid Ave, Cleveland, OH 44106", "city": "Cleveland", "state": "Ohio", "state_code": "OH", "phone": "+1 216-844-3009", "website": "", "rating": 5, "reviews": 2, "place_id": "ChIJoShRSoj7MIgRetWHzD8tyso", "latitude": 41.5056677, "longitude": -81.6052697, "subtypes": "Urologist"}, {"name": "Rachel Pope, MD, MPH", "address": "11100 Euclid Ave, Cleveland, OH 44106", "city": "Cleveland", "state": "Ohio", "state_code": "OH", "phone": "+1 216-844-3097", "website": "https://www.uhhospitals.org/doctors/Pope-Rachel-1255623658%3Futm_campaign%3DPope_Rachel_11100_Euclid_Ave%26utm_source%3Dyext%26utm_medium%3Dlocallisting%26utm_content%3Dwebsite_url", "rating": 4.6, "reviews": 5, "place_id": "ChIJL1hjZ3H7MIgRSf-IGePdYEY", "latitude": 41.5061512, "longitude": -81.60538439999999, "subtypes": "Urologist"}, {"name": "Dr. James A. Kontak, MD", "address": "18099 Old Lorain Rd # 141, Cleveland, OH 44111", "city": "Cleveland", "state": "Ohio", "state_code": "OH", "phone": "+1 216-941-0333", "website": "http://www.urologypartners.net/", "rating": 3.7, "reviews": 3, "place_id": "ChIJqxfbNHXtMIgRTkDONcAdwLs", "latitude": 41.4501405, "longitude": -81.82401329999999, "subtypes": "Urologist"}, {"name": "Cleveland Urology Associates", "address": "1730 W 25th St # 4A, Cleveland, OH 44113", "city": "Cleveland", "state": "Ohio", "state_code": "OH", "phone": "+1 440-891-6500", "website": "https://clevelandurology.net/", "rating": "", "reviews": "", "place_id": "ChIJl47UoLrxMIgRi1yM_2xhnfc", "latitude": 41.4873144, "longitude": -81.70753599999999, "subtypes": "Urology clinic"}, {"name": "Haber Eorges-Pascal MD", "address": "9500 Euclid Ave, Cleveland, OH 44106", "city": "Cleveland", "state": "Ohio", "state_code": "OH", "phone": "+1 216-445-4781", "website": "", "rating": 3.7, "reviews": 3, "place_id": "ChIJQ3x73Jn7MIgRwv9q5-x6J_c", "latitude": 41.5024373, "longitude": -81.62148959999999, "subtypes": "Urologist"}, {"name": "Dr. Alvin C. Wee, MD", "address": "9500 Euclid Ave # A70, Cleveland, OH 44195", "city": "Cleveland", "state": "Ohio", "state_code": "OH", "phone": "+1 216-444-5600", "website": "https://my.clevelandclinic.org/staff/8815-alvin-wee", "rating": 4.3, "reviews": 12, "place_id": "ChIJUXh0BJn7MIgRRkdjtARqrcE", "latitude": 41.5020793, "longitude": -81.6218002, "subtypes": "Urologist"}, {"name": "Drogo Montague", "address": "8950 Euclid Ave, Cleveland, OH 441950001", "city": "Cleveland", "state": "Ohio", "state_code": "OH", "phone": "+1 216-444-8950", "website": "", "rating": "", "reviews": "", "place_id": "ChIJq6pGXJj7MIgRynqQDGJhHCg", "latitude": 41.5031703, "longitude": -81.6238229, "subtypes": "Urologist"}, {"name": "Shubham Gupta, MD", "address": "11100 Euclid Ave 1st Floor, Cleveland, OH 44106", "city": "Cleveland", "state": "Ohio", "state_code": "OH", "phone": "+1 216-844-3009", "website": "https://www.uhhospitals.org/doctors/Gupta-Shubham-1578726477%3Futm_campaign%3DGupta_Shubham_11100_Euclid_Ave%26utm_source%3Dyext%26utm_medium%3Dlocallisting%26utm_content%3Dwebsite_url", "rating": 1, "reviews": 2, "place_id": "ChIJ9XghpFf7MIgRNpgJbqT_cfc", "latitude": 41.5078296, "longitude": -81.6060135, "subtypes": "Urologist"}, {"name": "Dr. Julian A. Gordon, MD", "address": "2268 Orchard Way, Beachwood, OH 44122", "city": "Beachwood", "state": "Ohio", "state_code": "OH", "phone": "+1 800-555-1212", "website": "", "rating": 5, "reviews": 1, "place_id": "ChIJm8-yWm8CMYgRe64aAn7eizk", "latitude": 41.4967122, "longitude": -81.49994819999999, "subtypes": "Urologist"}, {"name": "David Goldfarb, MD", "address": "9500 Euclid Ave, Cleveland, OH 44195", "city": "Cleveland", "state": "Ohio", "state_code": "OH", "phone": "+1 216-444-5600", "website": "https://my.clevelandclinic.org/staff/269-david-goldfarb", "rating": 3, "reviews": 2, "place_id": "ChIJUXh0BJn7MIgRfAtn3IVx4nA", "latitude": 41.5022353, "longitude": -81.62228309999999, "subtypes": "Urologist"}, {"name": "Dr. Sawsan Y. Alkass, MD", "address": "9500 Euclid Ave, Cleveland, OH 44106", "city": "Cleveland", "state": "Ohio", "state_code": "OH", "phone": "+1 800-223-2273", "website": "http://my.clevelandclinic.org/", "rating": "", "reviews": "", "place_id": "ChIJUXh0BJn7MIgRqvsN3XpNsFQ", "latitude": 41.5024373, "longitude": -81.62148959999999, "subtypes": "Urologist"}, {"name": "Dr. Sriharan Sivalingam", "address": "9500 Euclid Ave, Cleveland, OH 44195", "city": "Cleveland", "state": "Ohio", "state_code": "OH", "phone": "+1 216-444-2200", "website": "", "rating": "", "reviews": "", "place_id": "ChIJYbyMdZn7MIgRcJTpN6jHLog", "latitude": 41.502539, "longitude": -81.6210658, "subtypes": "Urologist"}, {"name": "Dr. Sheetal Nijhawan, MD", "address": "13951 Terrace Rd, Cleveland, OH 44112", "city": "Cleveland", "state": "Ohio", "state_code": "OH", "phone": "+1 800-223-2273", "website": "http://my.clevelandclinic.org/", "rating": "", "reviews": "", "place_id": "ChIJB9gNkhj8MIgR3pYB-SXtjyM", "latitude": 41.5253172, "longitude": -81.58281939999999, "subtypes": "Urologist"}, {"name": "Dr. Elroy D. Kursh, MD", "address": "9500 Euclid Ave, Cleveland, OH 44106", "city": "Cleveland", "state": "Ohio", "state_code": "OH", "phone": "+1 800-223-2273", "website": "http://my.clevelandclinic.org/", "rating": "", "reviews": "", "place_id": "ChIJUXh0BJn7MIgRb59moEiPoVU", "latitude": 41.5024373, "longitude": -81.62148959999999, "subtypes": "Urologist"}, {"name": "Dr. Amihay Nevo Pima", "address": "11100 Euclid Ave, Cleveland, OH 44106", "city": "Cleveland", "state": "Ohio", "state_code": "OH", "phone": "+1 216-844-3009", "website": "", "rating": "", "reviews": "", "place_id": "ChIJ4ZXMUoj7MIgRFIr_1q4wsps", "latitude": 41.5065236, "longitude": -81.6054284, "subtypes": "Urologist"}, {"name": "Brian Canterbury", "address": "9500 Euclid Ave, Cleveland, OH 44195", "city": "Cleveland", "state": "Ohio", "state_code": "OH", "phone": "+1 216-444-2200", "website": "https://my.clevelandclinic.org/staff/21936-brian-canterbury", "rating": "", "reviews": "", "place_id": "ChIJYbyMdZn7MIgRozCfOOSEG9w", "latitude": 41.502539, "longitude": -81.6210658, "subtypes": "Urologist"}, {"name": "Susan Luay P MD", "address": "9500 Euclid Ave # A70, Cleveland, OH 44195", "city": "Cleveland", "state": "Ohio", "state_code": "OH", "phone": "+1 216-444-2084", "website": "", "rating": "", "reviews": "", "place_id": "ChIJUXh0BJn7MIgRnKyWzUvP_mU", "latitude": 41.502614, "longitude": -81.621087, "subtypes": "Urologist"}, {"name": "Dr. Arthur Porter, MD", "address": "9500 Euclid Ave, Cleveland, OH 44106", "city": "Cleveland", "state": "Ohio", "state_code": "OH", "phone": "+1 216-444-9896", "website": "http://my.clevelandclinic.org/", "rating": "", "reviews": "", "place_id": "ChIJUXh0BJn7MIgRWEMVKNFBk9Y", "latitude": 41.5026388, "longitude": -81.6210615, "subtypes": "Urologist"}, {"name": "Dr. Edward I. Cho, MD", "address": "9500 Euclid Ave, Cleveland, OH 44106", "city": "Cleveland", "state": "Ohio", "state_code": "OH", "phone": "+1 216-444-5531", "website": "http://my.clevelandclinic.org/", "rating": "", "reviews": "", "place_id": "ChIJUXh0BJn7MIgRLDWWs8zLs00", "latitude": 41.5025982, "longitude": -81.6211125, "subtypes": "Urologist"}, {"name": "Maria Rajki, CNP - University Suburban Health Center", "address": "1611 S Green Rd #106, South Euclid, OH 44121", "city": "South Euclid", "state": "Ohio", "state_code": "OH", "phone": "+1 216-844-2273", "website": "https://www.uhhospitals.org/doctors/Rajki-Maria-1972679546%3Futm_source%3Dgoogle%26utm_medium%3Dlocallisting", "rating": "", "reviews": "", "place_id": "ChIJ2bDfGNOGQIgRZA13FTRp5X8", "latitude": 41.5156716, "longitude": -81.518502, "subtypes": "Urologist"}, {"name": "Dr. Milton M. Lakin, MD", "address": "11100 Euclid Ave, Cleveland, OH 44106", "city": "Cleveland", "state": "Ohio", "state_code": "OH", "phone": "+1 216-844-3009", "website": "http://www.uhhospitals.org/", "rating": "", "reviews": "", "place_id": "ChIJWT-P5Yj7MIgROjwyynWeLeY", "latitude": 41.5075749, "longitude": -81.60581859999999, "subtypes": "Urologist"}, {"name": "Dr. Subodh Patel", "address": "9500 Euclid Ave, Cleveland, OH 44195", "city": "Cleveland", "state": "Ohio", "state_code": "OH", "phone": "+1 216-444-0221", "website": "", "rating": "", "reviews": "", "place_id": "ChIJYbyMdZn7MIgR44R5kZyxta0", "latitude": 41.502539, "longitude": -81.6210658, "subtypes": "Urologist"}, {"name": "Lowe John B MD", "address": "10900 Euclid Ave, Cleveland, OH 44106", "city": "Cleveland", "state": "Ohio", "state_code": "OH", "phone": "+1 216-368-2000", "website": "", "rating": "", "reviews": "", "place_id": "ChIJS3NibIb7MIgRour0fbHspNY", "latitude": 41.5074821, "longitude": -81.6082594, "subtypes": "Urologist"}, {"name": "Lee Ponsky, MD - UH Suburban Health Center", "address": "1611 S Green Rd #106, South Euclid, OH 44121", "city": "South Euclid", "state": "Ohio", "state_code": "OH", "phone": "+1 216-844-3009", "website": "https://www.uhhospitals.org/doctors/Ponsky-Lee-1871511972%3Futm_source%3Dgoogle%26utm_medium%3Dlocallisting", "rating": "", "reviews": "", "place_id": "ChIJlRGIYqf9MIgRPLy7QyGKyXI", "latitude": 41.5156149, "longitude": -81.51888, "subtypes": "Urologist"}, {"name": "Todd Breaux", "address": "9500 Euclid Ave, Cleveland, OH 44195", "city": "Cleveland", "state": "Ohio", "state_code": "OH", "phone": "+1 216-444-2200", "website": "https://my.clevelandclinic.org/staff/21935-todd-breaux", "rating": "", "reviews": "", "place_id": "ChIJYbyMdZn7MIgRqWJRzT2Ed_o", "latitude": 41.502539, "longitude": -81.6210658, "subtypes": "Urologist"}, {"name": "Southwest Urology", "address": "12000 McCracken Rd # 200, Cleveland, OH 44125", "city": "Cleveland", "state": "Ohio", "state_code": "OH", "phone": "+1 440-845-0900", "website": "https://southwesturology.com/", "rating": 1, "reviews": 1, "place_id": "ChIJifXpYHzjMIgRLzs_3sBs8MA", "latitude": 41.421234, "longitude": -81.599288, "subtypes": "Urologist"}, {"name": "Central Ohio Urology Group", "address": "701 Tech Center Dr Suite 100, Gahanna, OH 43230", "city": "Gahanna", "state": "Ohio", "state_code": "OH", "phone": "+1 614-396-2684", "website": "https://www.centralohiourology.com/locations/gahanna/", "rating": 4.8, "reviews": 2599, "place_id": "ChIJu-sjVNFjOIgR3gDr-q_oE3M", "latitude": 39.998892, "longitude": -82.858449, "subtypes": "Urology clinic"}, {"name": "OhioHealth Physician Group Urology Columbus", "address": "500 E Main St Ste 220, Columbus, OH 43215", "city": "Columbus", "state": "Ohio", "state_code": "OH", "phone": "+1 614-544-9670", "website": "https://www.ohiohealth.com/ohiohealth-physician-group/our-specialties/urology/our-locations/columbus/%3Futm_source%3Dyext%26utm_medium%3Dlistings%26utm_campaign%3Dwebsiteclicksfacility", "rating": 3.5, "reviews": 6, "place_id": "ChIJPfQF7LGJOIgRB_gaZnoBLMg", "latitude": 39.9580255, "longitude": -82.98626039999999, "subtypes": "Urologist"}, {"name": "OhioHealth Physician Group Urology Columbus", "address": "500 Thomas Ln # 3G, Columbus, OH 43214", "city": "Columbus", "state": "Ohio", "state_code": "OH", "phone": "+1 614-788-2870", "website": "https://www.ohiohealth.com/ohiohealth-physician-group/our-specialties/urology/our-locations/bing-cancer-center/%3Futm_source%3Dyext%26utm_medium%3Dlistings%26utm_campaign%3Dwebsiteclicksfacility", "rating": 2.6, "reviews": 19, "place_id": "ChIJf4gXjDOMOIgRycXHRauZo1Q", "latitude": 40.0332355, "longitude": -83.0323615, "subtypes": "Urologist"}, {"name": "Ahmad Shabsigh, MD", "address": "300 W 10th Ave, Columbus, OH 43210", "city": "Columbus", "state": "Ohio", "state_code": "OH", "phone": "+1 614-685-4263", "website": "https://cancer.osu.edu/find-a-doctor/search-physician-directory/ahmad-shabsigh-100000328%3Futm_campaign%3Dmed_general-awareness-evergreen_corp%26utm_source%3Dgooglemybusiness%26utm_medium%3Dorganic%26utm_content%3Dgmb_listing", "rating": 5, "reviews": 63, "place_id": "ChIJAxJDmOqOOIgR5ZsscSlHy8M", "latitude": 39.9954221, "longitude": -83.0178423, "subtypes": "Urologist"}, {"name": "Ohio State Urology Outpatient Care New Albany", "address": "6100 N Hamilton Rd 2nd Floor, Suite 2A, Westerville, OH 43081", "city": "Westerville", "state": "Ohio", "state_code": "OH", "phone": "+1 614-293-8155", "website": "https://wexnermedical.osu.edu/locations/ohio-state-outpatient-care-new-albany/urology%3Futm_campaign%3Dmed_general-awareness-evergreen_corp%26utm_source%3Dgooglemybusiness%26utm_medium%3Dorganic%26utm_content%3Dgmb_listing", "rating": 4.7, "reviews": 187, "place_id": "ChIJD9VvGlNhOIgRUcD1VqW-uVA", "latitude": 40.083945, "longitude": -82.849249, "subtypes": "Urology clinic"}, {"name": "Central Ohio Urology Group", "address": "350 W Wilson Bridge Rd, Worthington, OH 43085", "city": "Worthington", "state": "Ohio", "state_code": "OH", "phone": "+1 614-396-2684", "website": "https://www.centralohiourology.com/locations/worthington/", "rating": 4.8, "reviews": 1198, "place_id": "ChIJUZvfJEXzOIgRZkSbug_It44", "latitude": 40.1113118, "longitude": -83.02451479999999, "subtypes": "Urology clinic"}, {"name": "Scioto Valley Urology, Inc.", "address": "500 E Main St Ste 220, Columbus, OH 43215", "city": "Columbus", "state": "Ohio", "state_code": "OH", "phone": "+1 614-222-3369", "website": "", "rating": 3.4, "reviews": 10, "place_id": "ChIJGcHIPcmIOIgRDZNOm1m7ueo", "latitude": 39.9580354, "longitude": -82.9861969, "subtypes": "Urologist"}, {"name": "Central Ohio Urology Group", "address": "625 Africa Rd #200, Westerville, OH 43082", "city": "Westerville", "state": "Ohio", "state_code": "OH", "phone": "+1 614-396-2684", "website": "https://www.centralohiourology.com/locations/westerville/", "rating": 4.7, "reviews": 121, "place_id": "ChIJsZ667kL1OIgRZu955_ML3O0", "latitude": 40.1422828, "longitude": -82.9398525, "subtypes": "Urology clinic"}, {"name": "Central Ohio Urology Group", "address": "5040 Bradenton Ave Suite B, Dublin, OH 43017", "city": "Dublin", "state": "Ohio", "state_code": "OH", "phone": "+1 614-396-2684", "website": "https://www.centralohiourology.com/locations/dublin/", "rating": 5, "reviews": 198, "place_id": "ChIJEwGfJq2TOIgReM3hMhG6vLs", "latitude": 40.0812218, "longitude": -83.1269066, "subtypes": "Urology clinic"}, {"name": "Central Ohio Urology Group", "address": "1509 Stonecreek Dr, Pickerington, OH 43147", "city": "Pickerington", "state": "Ohio", "state_code": "OH", "phone": "+1 614-396-2684", "website": "https://www.centralohiourology.com/locations/pickerington/", "rating": 4.9, "reviews": 159, "place_id": "ChIJ06GidAN7OIgRBYFf5Txo6tU", "latitude": 39.9145472, "longitude": -82.78162119999999, "subtypes": "Urology clinic"}, {"name": "Central Ohio Urology Group", "address": "5775 N Meadows Dr Suite C, Grove City, OH 43123", "city": "Grove City", "state": "Ohio", "state_code": "OH", "phone": "+1 614-396-2684", "website": "https://www.centralohiourology.com/locations/grove-city-north-meadows/", "rating": 4.9, "reviews": 380, "place_id": "ChIJnwV-W2WdOIgRAlEHeQuZhU8", "latitude": 39.845863, "longitude": -83.084278, "subtypes": "Urology clinic"}, {"name": "Central Ohio Urology Group", "address": "6024 Hoover Rd Suite F, Grove City, OH 43123", "city": "Grove City", "state": "Ohio", "state_code": "OH", "phone": "+1 614-396-2684", "website": "https://www.centralohiourology.com/locations/grove-city/", "rating": 4.9, "reviews": 134, "place_id": "ChIJz7jiW5iDOIgRc0gquKrEN6o", "latitude": 39.84019, "longitude": -83.072727, "subtypes": "Urology clinic"}, {"name": "Gregory James Lowe, MD", "address": "500 Thomas Ln # 3G, Columbus, OH 43214", "city": "Columbus", "state": "Ohio", "state_code": "OH", "phone": "+1 614-788-2870", "website": "https://www.ohiohealth.com/find-a-doctor/profile/2641/Gregory-J-Lowe-MD%3Futm_source%3Dyext%26utm_medium%3Dlistings%26utm_campaign%3DWebsiteClicksProvider", "rating": 4.7, "reviews": 26, "place_id": "ChIJf4gXjDOMOIgRijyWkIOkpzc", "latitude": 40.0329154, "longitude": -83.0323593, "subtypes": "Urologist"}, {"name": "Ohio State Urology Eye and Ear Institute", "address": "915 Olentangy River Rd 2nd Floor Suite 2000, Columbus, OH 43212", "city": "Columbus", "state": "Ohio", "state_code": "OH", "phone": "+1 614-293-8155", "website": "https://wexnermedical.osu.edu/locations/eye-and-ear-institute/urology%3Futm_campaign%3Dmed_general-awareness-evergreen_corp%26utm_source%3Dgooglemybusiness%26utm_medium%3Dorganic%26utm_content%3Dgmb_listing", "rating": 2, "reviews": 9, "place_id": "ChIJBW72ASiPOIgRkCKk63UuLo8", "latitude": 39.9785733, "longitude": -83.02311069999999, "subtypes": "Urology clinic"}, {"name": "Ohio State Urology Outpatient Care Dublin", "address": "6700 University Blvd 2nd Floor, Suite 2A, Dublin, OH 43016", "city": "Dublin", "state": "Ohio", "state_code": "OH", "phone": "+1 614-293-8155", "website": "https://wexnermedical.osu.edu/locations/ohio-state-outpatient-care-dublin/urology%3Futm_campaign%3Dmed_general-awareness-evergreen_corp%26utm_source%3Dgooglemybusiness%26utm_medium%3Dorganic%26utm_content%3Dgmb_listing", "rating": 4.8, "reviews": 174, "place_id": "ChIJ8f8uSJiVOIgRRONjw0ziFR8", "latitude": 40.0981157, "longitude": -83.1691397, "subtypes": "Urology clinic"}, {"name": "Central Ohio Urology Group", "address": "4674 Britton Pkwy Suite 1300, Hilliard, OH 43026", "city": "Hilliard", "state": "Ohio", "state_code": "OH", "phone": "+1 614-396-2684", "website": "https://www.centralohiourology.com/locations/hilliard/", "rating": 4.8, "reviews": 70, "place_id": "ChIJ0yFXrtyTOIgRbx52WaQ8rVM", "latitude": 40.0487972, "longitude": -83.13253619999999, "subtypes": "Urology clinic"}, {"name": "NextGen Urology: Errol O. Singh M.D., F.A.C.S.", "address": "4925 Bradenton Ave STE C, Dublin, OH 43017", "city": "Dublin", "state": "Ohio", "state_code": "OH", "phone": "+1 614-784-8765", "website": "https://capitalurology.com/", "rating": 4.9, "reviews": 39, "place_id": "ChIJ3R7RuTOMOIgRijmFyLYKWzA", "latitude": 40.08134099999999, "longitude": -83.122812, "subtypes": "Urologist"}, {"name": "George T. Ho, MD", "address": "500 E Main St Ste 220, Columbus, OH 43215", "city": "Columbus", "state": "Ohio", "state_code": "OH", "phone": "+1 614-544-9670", "website": "https://www.ohiohealth.com/find-a-doctor/profile/2343/George-T-Ho-MD%3Futm_source%3Dyext%26utm_medium%3Dlistings%26utm_campaign%3DWebsiteClicksProvider", "rating": 4.6, "reviews": 23, "place_id": "ChIJGcHIPcmIOIgRiYMxFTjnkGw", "latitude": 39.9579958, "longitude": -82.986359, "subtypes": "Urologist"}, {"name": "Central Ohio Urology Group", "address": "400 Altair Pkwy #3300, Westerville, OH 43082", "city": "Westerville", "state": "Ohio", "state_code": "OH", "phone": "+1 614-396-2684", "website": "https://www.centralohiourology.com/locations/westerville-altair/", "rating": 4.8, "reviews": 34, "place_id": "ChIJj1qWY-L1OIgRblvi5MtljFA", "latitude": 40.14342, "longitude": -82.941194, "subtypes": "Urology clinic"}, {"name": "OhioHealth Physician Group Urology Columbus", "address": "5150 E Dublin Granville Rd Ste 220, Columbus, OH 43081", "city": "Columbus", "state": "Ohio", "state_code": "OH", "phone": "+1 614-788-2870", "website": "https://www.ohiohealth.com/ohiohealth-physician-group/our-specialties/urology/our-locations/new-albany/%3Futm_source%3Dyext%26utm_medium%3Dlistings%26utm_campaign%3Dwebsiteclicksfacility", "rating": 1, "reviews": 1, "place_id": "ChIJ8W6Xa4ZhOIgRnzyWk89s9rQ", "latitude": 40.079845, "longitude": -82.8528721, "subtypes": "Urologist"}, {"name": "Geoffrey N Box, MD", "address": "300 W 10th Ave, Columbus, OH 43210", "city": "Columbus", "state": "Ohio", "state_code": "OH", "phone": "+1 614-685-4263", "website": "https://cancer.osu.edu/find-a-doctor/search-physician-directory/geoffrey-box-100000157%3Futm_campaign%3Dmed_general-awareness-evergreen_corp%26utm_source%3Dgooglemybusiness%26utm_medium%3Dorganic%26utm_content%3Dgmb_listing", "rating": 5, "reviews": 13, "place_id": "ChIJAxJDmOqOOIgRno0awVAs3Ic", "latitude": 39.9954221, "longitude": -83.0178423, "subtypes": "Urologist"}, {"name": "OhioHealth Physician Group Urology Grant", "address": "500 E Main St Ste 220, Columbus, OH 43215", "city": "Columbus", "state": "Ohio", "state_code": "OH", "phone": "+1 614-222-3369", "website": "https://www.ohiohealth.com/ohiohealth-physician-group/ohiohealth-primary-care-physicians/%3Futm_source%3Dyext%26utm_medium%3Dlistings%26utm_campaign%3Dwebsiteclicksfacility", "rating": 1, "reviews": 1, "place_id": "ChIJe6rQdA6JOIgRVZ4hDcTLQV0", "latitude": 39.9580105, "longitude": -82.986201, "subtypes": "Urologist"}, {"name": "Michael Kwey-Sen Yu, MD", "address": "500 E Main St Ste 220, Columbus, OH 43215", "city": "Columbus", "state": "Ohio", "state_code": "OH", "phone": "+1 614-544-9670", "website": "https://www.ohiohealth.com/find-a-doctor/profile/5648/Michael-K-Yu-MD%3Futm_source%3Dyext%26utm_medium%3Dlistings%26utm_campaign%3DWebsiteClicksProvider", "rating": 5, "reviews": 6, "place_id": "ChIJ_WPOKzaJOIgR8SZET0edNOs", "latitude": 39.9579958, "longitude": -82.986359, "subtypes": "Urologist"}, {"name": "Dr. Bodo E. Knudsen, MD", "address": "456 W 10th Ave, Columbus, OH 43210", "city": "Columbus", "state": "Ohio", "state_code": "OH", "phone": "+1 614-293-9349", "website": "http://www.urology.osu.edu/", "rating": 4.5, "reviews": 8, "place_id": "ChIJRWHCeOuOOIgRnNJwLZDVS3g", "latitude": 39.9949548, "longitude": -83.01962189999999, "subtypes": "Urologist"}, {"name": "OhioHealth Urology Physicians", "address": "5141 W Broad St Ste 180, Columbus, OH 43228", "city": "Columbus", "state": "Ohio", "state_code": "OH", "phone": "+1 614-544-1460", "website": "https://www.ohiohealth.com/ohiohealth-physician-group/our-specialties/urology/our-doctors/", "rating": 1, "reviews": 1, "place_id": "ChIJnUC_iW2ROIgRx7ayBfgc-S0", "latitude": 39.9509609, "longitude": -83.1381607, "subtypes": "Urology clinic"}, {"name": "Dr. Eric S. Ward, MD", "address": "941 Chatham Ln #110, Columbus, OH 43221", "city": "Columbus", "state": "Ohio", "state_code": "OH", "phone": "+1 614-566-5414", "website": "https://www.ohiohealth.com/find-a-doctor/profile/1194811182/Eric-S-Ward-MD", "rating": 5, "reviews": 3, "place_id": "ChIJiWW9bdWNOIgRgJKK_aEY60I", "latitude": 40.0190322, "longitude": -83.0375854, "subtypes": "Urologist"}, {"name": "Frederick L. Taylor, M.D.", "address": "701 Tech Center Dr Suite 100, Gahanna, OH 43230", "city": "Gahanna", "state": "Ohio", "state_code": "OH", "phone": "+1 614-396-2684", "website": "https://www.centralohiourology.com/physicians/frederick-l-taylor-md/", "rating": 4.8, "reviews": 172, "place_id": "ChIJB02lgQljOIgREZ_d8rMBT0M", "latitude": 39.9988187, "longitude": -82.8583834, "subtypes": "Urologist"}, {"name": "Cheryl T Lee, MD", "address": "300 W 10th Ave, Columbus, OH 43210", "city": "Columbus", "state": "Ohio", "state_code": "OH", "phone": "+1 614-685-4263", "website": "https://cancer.osu.edu/find-a-doctor/search-physician-directory/cheryl-lee-100001063%3Futm_campaign%3Dmed_general-awareness-evergreen_corp%26utm_source%3Dgooglemybusiness%26utm_medium%3Dorganic%26utm_content%3Dgmb_listing", "rating": 5, "reviews": 5, "place_id": "ChIJAxJDmOqOOIgRg0rNjMFW9rQ", "latitude": 39.9955723, "longitude": -83.0161104, "subtypes": "Urologist"}, {"name": "Eric Jacob Fichtenbaum, MD", "address": "500 E Main St Ste 220, Columbus, OH 43215", "city": "Columbus", "state": "Ohio", "state_code": "OH", "phone": "+1 614-544-9670", "website": "https://www.ohiohealth.com/find-a-doctor/profile/1073932091/Eric-J-Fichtenbaum-MD%3Futm_source%3Dyext%26utm_medium%3Dlistings%26utm_campaign%3DWebsiteClicksProvider", "rating": 5, "reviews": 3, "place_id": "ChIJjyqiI9yJOIgRTQ9Eq8HaUts", "latitude": 39.9580266, "longitude": -82.9862886, "subtypes": "Urologist"}, {"name": "Columbus Urogynecology", "address": "4041 N High St #101, Columbus, OH 43214", "city": "Columbus", "state": "Ohio", "state_code": "OH", "phone": "+1 614-313-5771", "website": "https://www.columbusurogynecology.com/", "rating": 5, "reviews": 4, "place_id": "ChIJ3x6x8rCNOIgRb1heIPCmydQ", "latitude": 40.0445718, "longitude": -83.0197165, "subtypes": "Urologist"}, {"name": "Andrew M. Ng, M.D.", "address": "350 W Wilson Bridge Rd, Worthington, OH 43085", "city": "Worthington", "state": "Ohio", "state_code": "OH", "phone": "+1 614-396-2684", "website": "https://www.centralohiourology.com/", "rating": 4.8, "reviews": 78, "place_id": "ChIJUyB0uY3zOIgRsSEKSMul36Y", "latitude": 40.1113118, "longitude": -83.02451479999999, "subtypes": "Urologist"}, {"name": "Rashmi \"Rush\" I. Patel, M.D.", "address": "701 Tech Center Dr Suite 100, Gahanna, OH 43230", "city": "Gahanna", "state": "Ohio", "state_code": "OH", "phone": "+1 614-396-2684", "website": "https://www.centralohiourology.com/physicians/rashmi-rush-i-patel-md/", "rating": 4.7, "reviews": 182, "place_id": "ChIJ6brumhOPOIgRDqEBJJm-uNs", "latitude": 39.99881, "longitude": -82.8583975, "subtypes": "Urologist"}, {"name": "OhioHealth Physician Group Urology Westerville", "address": "300 Polaris Pkwy Ste 240, Westerville, OH 43082", "city": "Westerville", "state": "Ohio", "state_code": "OH", "phone": "+1 614-788-2870", "website": "https://www.ohiohealth.com/ohiohealth-physician-group/our-specialties/urology/our-locations/westerville/%3Futm_source%3Dyext%26utm_medium%3Dlistings%26utm_campaign%3Dwebsiteclicksfacility", "rating": 4, "reviews": 1, "place_id": "ChIJpWnU9bD1OIgRP-oz-m_fTK0", "latitude": 40.1473564, "longitude": -82.9380982, "subtypes": "Urologist"}, {"name": "Shawn Dason, MD", "address": "300 W 10th Ave, Columbus, OH 43210", "city": "Columbus", "state": "Ohio", "state_code": "OH", "phone": "+1 614-685-4263", "website": "https://cancer.osu.edu/find-a-doctor/search-physician-directory/shawn-dason-100001291%3Futm_campaign%3Dmed_general-awareness-evergreen_corp%26utm_source%3Dgooglemybusiness%26utm_medium%3Dorganic%26utm_content%3Dgmb_listing", "rating": 5, "reviews": 13, "place_id": "ChIJq0WcULaPOIgRh--HW9kKoN0", "latitude": 39.9954221, "longitude": -83.0178423, "subtypes": "Urologist"}, {"name": "OhioHealth Physician Group Urology Hilliard", "address": "4363 All Seasons Dr Ste 240, Hilliard, OH 43026", "city": "Hilliard", "state": "Ohio", "state_code": "OH", "phone": "+1 614-544-1460", "website": "https://www.ohiohealth.com/ohiohealth-physician-group/our-specialties/urology/our-locations/hilliard/%3Futm_source%3Dyext%26utm_medium%3Dlistings%26utm_campaign%3Dwebsiteclicksfacility", "rating": 4.7, "reviews": 6, "place_id": "ChIJ89CqTiOTOIgRbYdNzSXSrME", "latitude": 40.0357905, "longitude": -83.13382109999999, "subtypes": "Urologist"}, {"name": "Abhishek Pravin Patel, MD", "address": "5141 W Broad St #180, Columbus, OH 43228", "city": "Columbus", "state": "Ohio", "state_code": "OH", "phone": "+1 614-544-1460", "website": "https://www.ohiohealth.com/find-a-doctor/profile/3846/Abhishek-Patel", "rating": 4.6, "reviews": 17, "place_id": "ChIJR0xYipmQOIgR94WQkR8KAVw", "latitude": 39.9511567, "longitude": -83.13884949999999, "subtypes": "Urologist"}, {"name": "Urological Associates Inc", "address": "750 Mt Carmel Mall #350, Columbus, OH 43222", "city": "Columbus", "state": "Ohio", "state_code": "OH", "phone": "+1 614-221-5189", "website": "", "rating": "", "reviews": "", "place_id": "ChIJ6brumhOPOIgRViS23GFXhtM", "latitude": 39.958936, "longitude": -83.020804, "subtypes": "Urologist"}, {"name": "Dr. Ahmad Shabsigh", "address": "915 Olentangy River Rd, Columbus, OH 43212", "city": "Columbus", "state": "Ohio", "state_code": "OH", "phone": "+1 614-293-8155", "website": "https://cancer.osu.edu/find-a-doctor/search-physician-directory/ahmad-shabsigh", "rating": 5, "reviews": 1, "place_id": "ChIJcYlB-eKOOIgRFirhqWNqopY", "latitude": 39.9785777, "longitude": -83.0229822, "subtypes": "Urologist"}, {"name": "Buckeye Urology & Andrology", "address": "5969 E Broad St #407, Columbus, OH 43213", "city": "Columbus", "state": "Ohio", "state_code": "OH", "phone": "+1 614-577-0872", "website": "", "rating": "", "reviews": "", "place_id": "ChIJxYXuD9mJOIgR5mq7ZxpEGEo", "latitude": 39.9771062, "longitude": -82.84520069999999, "subtypes": "Urologist"}, {"name": "Debasish Sundi, MD", "address": "460 W 10th Ave, Columbus, OH 43210", "city": "Columbus", "state": "Ohio", "state_code": "OH", "phone": "+1 614-685-4263", "website": "https://cancer.osu.edu/find-a-doctor/search-physician-directory/debasish-sundi-100001145%3Futm_campaign%3Dmed_general-awareness-evergreen_corp%26utm_source%3Dgooglemybusiness%26utm_medium%3Dorganic%26utm_content%3Dgmb_listing", "rating": 5, "reviews": 1, "place_id": "ChIJdXHNqIOPOIgR9C4Txk86MnY", "latitude": 39.9946472, "longitude": -83.0191698, "subtypes": "Urologist"}, {"name": "Bodo E Knudsen, MD", "address": "915 Olentangy River Rd, Columbus, OH 43212", "city": "Columbus", "state": "Ohio", "state_code": "OH", "phone": "+1 614-293-8155", "website": "https://wexnermedical.osu.edu/find-a-doctor/bodo-knudsen-100000231%3Futm_campaign%3Dmed_general-awareness-evergreen_corp%26utm_source%3Dgooglemybusiness%26utm_medium%3Dorganic%26utm_content%3Dgmb_listing", "rating": 5, "reviews": 19, "place_id": "ChIJcYlB-eKOOIgRz2GahEadvHo", "latitude": 39.9785733, "longitude": -83.02311069999999, "subtypes": "Urologist"}, {"name": "Michael C Gong, MD, PhD", "address": "181 Taylor Ave, Columbus, OH 43203", "city": "Columbus", "state": "Ohio", "state_code": "OH", "phone": "+1 614-685-4263", "website": "https://cancer.osu.edu/find-a-doctor/search-physician-directory/michael-gong-100000150%3Futm_campaign%3Dmed_general-awareness-evergreen_corp%26utm_source%3Dgooglemybusiness%26utm_medium%3Dorganic%26utm_content%3Dgmb_listing", "rating": 5, "reviews": 3, "place_id": "ChIJ5cyA3JyJOIgRrJCgbhzo720", "latitude": 39.9705695, "longitude": -82.9629934, "subtypes": "Urologist"}, {"name": "Ohio State University Urology", "address": "1492 E Broad St, Columbus, OH 43205", "city": "Columbus", "state": "Ohio", "state_code": "OH", "phone": "+1 614-257-2396", "website": "http://medicalcenter.osu.edu/", "rating": "", "reviews": "", "place_id": "ChIJTbvEsuSIOIgRhbLrd-uF-ic", "latitude": 39.9705069, "longitude": -82.962965, "subtypes": "Urologist"}, {"name": "Eric A Singer, MD, MS", "address": "300 W 10th Ave, Columbus, OH 43210", "city": "Columbus", "state": "Ohio", "state_code": "OH", "phone": "+1 614-685-4263", "website": "https://cancer.osu.edu/find-a-doctor/search-physician-directory/eric-singer-100001710%3Futm_campaign%3Dmed_general-awareness-evergreen_corp%26utm_source%3Dgooglemybusiness%26utm_medium%3Dorganic%26utm_content%3Dgmb_listing", "rating": 4.9, "reviews": 7, "place_id": "ChIJyzfQwQ2POIgRWH69Kl8t17w", "latitude": 39.9954221, "longitude": -83.0178423, "subtypes": "Urologist"}, {"name": "Columbus Urology Research", "address": "941 Chatham Ln # 315, Columbus, OH 43221", "city": "Columbus", "state": "Ohio", "state_code": "OH", "phone": "+1 614-457-6028", "website": "", "rating": "", "reviews": "", "place_id": "ChIJCwJB-naNOIgRIUF79Mvftho", "latitude": 40.0190322, "longitude": -83.0375854, "subtypes": "Urologist"}, {"name": "OhioHealth Physician Group Urology", "address": "625 W Waterloo St Suite 310B, Canal Winchester, OH 43110", "city": "Canal Winchester", "state": "Ohio", "state_code": "OH", "phone": "+1 380-243-3113", "website": "https://www.ohiohealth.com/ohiohealth-physician-group/our-specialties/urology/our-locations/canal-winchester%3Futm_source%3Dyext%26utm_medium%3Dlistings%26utm_campaign%3Dwebsiteclicksfacility", "rating": "", "reviews": "", "place_id": "ChIJU6ZbYah7OIgRRPC7PEpU1CU", "latitude": 39.854304, "longitude": -82.8209356, "subtypes": "Urologist"}, {"name": "Dr. Geoffrey Box", "address": "915 Olentangy River Rd, Columbus, OH 43212", "city": "Columbus", "state": "Ohio", "state_code": "OH", "phone": "+1 614-293-8155", "website": "http://urology.osu.edu/", "rating": 5, "reviews": 1, "place_id": "ChIJcYlB-eKOOIgRMk2QswZH38M", "latitude": 39.9785408, "longitude": -83.0230225, "subtypes": "Urologist"}, {"name": "Premier Urology Corp.", "address": "430 Altair Pkwy #200, Westerville, OH 43082", "city": "Westerville", "state": "Ohio", "state_code": "OH", "phone": "+1 614-818-0215", "website": "http://www.premierurologycorp.com/", "rating": 4.3, "reviews": 95, "place_id": "ChIJ2U-B-7f0OIgRGxHO0oITYgI", "latitude": 40.1439153, "longitude": -82.94354179999999, "subtypes": "Urology clinic"}, {"name": "Mainstream Urology Center", "address": "3555 Olentangy River Rd #3080, Columbus, OH 43214", "city": "Columbus", "state": "Ohio", "state_code": "OH", "phone": "+1 614-268-6000", "website": "", "rating": "", "reviews": "", "place_id": "ChIJ2ZW5uTOMOIgRZ3LAqMN49vM", "latitude": 40.0313345, "longitude": -83.032326, "subtypes": "Urology clinic"}, {"name": "Matthew R. Riebel, M.D.", "address": "350 W Wilson Bridge Rd, Worthington, OH 43085", "city": "Worthington", "state": "Ohio", "state_code": "OH", "phone": "+1 614-396-2684", "website": "https://www.centralohiourology.com/physicians/matthew-r-riebel-md/", "rating": 4.9, "reviews": 112, "place_id": "ChIJbbHNh8nzOIgR9AHi-8gnSWg", "latitude": 40.1113118, "longitude": -83.02451479999999, "subtypes": "Urologist"}, {"name": "Eric J Springer, MD", "address": "915 Olentangy River Rd, Columbus, OH 43212", "city": "Columbus", "state": "Ohio", "state_code": "OH", "phone": "+1 614-293-8155", "website": "https://wexnermedical.osu.edu/find-a-doctor/eric-springer-100001440%3Futm_campaign%3Dmed_general-awareness-evergreen_corp%26utm_source%3Dgooglemybusiness%26utm_medium%3Dorganic%26utm_content%3Dgmb_listing", "rating": 5, "reviews": 30, "place_id": "ChIJg_e-EVSPOIgRDqO52ShUd7Y", "latitude": 39.9785701, "longitude": -83.0229621, "subtypes": "Urologist"}, {"name": "Dr. Daryl Mcleod", "address": "555 S 18th St, Columbus, OH 43205", "city": "Columbus", "state": "Ohio", "state_code": "OH", "phone": "+1 614-722-3114", "website": "https://www.nationwidechildrens.org/find-a-doctor/profiles/daryl-j-mcleod", "rating": 5, "reviews": 2, "place_id": "ChIJx0xBVceIOIgR0_RYukbUwf4", "latitude": 39.9532657, "longitude": -82.97710029999999, "subtypes": "Pediatric urologist"}, {"name": "Test", "address": "50 W Broad St #1907, Columbus, OH 43215", "city": "Columbus", "state": "Ohio", "state_code": "OH", "phone": "", "website": "", "rating": "", "reviews": "", "place_id": "ChIJe4GqwKGPOIgR3W0yQMro-Is", "latitude": 39.9623221, "longitude": -83.0022967, "subtypes": "Urology clinic"}, {"name": "Joseph C Wan, MD", "address": "915 Olentangy River Rd, Columbus, OH 43212", "city": "Columbus", "state": "Ohio", "state_code": "OH", "phone": "+1 614-293-8155", "website": "https://wexnermedical.osu.edu/find-a-doctor/joseph-wan-100000717%3Futm_campaign%3Dmed_general-awareness-evergreen_corp%26utm_source%3Dgooglemybusiness%26utm_medium%3Dorganic%26utm_content%3Dgmb_listing", "rating": 5, "reviews": 1, "place_id": "ChIJAVF8dquPOIgRjikJ1yVZaLc", "latitude": 39.9785701, "longitude": -83.0229621, "subtypes": "Urologist"}, {"name": "John Oliver DeLancey, MD", "address": "915 Olentangy River Rd, Columbus, OH 43212", "city": "Columbus", "state": "Ohio", "state_code": "OH", "phone": "+1 614-293-8155", "website": "https://wexnermedical.osu.edu/find-a-doctor/johnoliver-delancey-100001286%3Futm_campaign%3Dmed_general-awareness-evergreen_corp%26utm_source%3Dgooglemybusiness%26utm_medium%3Dorganic%26utm_content%3Dgmb_listing", "rating": 3.3, "reviews": 6, "place_id": "ChIJnaFe--KIOIgRY0ZTSYHTaY4", "latitude": 39.9785701, "longitude": -83.0229621, "subtypes": "Urologist"}, {"name": "Ilana Bergelson, MD", "address": "500 E Main St Ste 220, Columbus, OH 43215", "city": "Columbus", "state": "Ohio", "state_code": "OH", "phone": "+1 614-544-9670", "website": "https://www.ohiohealth.com/find-a-doctor/profile/1336778646/Ilana-Bergelson-MD%3Futm_source%3Dyext%26utm_medium%3Dlistings%26utm_campaign%3DWebsiteClicksProvider", "rating": 5, "reviews": 1, "place_id": "ChIJWTfPp1qJOIgR-yWp6b3KY24", "latitude": 39.9579638, "longitude": -82.9863489, "subtypes": "Urologist"}, {"name": "Cheryl G. Baxter, CPNP-PC", "address": "555 S 18th St, Columbus, OH 43205", "city": "Columbus", "state": "Ohio", "state_code": "OH", "phone": "+1 614-722-2000", "website": "", "rating": "", "reviews": "", "place_id": "ChIJDbxBqMCIOIgR5NO-G9gC-98", "latitude": 39.9532657, "longitude": -82.97710029999999, "subtypes": "Urologist"}, {"name": "Eamonn Bahnson", "address": "500 Thomas Ln # 3G, Columbus, OH 43214", "city": "Columbus", "state": "Ohio", "state_code": "OH", "phone": "+1 614-788-2870", "website": "", "rating": "", "reviews": "", "place_id": "ChIJAQDAdTSMOIgRx-K65YE_rWM", "latitude": 40.0332355, "longitude": -83.0323615, "subtypes": "Urologist"}, {"name": "Nicole Marie Book, MD", "address": "3555 Olentangy River Rd Ste 4050, Columbus, OH 43214", "city": "Columbus", "state": "Ohio", "state_code": "OH", "phone": "+1 614-566-2727", "website": "https://www.ohiohealth.com/find-a-doctor/profile/2154/Nicole-M-Book-MD%3Futm_source%3Dyext%26utm_medium%3Dlistings%26utm_campaign%3DWebsiteClicksProvider", "rating": 4.6, "reviews": 10, "place_id": "ChIJy_mzvcyNOIgRU6h1D0T44qo", "latitude": 40.0312072, "longitude": -83.0324122, "subtypes": "Urologist"}, {"name": "Anja Zann", "address": "555 S 18th St, Columbus, OH 43205", "city": "Columbus", "state": "Ohio", "state_code": "OH", "phone": "+1 614-722-3900", "website": "", "rating": "", "reviews": "", "place_id": "ChIJx0xBVceIOIgRk2Nt8PflYU4", "latitude": 39.9532657, "longitude": -82.97710029999999, "subtypes": "Urologist"}, {"name": "Dr. James Simon", "address": "941 Chatham Ln #110, Columbus, OH 43221", "city": "Columbus", "state": "Ohio", "state_code": "OH", "phone": "+1 614-459-7600", "website": "http://centralohiourology.com/", "rating": "", "reviews": "", "place_id": "ChIJiWW9bdWNOIgR06TiQvvc8W8", "latitude": 40.0190338, "longitude": -83.0376125, "subtypes": "Urologist"}, {"name": "Amberly Kay Wolber, MD", "address": "500 Thomas Ln # 3G, Columbus, OH 43214", "city": "Columbus", "state": "Ohio", "state_code": "OH", "phone": "+1 614-788-2870", "website": "https://www.ohiohealth.com/find-a-doctor/profile/4357/Amberly-K-Wolber-MD%3Futm_source%3Dyext%26utm_medium%3Dlistings%26utm_campaign%3DWebsiteClicksProvider", "rating": "", "reviews": "", "place_id": "ChIJIS8zijOMOIgRP0d7I5c29iM", "latitude": 40.0332355, "longitude": -83.0323615, "subtypes": "Urologist"}, {"name": "Dr. John D. Baluch, MD", "address": "500 E Main St Ste 220, Columbus, OH 43215", "city": "Columbus", "state": "Ohio", "state_code": "OH", "phone": "+1 614-222-3369", "website": "", "rating": "", "reviews": "", "place_id": "ChIJGcHIPcmIOIgRgzbCikCcHCo", "latitude": 39.9578214, "longitude": -82.98620269999999, "subtypes": "Urologist"}, {"name": "Brown Jr Roy R MD", "address": "340 E Town St, Columbus, OH 43215", "city": "Columbus", "state": "Ohio", "state_code": "OH", "phone": "+1 614-396-2684", "website": "http://centralohiourology.com/", "rating": 3, "reviews": 2, "place_id": "ChIJfafR8syIOIgR0XDGGGB5imY", "latitude": 39.9605102, "longitude": -82.9910757, "subtypes": "Urologist"}, {"name": "Rackley Raymond MD", "address": "9500 Euclid Ave, Cleveland, OH 44195", "city": "Cleveland", "state": "Ohio", "state_code": "OH", "phone": "+1 216-445-5378", "website": "http://my.clevelandclinic.org/staff/1672-raymond-rackley", "rating": 4.1, "reviews": 10, "place_id": "ChIJUXh0BJn7MIgRl7qm1GDngds", "latitude": 41.5018345, "longitude": -81.6205818, "subtypes": "Urologist"}, {"name": "Robert Abouassaly, MD", "address": "9500 Euclid Ave, Cleveland, OH 44106", "city": "Cleveland", "state": "Ohio", "state_code": "OH", "phone": "+1 216-444-5600", "website": "http://my.clevelandclinic.org/", "rating": 5, "reviews": 1, "place_id": "ChIJoShRSoj7MIgRfRaEbvffcbU", "latitude": 41.50286089999999, "longitude": -81.6218181, "subtypes": "Urologist"}, {"name": "Cleveland Clinic Glickman Urological and Kidney Institute", "address": "320 W Exchange St, Akron, OH 44302", "city": "Akron", "state": "Ohio", "state_code": "OH", "phone": "+1 330-535-4428", "website": "https://my.clevelandclinic.org/departments/urology-kidney", "rating": 4.3, "reviews": 16, "place_id": "ChIJY4X078spMYgRwKOfBsPhOMg", "latitude": 41.0813226, "longitude": -81.531621, "subtypes": "Urologist"}, {"name": "Urology Partners - Westlake", "address": "29101 Health Campus Dr # 310, Westlake, OH 44145", "city": "Westlake", "state": "Ohio", "state_code": "OH", "phone": "+1 440-892-6600", "website": "https://urologypartners.net/", "rating": 4.9, "reviews": 253, "place_id": "ChIJryuTx0uTMIgR4w_mddOkWNU", "latitude": 41.4368023, "longitude": -81.94288329999999, "subtypes": "Urology clinic"}, {"name": "Glickman Urological Institute", "address": "12000 McCracken Rd, Cleveland, OH 44125", "city": "Cleveland", "state": "Ohio", "state_code": "OH", "phone": "+1 216-444-5600", "website": "https://my.clevelandclinic.org/departments/urology-kidney", "rating": 2, "reviews": 4, "place_id": "ChIJBaVLhHzjMIgR5lK_PjPBai0", "latitude": 41.421234, "longitude": -81.599288, "subtypes": "Urologist"}, {"name": "Cleveland Urology Associates", "address": "25200 Center Ridge Rd Suite 2500, Westlake, OH 44145", "city": "Westlake", "state": "Ohio", "state_code": "OH", "phone": "+1 440-891-6500", "website": "https://clevelandurology.net/locations/westlake/", "rating": "", "reviews": "", "place_id": "ChIJGYpWLweTMIgRqKiP8Jd54fI", "latitude": 41.4573332, "longitude": -81.8992079, "subtypes": "Urology clinic"}, {"name": "Dr. Raevti Bole", "address": "9500 Euclid Ave, Cleveland, OH 44195", "city": "Cleveland", "state": "Ohio", "state_code": "OH", "phone": "+1 216-444-5690", "website": "https://my.clevelandclinic.org/staff/30055-raevti-bole", "rating": 5, "reviews": 2, "place_id": "ChIJYbyMdZn7MIgRAyuTIe3rJVo", "latitude": 41.502539, "longitude": -81.6210658, "subtypes": "Urologist"}, {"name": "Urology Partners", "address": "1575 W 117th St, Lakewood, OH 44107", "city": "Lakewood", "state": "Ohio", "state_code": "OH", "phone": "+1 216-941-0333", "website": "http://www.urologypartners.net/", "rating": "", "reviews": "", "place_id": "ChIJ27l90vHxMIgRTwpggoO7vAs", "latitude": 41.47863, "longitude": -81.7684098, "subtypes": "Urology clinic"}, {"name": "Dr. Inderbir S. Gill, MD", "address": "2500 Metrohealth Dr, Cleveland, OH 44109", "city": "Cleveland", "state": "Ohio", "state_code": "OH", "phone": "+1 216-778-4304", "website": "", "rating": 5, "reviews": 1, "place_id": "ChIJM7MZGQLwMIgRwET71JlQZ68", "latitude": 41.4620067, "longitude": -81.69753519999999, "subtypes": "Urologist"}, {"name": "Simon Kim, MD - UH St John Medical Center", "address": "29101 Health Campus Dr Ste 400, Westlake, OH 44145", "city": "Westlake", "state": "Ohio", "state_code": "OH", "phone": "+1 440-617-4726", "website": "", "rating": 5, "reviews": 1, "place_id": "ChIJC4WCj6CSMIgR0V5ZOHI8mhI", "latitude": 41.4362863, "longitude": -81.9428038, "subtypes": "Urologist"}, {"name": "Dr. Tim A. Sidor, MD", "address": "6900 Pearl Rd # 200, Cleveland, OH 44130", "city": "Cleveland", "state": "Ohio", "state_code": "OH", "phone": "+1 440-845-0900", "website": "https://www.uhhospitals.org/doctors/Sidor-Tim-1154399483", "rating": 4, "reviews": 4, "place_id": "ChIJ-39KO_DrMIgRQv5iip8jC9A", "latitude": 41.3783444, "longitude": -81.7911372, "subtypes": "Urologist"}, {"name": "Dr. David S. Turk, MD", "address": "6900 Pearl Rd # 200, Cleveland, OH 44130", "city": "Cleveland", "state": "Ohio", "state_code": "OH", "phone": "+1 440-845-0900", "website": "https://www.swgeneral.com/physicians/david-s-turk-md/", "rating": 3.7, "reviews": 10, "place_id": "ChIJ-39KO_DrMIgRvBwdj5yT8dY", "latitude": 41.3783444, "longitude": -81.7911372, "subtypes": "Urologist"}, {"name": "Dr. Bashir R. Sankari, MD", "address": "9500 Euclid Ave, Cleveland, OH 44195", "city": "Cleveland", "state": "Ohio", "state_code": "OH", "phone": "+1 216-444-6996", "website": "http://my.clevelandclinic.org/", "rating": "", "reviews": "", "place_id": "ChIJUXh0BJn7MIgRNlh7D9sVjPc", "latitude": 41.5026388, "longitude": -81.6210615, "subtypes": "Urologist"}, {"name": "Dr. Larissa R. Negron, MD", "address": "9500 Euclid Ave, Cleveland, OH 44106", "city": "Cleveland", "state": "Ohio", "state_code": "OH", "phone": "+1 800-223-2273", "website": "http://my.clevelandclinic.org/", "rating": "", "reviews": "", "place_id": "ChIJQ3x73Jn7MIgRdQQ7jGpk920", "latitude": 41.5024373, "longitude": -81.62148959999999, "subtypes": "Urologist"}, {"name": "Randy Vince, MD", "address": "8819 Quincy Ave Ste 206, Cleveland, OH 44106", "city": "Cleveland", "state": "Ohio", "state_code": "OH", "phone": "+1 216-721-7189", "website": "https://www.uhhospitals.org/doctors/Vince-Randy-1922428572%3Futm_campaign%3DVince_Randy_8819_Quincy_Ave%26utm_source%3Dyext%26utm_medium%3Dlocallisting%26utm_content%3Dwebsite_url", "rating": "", "reviews": "", "place_id": "ChIJG4_HUyv7MIgRpTH5dv6jM8k", "latitude": 41.4935919, "longitude": -81.6250574, "subtypes": "Urologist"}, {"name": "Dr. Anthony J. Thomas Jr, MD", "address": "9500 Euclid Ave, Cleveland, OH 44106", "city": "Cleveland", "state": "Ohio", "state_code": "OH", "phone": "+1 216-444-9896", "website": "http://my.clevelandclinic.org/", "rating": "", "reviews": "", "place_id": "ChIJUXh0BJn7MIgR8mpQYEBlDbc", "latitude": 41.5026388, "longitude": -81.6210615, "subtypes": "Urologist"}, {"name": "UH Portage Urology", "address": "750 Loomis Pkwy, Ravenna, OH 44266", "city": "Ravenna", "state": "Ohio", "state_code": "OH", "phone": "+1 330-235-7070", "website": "https://www.uhhospitals.org/doctors/Zhao-John-1992772818", "rating": 4.8, "reviews": 10, "place_id": "ChIJAZBHgBE7MYgRRj17azpL5yw", "latitude": 41.1788814, "longitude": -81.25199909999999, "subtypes": "Urology clinic"}, {"name": "Palmer Jeffrey MD", "address": "9500 Euclid Ave # S25, Cleveland, OH 44195", "city": "Cleveland", "state": "Ohio", "state_code": "OH", "phone": "+1 216-445-7504", "website": "", "rating": "", "reviews": "", "place_id": "ChIJUXh0BJn7MIgRvPID64ZNqxw", "latitude": 41.5022353, "longitude": -81.62228309999999, "subtypes": "Pediatric urologist"}, {"name": "Rachel Pope, MD, MPH", "address": "5805 Euclid Ave 2nd Floor, Cleveland, OH 44103", "city": "Cleveland", "state": "Ohio", "state_code": "OH", "phone": "+1 216-675-6650", "website": "https://www.uhhospitals.org/doctors/Pope-Rachel-1255623658%3Futm_campaign%3DPope_Rachel_5805_Euclid_Ave%26utm_source%3Dyext%26utm_medium%3Dlocallisting%26utm_content%3Dwebsite_url", "rating": "", "reviews": "", "place_id": "ChIJ_3w9Ad77MIgRWwI4swSusuk", "latitude": 41.5047021, "longitude": -81.649869, "subtypes": "Urologist"}, {"name": "Merieme Khamsi, PA-C", "address": "8819 Quincy Ave Ste 206, Cleveland, OH 44106", "city": "Cleveland", "state": "Ohio", "state_code": "OH", "phone": "+1 216-721-7189", "website": "https://www.uhhospitals.org/doctors/Khamsi-Merieme-1720597214%3Futm_campaign%3DKhamsi_Merieme_8819_Quincy_Ave%26utm_source%3Dyext%26utm_medium%3Dlocallisting%26utm_content%3Dwebsite_url", "rating": "", "reviews": "", "place_id": "ChIJ75jlzxb7MIgRafzIFPsmbIE", "latitude": 41.4935919, "longitude": -81.6250574, "subtypes": "Urologist"}, {"name": "Dr. Michael G. Gangel Jr", "address": "2651 W Market St, Fairlawn, OH 44333", "city": "Fairlawn", "state": "Ohio", "state_code": "OH", "phone": "+1 330-864-8008", "website": "https://my.clevelandclinic.org/staff/20876-michael-gangel-jr", "rating": 3.2, "reviews": 10, "place_id": "ChIJy-cJk03XMIgRoX0KJa-QDus", "latitude": 41.1239246, "longitude": -81.5994955, "subtypes": "Urologist"}, {"name": "Urology One", "address": "1330 Mercy Drive Northwest #510, Canton, OH 44708", "city": "Canton", "state": "Ohio", "state_code": "OH", "phone": "+1 330-456-6760", "website": "", "rating": 2.7, "reviews": 18, "place_id": "ChIJf8AuB5LQNogRKe0Lotc0beY", "latitude": 40.8128852, "longitude": -81.395996, "subtypes": "Urology clinic"}, {"name": "Kettering Health Medical Group Urology - Main Campus Pavilion", "address": "3737 Southern Blvd Suite 4200 Level E, Kettering, OH 45429", "city": "Kettering", "state": "Ohio", "state_code": "OH", "phone": "+1 937-294-1489", "website": "https://ketteringhealth.org/locations/kettering-health-medical-group-urology-khmguro1002/", "rating": 2.6, "reviews": 5, "place_id": "ChIJD48FtZyHQIgRpjlZpmOFDcY", "latitude": 39.6953492, "longitude": -84.1922805, "subtypes": "Urologist"}, {"name": "Arzola Urology", "address": "3737 Southern Blvd floor e suite 4200, Kettering, OH 45429", "city": "Kettering", "state": "Ohio", "state_code": "OH", "phone": "+1 937-294-1489", "website": "https://ketteringhealth.org/doctors/jorge-arzola-1205856382/", "rating": 5, "reviews": 7, "place_id": "ChIJyzEAiIuHQIgROggrmPv91uU", "latitude": 39.6953433, "longitude": -84.1925392, "subtypes": "Urologist"}, {"name": "South Dayton Urological Associates", "address": "3737 Southern Blvd, Kettering, OH 45429", "city": "Kettering", "state": "Ohio", "state_code": "OH", "phone": "", "website": "", "rating": 2.3, "reviews": 18, "place_id": "ChIJxd2zFuqFQIgRc3Pe6iUgYmg", "latitude": 39.6953433, "longitude": -84.1925392, "subtypes": "Urology clinic"}, {"name": "William Larchian, MD", "address": "1120 E Broad St Ste 201, Elyria, OH 44035", "city": "Elyria", "state": "Ohio", "state_code": "OH", "phone": "+1 440-365-1602", "website": "https://www.uhhospitals.org/doctors/Larchian-William-1598729840%3Futm_campaign%3DLarchian_William_1120_E_Broad_St%26utm_source%3Dyext%26utm_medium%3Dlocallisting%26utm_content%3Dwebsite_url", "rating": 5, "reviews": 3, "place_id": "ChIJGRIwuwKSMIgRBFowwZsn0P0", "latitude": 41.3643452, "longitude": -82.07416429999999, "subtypes": "Urologist"}, {"name": "Louis D'Amico, MD", "address": "125 E Broad St #208, Elyria, OH 44035", "city": "Elyria", "state": "Ohio", "state_code": "OH", "phone": "+1 440-329-7315", "website": "https://www.uhhospitals.org/doctors/DAmico-Louis-1851354898", "rating": 3.7, "reviews": 3, "place_id": "ChIJkzCG3uKYMIgRFhKhkG7Ux14", "latitude": 41.3671921, "longitude": -82.0963022, "subtypes": "Urologist"}, {"name": "Ccf Urology Elyria", "address": "125 E Broad St #208, Elyria, OH 44035", "city": "Elyria", "state": "Ohio", "state_code": "OH", "phone": "+1 440-329-5852", "website": "", "rating": "", "reviews": "", "place_id": "ChIJkzCG3uKYMIgR37xZGBRBnkM", "latitude": 41.3669647, "longitude": -82.0964276, "subtypes": "Urologist"}, {"name": "Michael Callegari, MD, MBA", "address": "1120 E Broad St Ste 201, Elyria, OH 44035", "city": "Elyria", "state": "Ohio", "state_code": "OH", "phone": "+1 440-365-1602", "website": "https://www.uhhospitals.org/doctors/Callegari-Michael-1124524079%3Futm_campaign%3DCallegari_Michael_1120_E_Broad_St%26utm_source%3Dyext%26utm_medium%3Dlocallisting%26utm_content%3Dwebsite_url", "rating": "", "reviews": "", "place_id": "ChIJ6c6h0CeZMIgR5rcLl1XGJ-k", "latitude": 41.3643452, "longitude": -82.07416429999999, "subtypes": "Urologist"}, {"name": "Raegan Baxter, PA-C, MPH", "address": "1120 E Broad St Ste 201, Elyria, OH 44035", "city": "Elyria", "state": "Ohio", "state_code": "OH", "phone": "+1 440-365-1602", "website": "https://www.uhhospitals.org/doctors/Baxter-Raegan-1811652118%3Futm_campaign%3DBaxter_Raegan_1120_E_Broad_St%26utm_source%3Dyext%26utm_medium%3Dlocallisting%26utm_content%3Dwebsite_url", "rating": "", "reviews": "", "place_id": "ChIJa2DjvBaZMIgRtyeKULDdvkI", "latitude": 41.3643452, "longitude": -82.07416429999999, "subtypes": "Urologist"}, {"name": "Kyle Ericson, MD", "address": "1120 E Broad St Ste 201, Elyria, OH 44035", "city": "Elyria", "state": "Ohio", "state_code": "OH", "phone": "+1 440-365-1602", "website": "https://www.uhhospitals.org/doctors/Ericson-Kyle-1174933048%3Futm_campaign%3DEricson_Kyle_1120_E_Broad_St%26utm_source%3Dyext%26utm_medium%3Dlocallisting%26utm_content%3Dwebsite_url", "rating": "", "reviews": "", "place_id": "ChIJgwW-9L6ZMIgRLKvlqqj1wTQ", "latitude": 41.3643452, "longitude": -82.07416429999999, "subtypes": "Urologist"}, {"name": "Michael Mawhorter, MD", "address": "1120 E Broad St Ste 201, Elyria, OH 44035", "city": "Elyria", "state": "Ohio", "state_code": "OH", "phone": "+1 440-365-1602", "website": "https://www.uhhospitals.org/doctors/Mawhorter-Michael-1801354709%3Futm_campaign%3DMawhorter_Michael_1120_E_Broad_St%26utm_source%3Dyext%26utm_medium%3Dlocallisting%26utm_content%3Dwebsite_url", "rating": "", "reviews": "", "place_id": "ChIJATGlb2WZMIgR-Uv65yeh6FE", "latitude": 41.3643452, "longitude": -82.07416429999999, "subtypes": "Urologist"}, {"name": "Spyridon Basourakos, MD", "address": "1120 E Broad St Ste 201, Elyria, OH 44035", "city": "Elyria", "state": "Ohio", "state_code": "OH", "phone": "+1 440-365-1602", "website": "https://www.uhhospitals.org/doctors/Basourakos-Spyridon-1578097184%3Futm_campaign%3DBasourakos_Spyridon_1120_E_Broad_St%26utm_source%3Dyext%26utm_medium%3Dlocallisting%26utm_content%3Dwebsite_url", "rating": "", "reviews": "", "place_id": "ChIJaeO_Iv6ZMIgRYLiddL1eIS8", "latitude": 41.3643452, "longitude": -82.07416429999999, "subtypes": "Urologist"}, {"name": "SouthWest Urology - Elyria", "address": "5319 Hoag Dr #240, Elyria, OH 44053", "city": "Elyria", "state": "Ohio", "state_code": "OH", "phone": "+1 440-930-6060", "website": "https://www.southwesturology.com/", "rating": 4.8, "reviews": 5, "place_id": "ChIJr6rqUjeaMIgRDrXiDgl0eaA", "latitude": 41.4228677, "longitude": -82.07404799999999, "subtypes": "Urologist"}, {"name": "Dr. J Patrick P. Spirnak, MD", "address": "5319 Hoag Dr #240, Sheffield, OH 44035", "city": "Sheffield", "state": "Ohio", "state_code": "OH", "phone": "+1 440-930-6060", "website": "https://doctors.mercy.com/provider/J.%2BPatrick%2BSpirnak/290403", "rating": 4.8, "reviews": 5, "place_id": "ChIJpfh7sjCaMIgR6LH9BMX4BiU", "latitude": 41.422745, "longitude": -82.074102, "subtypes": "Urologist"}, {"name": "Damian Garcher", "address": "Professional Building, 1900 23rd St 3rd Floor, Cuyahoga Falls, OH 44223", "city": "Cuyahoga Falls", "state": "Ohio", "state_code": "OH", "phone": "+1 330-971-7050", "website": "https://www.westernreservehospital.org/urology", "rating": 5, "reviews": 22, "place_id": "ChIJa8MtacwnMYgRXToWxCnqEvw", "latitude": 41.1334245, "longitude": -81.5105512, "subtypes": "Urologist"}, {"name": "Dr. Zane C. Giffen", "address": "231 Seasons Rd, Hudson, OH 44224", "city": "Hudson", "state": "Ohio", "state_code": "OH", "phone": "+1 330-971-7050", "website": "https://www.wrhpi.org/zane-c-giffen-md", "rating": 5, "reviews": 14, "place_id": "ChIJNV2fVf07MYgRkBA79cDyKsc", "latitude": 41.203843, "longitude": -81.48873859999999, "subtypes": "Urologist"}, {"name": "Joseph Samuel Dankoff, MD", "address": "95 Arch St #165, Akron, OH 44304", "city": "Akron", "state": "Ohio", "state_code": "OH", "phone": "+1 330-374-1255", "website": "https://mychart.summahealth.org/mychart/app/providers/JosephDankoffMD/WP-24uFVG3-2BPdzI-2FE3e-2FHYLN3YQ-3D-3D-24H-2BsyVNJG8mooIaK1akT6wrDQgLFMgzyB2WGWtjiqWPg-3D%3Futm_source%3Dlocal-listing%26utm_medium%3Dorganic%26utm_campaign%3Dwebsite-link", "rating": 4.9, "reviews": 118, "place_id": "ChIJY4X078spMYgRiFWNOwr0UkI", "latitude": 41.0820492, "longitude": -81.4993465, "subtypes": "Urologist"}, {"name": "Center for Urologic Health", "address": "3869 Darrow Rd # 206, Stow, OH 44224", "city": "Stow", "state": "Ohio", "state_code": "OH", "phone": "+1 330-535-4428", "website": "http://physicians.akrongeneral.org/%3FPractices%3D84", "rating": "", "reviews": "", "place_id": "ChIJE_Ljdo8mMYgRe7JkDWBvr54", "latitude": 41.1702695, "longitude": -81.4397631, "subtypes": "Urologist"}, {"name": "Joshua B Nething, MD", "address": "95 Arch St #165, Akron, OH 44304", "city": "Akron", "state": "Ohio", "state_code": "OH", "phone": "+1 330-374-1255", "website": "https://mychart.summahealth.org/mychart/app/providers/JoshuaNethingMD/WP-2438l8-2F64TZHEt2oOIOl8Ipg-3D-3D-24g2BTDLb-2BvCZmaVn9GrCEYiow-2BpP366yrdKYvFRO-2Fxgs-3D%3Futm_source%3Dlocal-listing%26utm_medium%3Dorganic%26utm_campaign%3Dwebsite-link", "rating": 4.9, "reviews": 146, "place_id": "ChIJcSs50V7MMIgRJNpLMME_qLI", "latitude": 41.0820492, "longitude": -81.4993465, "subtypes": "Urologist"}, {"name": "Lawrence L Geller, MD", "address": "95 Arch St #165, Akron, OH 44304", "city": "Akron", "state": "Ohio", "state_code": "OH", "phone": "+1 330-374-1255", "website": "https://mychart.summahealth.org/mychart/app/providers/LawrenceGellerMD/WP-249TjWYQ6CHo3VM2DSVO6zQQ-3D-3D-24g-2Bo-2B4qLlErNoAjNiVodd6WpYta4SkSHvYB28-2FKUyx9Q-3D%3Futm_source%3Dlocal-listing%26utm_medium%3Dorganic%26utm_campaign%3Dwebsite-link", "rating": 4.9, "reviews": 86, "place_id": "ChIJy-cJk03XMIgRb2s49dAp-cU", "latitude": 41.0820492, "longitude": -81.4993465, "subtypes": "Urologist"}, {"name": "Mark A. Davis, MD", "address": "3636 Yellow Creek Rd, Akron, OH 44333", "city": "Akron", "state": "Ohio", "state_code": "OH", "phone": "+1 330-344-8565", "website": "http://physicians.akrongeneral.org/Details/160%3FLastName%3DDavis", "rating": 5, "reviews": 1, "place_id": "ChIJb567DmjaMIgRerAdbPy8fx4", "latitude": 41.15658579999999, "longitude": -81.63598449999999, "subtypes": "Urologist"}, {"name": "Physicians Urology: Geller Lawrence L MD", "address": "3869 Darrow Rd # 206, Stow, OH 44224", "city": "Stow", "state": "Ohio", "state_code": "OH", "phone": "+1 330-864-8008", "website": "", "rating": "", "reviews": "", "place_id": "ChIJ6Y_EcI8mMYgRpouXimS40xY", "latitude": 41.1702695, "longitude": -81.4397631, "subtypes": "Urologist"}, {"name": "Dr. John D. Wegryn, MD", "address": "320 W Exchange St, Akron, OH 44302", "city": "Akron", "state": "Ohio", "state_code": "OH", "phone": "+1 330-535-4428", "website": "https://my.clevelandclinic.org/staff/21933-john-wegryn", "rating": 3.8, "reviews": 10, "place_id": "ChIJ4_40xDDWMIgRC7dcteZ7KBw", "latitude": 41.0813226, "longitude": -81.531621, "subtypes": "Urologist"}, {"name": "Naveen K Arora, MD", "address": "95 Arch St #165, Akron, OH 44304", "city": "Akron", "state": "Ohio", "state_code": "OH", "phone": "+1 330-374-1255", "website": "https://mychart.summahealth.org/mychart/app/providers/NaveenAroraMD/WP-24NrTzDFldYYTIKzIgn4UKBQ-3D-3D-24KTnVqOK45F1-2BHR0vYWouxyrTYmQx1yI6ZuhvKzotpuo-3D%3Futm_source%3Dlocal-listing%26utm_medium%3Dorganic%26utm_campaign%3Dwebsite-link", "rating": 4.9, "reviews": 103, "place_id": "ChIJvztEbT0pMYgRTt1U2QO61C0", "latitude": 41.0820492, "longitude": -81.4993465, "subtypes": "Urologist"}, {"name": "Nannan Thirumavalavan, MD", "address": "5778 Darrow Rd #202, Hudson, OH 44236", "city": "Hudson", "state": "Ohio", "state_code": "OH", "phone": "+1 216-285-5036", "website": "https://clevelandmenshealth.com/locations/hudson-office/", "rating": 5, "reviews": 1, "place_id": "ChIJo30IriwhMYgRndmFMfYNrsI", "latitude": 41.2224798, "longitude": -81.4410745, "subtypes": "Urologist"}, {"name": "Neel Parekh, MD", "address": "2651 W Market St, Fairlawn, OH 44333", "city": "Fairlawn", "state": "Ohio", "state_code": "OH", "phone": "+1 330-535-4428", "website": "https://my.clevelandclinic.org/staff/23506-neel-parekh", "rating": 4.7, "reviews": 12, "place_id": "ChIJY_JrzJLXMIgRZlQSrtTY6Dk", "latitude": 41.1236845, "longitude": -81.5995154, "subtypes": "Urologist"}, {"name": "Summa Health Medical Group Urology", "address": "95 Arch St #165, Akron, OH 44304", "city": "Akron", "state": "Ohio", "state_code": "OH", "phone": "+1 330-374-1255", "website": "https://www.summahealth.org/locations/hospitals/akron%3Futm_source%3Dlocal-listing%26utm_medium%3Dorganic%26utm_campaign%3Dwebsite-link", "rating": 3.4, "reviews": 19, "place_id": "ChIJAZvbrM4pMYgR93vpl5wfzUE", "latitude": 41.0820492, "longitude": -81.4993465, "subtypes": "Urology clinic"}, {"name": "Cleveland Clinic Akron General Urology & Pelvic Health Center", "address": "320 W Exchange St, Akron, OH 44302", "city": "Akron", "state": "Ohio", "state_code": "OH", "phone": "+1 330-535-4428", "website": "https://my.clevelandclinic.org/locations/directions/461-akron-urology", "rating": 5, "reviews": 1, "place_id": "ChIJh2lgyDDWMIgRpeO9zcccysI", "latitude": 41.081232, "longitude": -81.53161, "subtypes": "Urology clinic"}, {"name": "Diane Kovachik", "address": "2651 W Market St, Fairlawn, OH 44333", "city": "Fairlawn", "state": "Ohio", "state_code": "OH", "phone": "+1 330-864-8008", "website": "", "rating": 5, "reviews": 1, "place_id": "ChIJRxR6k03XMIgRRTkdDyb7HN8", "latitude": 41.1239243, "longitude": -81.5995406, "subtypes": "Urologist"}, {"name": "N E O Urology Associates Inc", "address": "7430 Southern Blvd, Boardman, OH 44512", "city": "Boardman", "state": "Ohio", "state_code": "OH", "phone": "+1 330-729-9214", "website": "http://www.neourology.com/", "rating": 4.4, "reviews": 218, "place_id": "ChIJLUS1bWD6M4gRdqe9dbEIhsY", "latitude": 41.0204172, "longitude": -80.65466339999999, "subtypes": "Urology clinic"}, {"name": "NEO Urology Associates, Inc.", "address": "6262 Mahoning Ave suite c, Youngstown, OH 44515", "city": "Youngstown", "state": "Ohio", "state_code": "OH", "phone": "+1 330-729-9214", "website": "", "rating": 4.4, "reviews": 34, "place_id": "ChIJCY3IYu7iM4gRDtelYCWgEVE", "latitude": 41.1003897, "longitude": -80.7819684, "subtypes": "Urology clinic"}, {"name": "Ricchiuti Daniel J MD", "address": "6262 Mahoning Ave suite c, Youngstown, OH 44515", "city": "Youngstown", "state": "Ohio", "state_code": "OH", "phone": "+1 330-779-6851", "website": "", "rating": 4.4, "reviews": 13, "place_id": "ChIJCY3IYu7iM4gRMrODooc9uw4", "latitude": 41.1003897, "longitude": -80.7819684, "subtypes": "Urologist"}, {"name": "Advanced Urology", "address": "7600 Southern Blvd, Youngstown, OH 44512", "city": "Youngstown", "state": "Ohio", "state_code": "OH", "phone": "+1 330-758-9787", "website": "http://advanceduro.com/", "rating": 1.5, "reviews": 2, "place_id": "ChIJYz8TFwb6M4gRWR-ikPV_HVg", "latitude": 41.0161608, "longitude": -80.65393449999999, "subtypes": "Urologist"}, {"name": "Partners For Urology Health", "address": "6262 Mahoning Ave, Youngstown, OH 44515", "city": "Youngstown", "state": "Ohio", "state_code": "OH", "phone": "+1 330-779-6810", "website": "", "rating": 3, "reviews": 1, "place_id": "ChIJ807df-7iM4gRw11oBL9iS4U", "latitude": 41.1003494, "longitude": -80.7818679, "subtypes": "Urology clinic"}, {"name": "Ricchiuti Daniel J MD", "address": "7430 Southern Blvd, Boardman, OH 44512", "city": "Boardman", "state": "Ohio", "state_code": "OH", "phone": "+1 330-729-9214", "website": "", "rating": 5, "reviews": 2, "place_id": "ChIJLUS1bWD6M4gRz1B0xHnAprM", "latitude": 41.0204172, "longitude": -80.65466339999999, "subtypes": "Urologist"}, {"name": "Southwoods Urology - Boardman", "address": "7600 Southern Blvd #1, Youngstown, OH 44512", "city": "Youngstown", "state": "Ohio", "state_code": "OH", "phone": "+1 330-758-9787", "website": "https://www.southwoodshealth.com/findaphysician/%3Filf-physician%26ilf-search%26ilf-speciality%3Dsouthwoods-urology", "rating": 1, "reviews": 1, "place_id": "ChIJNXa_arT7M4gRUnJLO6WKvzo", "latitude": 41.0161692, "longitude": -80.6539426, "subtypes": "Urology clinic"}, {"name": "David Drevna", "address": "7430 Southern Blvd, Boardman, OH 44512", "city": "Boardman", "state": "Ohio", "state_code": "OH", "phone": "+1 330-729-9214", "website": "https://neourology.com/physicians", "rating": 5, "reviews": 8, "place_id": "ChIJAzDvdGD6M4gROFWUlLSo8w0", "latitude": 41.0204172, "longitude": -80.65466339999999, "subtypes": "Urologist"}, {"name": "Ricchiuti Vincent S MD", "address": "6262 Mahoning Ave suite c, Youngstown, OH 44515", "city": "Youngstown", "state": "Ohio", "state_code": "OH", "phone": "+1 330-779-6851", "website": "", "rating": 4, "reviews": 4, "place_id": "ChIJCY3IYu7iM4gRAlKJvCUJodg", "latitude": 41.1003897, "longitude": -80.7819684, "subtypes": "Urologist"}, {"name": "Richard Nord, MD - Southwoods Health - Urology", "address": "7600 Southern Blvd #1, Youngstown, OH 44512", "city": "Youngstown", "state": "Ohio", "state_code": "OH", "phone": "+1 330-967-1780", "website": "https://www.southwoodshealth.com/findaphysician/richard-nord/", "rating": 3.9, "reviews": 7, "place_id": "ChIJYz8TFwb6M4gRO_jt1rIIJXs", "latitude": 41.0161408, "longitude": -80.6538396, "subtypes": "Urologist"}, {"name": "Ricchiuti Robert R Dr", "address": "602 Parmalee Ave, Youngstown, OH 44510", "city": "Youngstown", "state": "Ohio", "state_code": "OH", "phone": "", "website": "", "rating": "", "reviews": "", "place_id": "ChIJYYTaQ7zlM4gR1rDzOYJ2qiY", "latitude": 41.1152791, "longitude": -80.65891599999999, "subtypes": "Urologist"}, {"name": "Ricchiuti Robert R MD", "address": "6262 Mahoning Ave suite c, Youngstown, OH 44515", "city": "Youngstown", "state": "Ohio", "state_code": "OH", "phone": "+1 330-779-6851", "website": "", "rating": 4, "reviews": 2, "place_id": "ChIJCY3IYu7iM4gRrZMI6x1UnKw", "latitude": 41.1003897, "longitude": -80.7819684, "subtypes": "Urologist"}, {"name": "James Stille, MD - Southwoods Health - Urology", "address": "7600 Southern Blvd #1, Youngstown, OH 44512", "city": "Youngstown", "state": "Ohio", "state_code": "OH", "phone": "+1 330-967-1783", "website": "https://www.southwoodshealth.com/findaphysician/james-stille/", "rating": 3.1, "reviews": 8, "place_id": "ChIJYz8TFwb6M4gR40X1drfhbug", "latitude": 41.0161408, "longitude": -80.6538396, "subtypes": "Urologist"}, {"name": "Paul Musselman, MD - Southwoods Health - Urology", "address": "7600 Southern Blvd #1, Youngstown, OH 44512", "city": "Youngstown", "state": "Ohio", "state_code": "OH", "phone": "+1 330-758-9787", "website": "https://www.southwoodshealth.com/findaphysician/paul-musselman/", "rating": 3, "reviews": 2, "place_id": "ChIJYz8TFwb6M4gRNtbiCsJYTnk", "latitude": 41.0161408, "longitude": -80.6538396, "subtypes": "Urologist"}, {"name": "Comprehensive Urology Institute: Dr. Michael J. Scolieri", "address": "3660 Stutz Dr #202, Canfield, OH 44406", "city": "Canfield", "state": "Ohio", "state_code": "OH", "phone": "+1 330-337-1134", "website": "https://www.cuiohio.com/", "rating": 3.3, "reviews": 7, "place_id": "ChIJV-tJoIP7M4gRne7WuZNq2Ng", "latitude": 41.0228928, "longitude": -80.7131836, "subtypes": "Urologist"}, {"name": "Mc Elroy John B MD", "address": "904 Sahara Trail, Youngstown, OH 44514", "city": "Youngstown", "state": "Ohio", "state_code": "OH", "phone": "+1 330-758-9787", "website": "http://advanceduro.com/", "rating": 5, "reviews": 1, "place_id": "ChIJYz8TFwb6M4gRI30pnOmGUjs", "latitude": 40.9895935, "longitude": -80.63702839999999, "subtypes": "Urologist"}, {"name": "Dr. Mark Memo", "address": "602 Parmalee Ave Ste 300, Youngstown, OH 44510", "city": "Youngstown", "state": "Ohio", "state_code": "OH", "phone": "+1 330-744-2272", "website": "", "rating": 5, "reviews": 1, "place_id": "ChIJNaj6QrzlM4gRNfkThZp02sI", "latitude": 41.1152791, "longitude": -80.658917, "subtypes": "Urologist"}, {"name": "Christopher A Haas, MD", "address": "3600 Kolbe Rd Suite 210, Lorain, OH 44053", "city": "Lorain", "state": "Ohio", "state_code": "OH", "phone": "+1 440-222-4290", "website": "https://www.mercy.com/find-a-doctor/physicians/christopher-a-haas/244843", "rating": 4.5, "reviews": 11, "place_id": "ChIJV2CvzWp2OogRrwNBhYZpgYM", "latitude": 41.436468, "longitude": -82.23647079999999, "subtypes": "Urologist"}, {"name": "Dr. Kurt H. Dinchman, MD", "address": "3600 Kolbe Rd # 220, Lorain, OH 44053", "city": "Lorain", "state": "Ohio", "state_code": "OH", "phone": "+1 440-282-5522", "website": "", "rating": 5, "reviews": 2, "place_id": "ChIJV2CvzWp2OogRiHefKuXgpM0", "latitude": 41.437268, "longitude": -82.236795, "subtypes": "Urologist"}, {"name": "Elizabeth A Boes, DO", "address": "95 Arch St #165, Akron, OH 44304", "city": "Akron", "state": "Ohio", "state_code": "OH", "phone": "+1 330-374-1255", "website": "https://mychart.summahealth.org/mychart/app/providers/ElizabethBoesDO/WP-24jzp-2F0HpPpjtUqGK-2BwwHFUw-3D-3D-24cf1j7Xc2kJ8z-2BpW4BGUZMkL3LvmvAgmz7soOzsYcHiw-3D%3Futm_source%3Dlocal-listing%26utm_medium%3Dorganic%26utm_campaign%3Dwebsite-link", "rating": 5, "reviews": 61, "place_id": "ChIJC4vErM4pMYgRH98nRHuuXaY", "latitude": 41.0820286, "longitude": -81.499348, "subtypes": "Urologist"}, {"name": "Kevin A Spear, MD", "address": "95 Arch St #165, Akron, OH 44304", "city": "Akron", "state": "Ohio", "state_code": "OH", "phone": "+1 330-374-1255", "website": "https://mychart.summahealth.org/mychart/app/providers/KevinSpearMD/WP-24Vd-2BPqdUP4VcwuXo4dittOw-3D-3D-24pWKX6Bpta9X0yIly2ZVZQau6wbIC-2F1oY4l1mryAWIdk-3D%3Futm_source%3Dlocal-listing%26utm_medium%3Dorganic%26utm_campaign%3Dwebsite-link", "rating": 4.7, "reviews": 98, "place_id": "ChIJY4X078spMYgRYmsKw1qC6wg", "latitude": 41.0820492, "longitude": -81.4993465, "subtypes": "Urologist"}, {"name": "Akron General Center for Urologic Health", "address": "320 W Exchange St, Akron, OH 44302", "city": "Akron", "state": "Ohio", "state_code": "OH", "phone": "+1 330-535-4428", "website": "http://physicians.akrongeneral.org/%3FPractices%3D84", "rating": "", "reviews": "", "place_id": "ChIJY61-E_KyMIgRcWp8i2NIH2w", "latitude": 41.0812379, "longitude": -81.5316162, "subtypes": "Urology clinic"}, {"name": "Center for Urologic Health", "address": "95 Arch St #165, Akron, OH 44304", "city": "Akron", "state": "Ohio", "state_code": "OH", "phone": "+1 330-535-4428", "website": "http://physicians.akrongeneral.org/%3FPractices%3D84", "rating": "", "reviews": "", "place_id": "ChIJ-ZrbrM4pMYgR36648itXOTc", "latitude": 41.0820081, "longitude": -81.4993494, "subtypes": "Urologist"}, {"name": "Akron Children's Pediatric and Adolescent Urology, Akron", "address": "215 W Bowery St Level 3, Akron, OH 44308", "city": "Akron", "state": "Ohio", "state_code": "OH", "phone": "+1 330-376-3332", "website": "https://www.akronchildrens.org/locations/Urology-Akron.html%3Fy_source%3D1_MTM0MDEzMjgtNzE1LWxvY2F0aW9uLndlYnNpdGU%253D", "rating": 5, "reviews": 4, "place_id": "ChIJj12aFaPXMIgRBYtkBiCB2pI", "latitude": 41.078549, "longitude": -81.524456, "subtypes": "Pediatric urologist"}, {"name": "Dr. Todd F. Breaux, MD", "address": "320 W Exchange St, Akron, OH 44302", "city": "Akron", "state": "Ohio", "state_code": "OH", "phone": "+1 330-535-4428", "website": "https://my.clevelandclinic.org/staff/21935-todd-breaux", "rating": 4.1, "reviews": 14, "place_id": "ChIJ4_40xDDWMIgRCeQJ8mKxO0Q", "latitude": 41.0812379, "longitude": -81.5316162, "subtypes": "Urologist"},