[{"name": "Springfield Urology", "address": "25 Ridgewood Rd Level D, Springfield, VT 05156", "city": "Springfield", "state": "Vermont", "state_code": "VT", "phone": "+1 802-886-3556", "website": "https://springfieldhospital.org/urology/", "rating": 3.4, "reviews": 5, "place_id": "ChIJwd_st7e54YkRHAoHheV_mn8", "latitude": 43.2983036, "longitude": -72.49493439999999, "subtypes": "Urologist"}, {"name": "Michael R. Curtis, MD", "address": "289 County Rd, Windsor, VT 05089", "city": "Windsor", "state": "Vermont", "state_code": "VT", "phone": "+1 802-674-8902", "website": "https://providers.dartmouth-health.org/2082/michael-r-curtis", "rating": "", "reviews": "", "place_id": "ChIJ_fN5B_fd4YkRZVh8nXUTNus", "latitude": 43.487628, "longitude": -72.4026557, "subtypes": "Urologist"}, {"name": "Zita Ficko, MD", "address": "289 County Rd, Windsor, VT 05089", "city": "Windsor", "state": "Vermont", "state_code": "VT", "phone": "+1 802-674-8902", "website": "https://providers.dartmouth-health.org/2080/zita-ficko", "rating": "", "reviews": "", "place_id": "ChIJSav_c1vd4YkR4EhuFwm3VE4", "latitude": 43.487628, "longitude": -72.4026557, "subtypes": "Urologist"}, {"name": "Amichai D. Kilchevsky, MD", "address": "289 County Rd, Windsor, VT 05089", "city": "Windsor", "state": "Vermont", "state_code": "VT", "phone": "+1 802-674-8902", "website": "https://providers.dartmouth-health.org/2083/amichai-d-kilchevsky", "rating": "", "reviews": "", "place_id": "ChIJp0swEO_d4YkR-L6a72pC1d8", "latitude": 43.487628, "longitude": -72.4026557, "subtypes": "Urologist"}, {"name": "Marble Valley Urology", "address": "145 Allen St, Rutland, VT 05701", "city": "Rutland", "state": "Vermont", "state_code": "VT", "phone": "+1 802-775-6006", "website": "https://www.rrmc.org/locations/profile/marble-valley-urology/", "rating": 4.3, "reviews": 3, "place_id": "ChIJW_Mdzvkk4IkRb6z2mE08FEM", "latitude": 43.599327, "longitude": -72.957128, "subtypes": "Urologist"}, {"name": "Mid-Vermont Urology", "address": "145 Allen St, Rutland, VT 05701", "city": "Rutland", "state": "Vermont", "state_code": "VT", "phone": "+1 802-775-6006", "website": "http://www.rrmc.org/", "rating": "", "reviews": "", "place_id": "ChIJFWS3LPEk4IkR1c3ISWeZoMs", "latitude": 43.5993263, "longitude": -72.9571275, "subtypes": "Urologist"}, {"name": "Zita Ficko, MD", "address": "145 Allen St, Rutland, VT 05701", "city": "Rutland", "state": "Vermont", "state_code": "VT", "phone": "+1 802-775-6006", "website": "https://www.rrmc.org/doctors/profile/ficko-zita/", "rating": 5, "reviews": 2, "place_id": "ChIJq6r60fkk4IkR9Ix4kRTNxyU", "latitude": 43.5993462, "longitude": -72.95717549999999, "subtypes": "Urologist"}, {"name": "Ernest M. Bove, MD", "address": "145 Allen St, Rutland, VT 05701", "city": "Rutland", "state": "Vermont", "state_code": "VT", "phone": "+1 802-775-6006", "website": "https://www.rrmc.org/doctors/profile/bove-ernest/", "rating": 3, "reviews": 8, "place_id": "ChIJFWS3LPEk4IkRj1Xyt9uF0eg", "latitude": 43.5993462, "longitude": -72.95717549999999, "subtypes": "Urologist"}, {"name": "Mid Vermont Urology: Larson Andrea MD", "address": "145 Allen St, Rutland, VT 05701", "city": "Rutland", "state": "Vermont", "state_code": "VT", "phone": "+1 802-775-6006", "website": "http://www.rrmc.org/", "rating": "", "reviews": "", "place_id": "ChIJFWS3LPEk4IkRO5lg2BGm0H0", "latitude": 43.5993263, "longitude": -72.9571275, "subtypes": "Urologist"}, {"name": "SVMC Urology", "address": "140 Hospital Dr #100, Bennington, VT 05201", "city": "Bennington", "state": "Vermont", "state_code": "VT", "phone": "+1 802-447-6253", "website": "https://svmc.org/health-services/urology", "rating": 5, "reviews": 1, "place_id": "ChIJieVjJyGX4IkRqz1oJoh7N34", "latitude": 42.8732401, "longitude": -73.2086629, "subtypes": "Urologist"}, {"name": "Urology, University of Vermont Medical Center", "address": "111 Colchester Avenue Main Campus, East Pavilion, Level 5, Burlington, VT 05401", "city": "Burlington", "state": "Vermont", "state_code": "VT", "phone": "+1 802-847-2884", "website": "https://www.uvmhealth.org/locations/urology-university-of-vermont-medical-center", "rating": 2.9, "reviews": 7, "place_id": "ChIJg9x5OkN6ykwRWsT-OnrAfaA", "latitude": 44.4797518, "longitude": -73.19393099999999, "subtypes": "Urologist"}, {"name": "UVM Medical Center Urology - Middlebury", "address": "1330 Exchange St, Middlebury, VT 05753", "city": "Middlebury", "state": "Vermont", "state_code": "VT", "phone": "+1 802-388-3899", "website": "https://www.uvmhealth.org/medcenter/Pages/OHAM/OrgUnitDetails.aspx%3FOrganizationalUnitId%3D1231", "rating": 3.5, "reviews": 2, "place_id": "ChIJ1wEgy4JdtUwR9MXzex3T0TA", "latitude": 44.035439, "longitude": -73.165223, "subtypes": "Urologist"}, {"name": "Urology - Fanny Allen - Medical Office Building, University of Vermont Medical Center", "address": "792 College Pkwy Suite 302, Colchester, VT 05446", "city": "Colchester", "state": "Vermont", "state_code": "VT", "phone": "+1 802-847-6400", "website": "https://www.uvmhealth.org/locations/urology-fanny-allen-medical-office-building-university-of-vermont-medical-center", "rating": "", "reviews": "", "place_id": "ChIJ6WRPF6hwykwRzgNvGWB24ps", "latitude": 44.4967923, "longitude": -73.1570417, "subtypes": "Urologist"}, {"name": "Jon Sleeper, PA-C, Physician Assistant", "address": "1330 Exchange St 103 Suite 302, Middlebury, VT 05753", "city": "Middlebury", "state": "Vermont", "state_code": "VT", "phone": "+1 802-388-3899", "website": "https://www.uvmhealth.org/providers/jon-sleeper-pa-c", "rating": 5, "reviews": 1, "place_id": "ChIJi8NiM1NdtUwRttxkoyIJO_4", "latitude": 44.0355334, "longitude": -73.1651248, "subtypes": "Urologist"}, {"name": "Andrew C. Mahoney, MD, Urologist", "address": "1330 Exchange St # 103, Middlebury, VT 05753", "city": "Middlebury", "state": "Vermont", "state_code": "VT", "phone": "+1 802-388-3899", "website": "https://www.uvmhealth.org/providers/andrew-c-mahoney-md", "rating": 4, "reviews": 4, "place_id": "ChIJ1wEgy4JdtUwRPpwQ1YnysGE", "latitude": 44.0354383, "longitude": -73.1652044, "subtypes": "Urologist"}, {"name": "Dr. Christopher S. Fukuda, MD", "address": "1330 Exchange St # 103, Middlebury, VT 05753", "city": "Middlebury", "state": "Vermont", "state_code": "VT", "phone": "+1 802-388-3899", "website": "http://www.uvmhealth.org/", "rating": "", "reviews": "", "place_id": "ChIJ5UQ2Mp1dtUwR7SL22QU1lps", "latitude": 44.0354397, "longitude": -73.165223, "subtypes": "Urologist"}, {"name": "Dr. Brian Irwin", "address": "115 Porter Dr, Middlebury, VT 05753", "city": "Middlebury", "state": "Vermont", "state_code": "VT", "phone": "+1 802-388-4701", "website": "", "rating": "", "reviews": "", "place_id": "ChIJ____r-VctUwRhll9-05O26s", "latitude": 44.0000146, "longitude": -73.16781809999999, "subtypes": "Urologist"}, {"name": "Brian H. Irwin, MD, Urologist", "address": "111 Colchester Avenue Main Campus, East Pavilion, Level 5, Burlington, VT 05401", "city": "Burlington", "state": "Vermont", "state_code": "VT", "phone": "+1 802-847-2884", "website": "https://www.uvmhealth.org/providers/brian-h-irwin-md", "rating": 5, "reviews": 1, "place_id": "ChIJg9x5OkN6ykwRwIVtubpecng", "latitude": 44.4797518, "longitude": -73.19393099999999, "subtypes": "Urologist"}, {"name": "Margaret Naughter, PA-C, Physician Assistant", "address": "1330 Exchange St 103 Suite 103, Middlebury, VT 05753", "city": "Middlebury", "state": "Vermont", "state_code": "VT", "phone": "+1 802-388-3899", "website": "https://www.uvmhealth.org/providers/margaret-naughter-pa-c", "rating": "", "reviews": "", "place_id": "ChIJ-9EkhyJdtUwRKo-He9E8tT4", "latitude": 44.0354998, "longitude": -73.1652091, "subtypes": "Urologist"}, {"name": "Sarah Rosemary A. Zimmermann, APRN", "address": "1330 Exchange St # 103, Middlebury, VT 05753", "city": "Middlebury", "state": "Vermont", "state_code": "VT", "phone": "+1 802-388-3899", "website": "", "rating": "", "reviews": "", "place_id": "ChIJ1wEgy4JdtUwRJntxniqjczI", "latitude": 44.0354397, "longitude": -73.165223, "subtypes": "Urologist"}, {"name": "Jenna Winebaum, MD, Urologist", "address": "111 Colchester Avenue Main Campus, East Pavilion, Level 5, Burlington, VT 05401", "city": "Burlington", "state": "Vermont", "state_code": "VT", "phone": "+1 802-847-2884", "website": "https://www.uvmhealth.org/providers/jenna-winebaum-md", "rating": "", "reviews": "", "place_id": "ChIJa61DsDd7ykwR7UE2fUPjZoU", "latitude": 44.4797518, "longitude": -73.19393099999999, "subtypes": "Urologist"}, {"name": "Dr. a C. Esenler, MD", "address": "371 Pearl St, Burlington, VT 05401", "city": "Burlington", "state": "Vermont", "state_code": "VT", "phone": "", "website": "", "rating": 5, "reviews": 1, "place_id": "ChIJI6qW3F56ykwR4nROK58EW4A", "latitude": 44.4803823, "longitude": -73.2037301, "subtypes": "Urologist"}, {"name": "Mark K. Plante, MD, Urologist", "address": "111 Colchester Avenue Main Campus, East Pavilion, Level 5, Burlington, VT 05401", "city": "Burlington", "state": "Vermont", "state_code": "VT", "phone": "+1 802-847-2884", "website": "https://www.uvmhealth.org/providers/mark-k-plante-md", "rating": 3.7, "reviews": 3, "place_id": "ChIJg9x5OkN6ykwRqekhNNRRU8g", "latitude": 44.4797518, "longitude": -73.19393099999999, "subtypes": "Urologist"}, {"name": "Gerald C. Mingin, Jr, MD, Pediatric Urologist", "address": "East Pavilion, 111 Colchester Ave 4th Floor, Burlington, VT 05401", "city": "Burlington", "state": "Vermont", "state_code": "VT", "phone": "+1 802-847-2100", "website": "https://www.uvmhealth.org/providers/gerald-c-mingin-jr-md", "rating": 5, "reviews": 2, "place_id": "ChIJg9x5OkN6ykwRtzxZbqtjB2g", "latitude": 44.4797518, "longitude": -73.19393099999999, "subtypes": "Pediatric urologist"}, {"name": "Peter A. Holoch, MD, Urologist", "address": "111 Colchester Avenue Main Campus, East Pavilion, Level 5, Burlington, VT 05401", "city": "Burlington", "state": "Vermont", "state_code": "VT", "phone": "+1 802-847-2884", "website": "https://www.uvmhealth.org/providers/peter-a-holoch-md", "rating": 3.7, "reviews": 3, "place_id": "ChIJPd5Hms4HtUwRPIBtVb7xPac", "latitude": 44.4797518, "longitude": -73.19393099999999, "subtypes": "Urologist"}, {"name": "Dr. Eugene Dixon", "address": "1315 Hospital Dr, St Johnsbury, VT 05819", "city": "St Johnsbury", "state": "Vermont", "state_code": "VT", "phone": "+1 802-748-7382", "website": "https://nvrh.org/providers/eugene-dixon-md-facs/", "rating": 5, "reviews": 2, "place_id": "ChIJq6pqknVItEwR0WTpccWEHPs", "latitude": 44.4457643, "longitude": -72.00969789999999, "subtypes": "Urologist"}, {"name": "Curtis H. Cleveland, MD, Urologist", "address": "111 Colchester Avenue Main Campus, East Pavilion, Level 5, Burlington, VT 05401", "city": "Burlington", "state": "Vermont", "state_code": "VT", "phone": "+1 802-847-2884", "website": "https://www.uvmhealth.org/providers/curtis-h-cleveland-md", "rating": 5, "reviews": 1, "place_id": "ChIJQVMANXV3ykwREwOQZQ9RP-k", "latitude": 44.4797518, "longitude": -73.19393099999999, "subtypes": "Urologist"}, {"name": "Scott D. Perrapato, DO, Urologist,Urologic Oncologist", "address": "111 Colchester Avenue Main Campus, East Pavilion, Level 5, Burlington, VT 05401", "city": "Burlington", "state": "Vermont", "state_code": "VT", "phone": "+1 802-847-2884", "website": "https://www.uvmhealth.org/providers/scott-d-perrapato-do", "rating": 3.7, "reviews": 3, "place_id": "ChIJtU9XQUN6ykwRyYnbK4v1hwE", "latitude": 44.4797518, "longitude": -73.19393099999999, "subtypes": "Urologist"}, {"name": "Urology, UVM Health - Central Vermont Medical Center", "address": "130 Fisher Rd MOB-A Suite 2-2, Berlin, VT 05602", "city": "Berlin", "state": "Vermont", "state_code": "VT", "phone": "+1 802-371-4820", "website": "https://www.uvmhealth.org/locations/urology-uvm-health-central-vermont-medical-center", "rating": "", "reviews": "", "place_id": "ChIJSe9X884HtUwRNKj1PkQC9mw", "latitude": 44.22023739999999, "longitude": -72.56087029999999, "subtypes": "Urologist"}, {"name": "Benjamin J. King, MD, Urologist", "address": "111 Colchester Avenue Main Campus, East Pavilion, Level 5, Burlington, VT 05401", "city": "Burlington", "state": "Vermont", "state_code": "VT", "phone": "+1 802-847-2884", "website": "https://www.uvmhealth.org/providers/benjamin-j-king-md", "rating": "", "reviews": "", "place_id": "ChIJ50kqHEh7ykwR7V2HCuU5jwE", "latitude": 44.4797518, "longitude": -73.19393099999999, "subtypes": "Urologist"}, {"name": "Emily M. Sleeper, PA-C, Urology Physician Assistant", "address": "111 Colchester Avenue Main Campus, East Pavilion, Level 5, Burlington, VT 05401", "city": "Burlington", "state": "Vermont", "state_code": "VT", "phone": "+1 802-847-2884", "website": "https://www.uvmhealth.org/providers/emily-m-sleeper-pa-c", "rating": "", "reviews": "", "place_id": "ChIJnzLiUsx3ykwRh-x1-FTaUvE", "latitude": 44.4797518, "longitude": -73.19393099999999, "subtypes": "Urologist"}, {"name": "Jon Sleeper, PA-C, Physician Assistant", "address": "792 College Pkwy Suite 302, Colchester, VT 05446", "city": "Colchester", "state": "Vermont", "state_code": "VT", "phone": "+1 802-847-6400", "website": "https://www.uvmhealth.org/medcenter/provider/jon-sleeper-pa-c%3Futm_source%3DGoogle%26utm_medium%3DYext%26utm_campaign%3Dprovider%2Bonline%2Blisting", "rating": "", "reviews": "", "place_id": "ChIJMXQszLJxykwRUCYoE9GfxPo", "latitude": 44.4967861, "longitude": -73.1570401, "subtypes": "Urologist"}, {"name": "Richard T. Grunert, MD, Urologist", "address": "111 Colchester Avenue Main Campus, East Pavilion, Level 5, Burlington, VT 05401", "city": "Burlington", "state": "Vermont", "state_code": "VT", "phone": "+1 802-847-2884", "website": "https://www.uvmhealth.org/providers/richard-t-grunert-md", "rating": "", "reviews": "", "place_id": "ChIJgc3JU8p3ykwROVqJF9C-3tU", "latitude": 44.4797518, "longitude": -73.19393099999999, "subtypes": "Urologist"}, {"name": "Kaitlin E. Brenny, PA-C, Urology Physician Assistant", "address": "111 Colchester Avenue Main Campus, East Pavilion, Level, 5, Burlington, VT 05401", "city": "Burlington", "state": "Vermont", "state_code": "VT", "phone": "+1 802-847-2884", "website": "https://www.uvmhealth.org/medcenter/find-medical-providers", "rating": "", "reviews": "", "place_id": "ChIJg9x5OkN6ykwRj_g9Kq_k2yU", "latitude": 44.4797628, "longitude": -73.1939435, "subtypes": "Urologist"}, {"name": "Richard Thomas Grunert, MD", "address": "792 College Pkwy Suite 302, Colchester, VT 05446", "city": "Colchester", "state": "Vermont", "state_code": "VT", "phone": "+1 802-847-6400", "website": "", "rating": "", "reviews": "", "place_id": "ChIJuST25ckaykwR5Mx1u-7sFrY", "latitude": 44.4967796, "longitude": -73.1570338, "subtypes": "Urologist"}, {"name": "Andrew C. Mahoney, MD, Urologist", "address": "792 College Pkwy Suite 302, Colchester, VT 05446", "city": "Colchester", "state": "Vermont", "state_code": "VT", "phone": "+1 802-847-6400", "website": "https://www.uvmhealth.org/providers/andrew-c-mahoney-md", "rating": "", "reviews": "", "place_id": "ChIJwQucAahwykwR3rYFowhWvd4", "latitude": 44.49678249999999, "longitude": -73.15703719999999, "subtypes": "Urologist"}, {"name": "Jon Sleeper, PA-C, Physician Assistant", "address": "111 Colchester Avenue Main Campus, East Pavilion, Level 5, Burlington, VT 05401", "city": "Burlington", "state": "Vermont", "state_code": "VT", "phone": "+1 802-847-2884", "website": "https://www.uvmhealth.org/providers/jon-sleeper-pa-c", "rating": "", "reviews": "", "place_id": "ChIJnbG_rrt7ykwRfb_wKKvzlus", "latitude": 44.47977909999999, "longitude": -73.194024, "subtypes": "Urologist"}, {"name": "Margaret Naughter, PA-C, Physician Assistant", "address": "792 College Pkwy Suite 302, Colchester, VT 05446", "city": "Colchester", "state": "Vermont", "state_code": "VT", "phone": "+1 802-847-6400", "website": "https://www.uvmhealth.org/providers/margaret-naughter-pa-c", "rating": "", "reviews": "", "place_id": "ChIJec25uqBxykwRbR_Cv671oS8", "latitude": 44.4968018, "longitude": -73.1570708, "subtypes": "Urologist"}, {"name": "Elizabeth A. Stampfl, PA-C, Urology Physician Assistant", "address": "Main Campus, East Pavilion, 111 Colchester Ave Level 5, Burlington, VT 05401", "city": "Burlington", "state": "Vermont", "state_code": "VT", "phone": "+1 802-847-2884", "website": "https://www.uvmhealth.org/medcenter/provider/elizabeth-a-stampfl-pa-c%3Futm_source%3DGoogle%26utm_medium%3DYext%26utm_campaign%3Dprovider%2Bonline%2Blisting", "rating": "", "reviews": "", "place_id": "ChIJg9x5OkN6ykwRGNDqKlqAqCg", "latitude": 44.47974809999999, "longitude": -73.1940391, "subtypes": "Urologist"}, {"name": "Dicken S.C. Ko, MD", "address": "1 S Prospect St F2, Burlington, VT 05401", "city": "Burlington", "state": "Vermont", "state_code": "VT", "phone": "+1 802-847-4774", "website": "", "rating": "", "reviews": "", "place_id": "ChIJvTC8BFx6ykwRuZCfVOdBH20", "latitude": 44.4799566, "longitude": -73.20098899999999, "subtypes": "Urologist"}, {"name": "NVRH Specialty Clinics: Heitzman Mark R MD", "address": "1315 Hospital Dr, St Johnsbury, VT 05819", "city": "St Johnsbury", "state": "Vermont", "state_code": "VT", "phone": "+1 802-748-7382", "website": "https://nvrh.org/urology/", "rating": "", "reviews": "", "place_id": "ChIJEXTqjHVItEwRSKLXhOJrXj4", "latitude": 44.445572, "longitude": -72.009422, "subtypes": "Urology clinic"}, {"name": "Urszula Kowalik, MD, Urologist", "address": "Fanny Allen, Medical, 792 College Pkwy Office Building, Suite 101, Colchester, VT 05446", "city": "Colchester", "state": "Vermont", "state_code": "VT", "phone": "+1 802-847-5800", "website": "https://www.uvmhealth.org/providers/urszula-kowalik-md", "rating": "", "reviews": "", "place_id": "ChIJgYj1wcZxykwRp_vrJTMjT1Q", "latitude": 44.4967829, "longitude": -73.1570725, "subtypes": "Urologist"}, {"name": "Urszula Kowalik, MD, Urologist", "address": "111 Colchester Avenue Main Campus, East Pavilion, Level 5, Burlington, VT 05401", "city": "Burlington", "state": "Vermont", "state_code": "VT", "phone": "+1 802-847-2884", "website": "https://www.uvmhealth.org/providers/urszula-kowalik-md", "rating": "", "reviews": "", "place_id": "ChIJYxzEOkN6ykwReNCpW8WbsMs", "latitude": 44.4797518, "longitude": -73.19393099999999, "subtypes": "Urologist"}, {"name": "Dr. Todd L. Murphy, MD", "address": "111 Colchester Ave, Burlington, VT 05401", "city": "Burlington", "state": "Vermont", "state_code": "VT", "phone": "+1 802-847-2415", "website": "http://www.uvmhealth.org/", "rating": "", "reviews": "", "place_id": "ChIJg9x5OkN6ykwRM1isDlhh_IA", "latitude": 44.4797459, "longitude": -73.1940061, "subtypes": "Urologist"}, {"name": "Dr. Christopher S. Fukuda, MD", "address": "792 College Pkwy # 302, Colchester, VT 05446", "city": "Colchester", "state": "Vermont", "state_code": "VT", "phone": "+1 802-655-4900", "website": "", "rating": "", "reviews": "", "place_id": "ChIJpZBTF6hwykwRODdKUBVbmJw", "latitude": 44.4964549, "longitude": -73.1581885, "subtypes": "Urologist"}, {"name": "Perez Elizabeth Z MD", "address": "51 Brigham St, Morrisville, VT 05661", "city": "Morrisville", "state": "Vermont", "state_code": "VT", "phone": "+1 802-888-8823", "website": "http://www.copleyvt.org/", "rating": 5, "reviews": 2, "place_id": "ChIJW8NlVFCVtUwR3uIkeleVXfM", "latitude": 44.5627169, "longitude": -72.599626, "subtypes": "Urologist"}, {"name": "Springfield Urology", "address": "25 Ridgewood Rd Level D, Springfield, VT 05156", "city": "Springfield", "state": "Vermont", "state_code": "VT", "phone": "+1 802-886-3556", "website": "https://springfieldhospital.org/urology/", "rating": 3.4, "reviews": 5, "place_id": "ChIJwd_st7e54YkRHAoHheV_mn8", "latitude": 43.2983036, "longitude": -72.49493439999999, "subtypes": "Urologist"}, {"name": "Gifford Medical Center: Graham Richard W MD", "address": "44 S Main St, Randolph, VT 05060", "city": "Randolph", "state": "Vermont", "state_code": "VT", "phone": "+1 802-728-2470", "website": "", "rating": "", "reviews": "", "place_id": "ChIJp5fByNgjtUwRFGDOtrRVBV4", "latitude": 43.916904, "longitude": -72.665306, "subtypes": "Urologist"}, {"name": "Urology, Gifford Medical Center", "address": "44 S Main St, Randolph, VT 05060", "city": "Randolph", "state": "Vermont", "state_code": "VT", "phone": "+1 802-728-2430", "website": "https://giffordhealthcare.org/%3Fservice%3Durology-urogynecology", "rating": "", "reviews": "", "place_id": "ChIJFXGIyBchtUwRilvRq9Dnvqc", "latitude": 43.9153811, "longitude": -72.6641886, "subtypes": "Urology clinic"}, {"name": "BMH Urology, Rinder Craig MD", "address": "17 Belmont Ave, Brattleboro, VT 05301", "city": "Brattleboro", "state": "Vermont", "state_code": "VT", "phone": "+1 802-251-8720", "website": "http://www.bmhvt.org/", "rating": 3.3, "reviews": 7, "place_id": "ChIJkY8PZzQa4YkRH2y_uYEiRYE", "latitude": 42.8432847, "longitude": -72.5650229, "subtypes": "Urologist"}, {"name": "Fletcher Allen Urology: Holoch, Peter Andrew, MD", "address": "6 Crest Rd, St Albans City, VT 05478", "city": "St Albans City", "state": "Vermont", "state_code": "VT", "phone": "", "website": "", "rating": "", "reviews": "", "place_id": "ChIJoz325ckaykwRaG75tJT0gUY", "latitude": 44.807008, "longitude": -73.0702079, "subtypes": "Urologist"}, {"name": "Emily A. Miller, DNP, BSN, APRN, FNP-BC", "address": "289 County Rd, Windsor, VT 05089", "city": "Windsor", "state": "Vermont", "state_code": "VT", "phone": "+1 802-674-8902", "website": "https://providers.dartmouth-health.org/2084/emily-a-miller", "rating": "", "reviews": "", "place_id": "ChIJ5c0ljDnd4YkRmoJEapiWqVk", "latitude": 43.487628, "longitude": -72.4026557, "subtypes": "Urologist"}, {"name": "Green Mountain Urology", "address": "27 Fisher Pond Rd UNIT 3, St Albans City, VT 05478", "city": "St Albans City", "state": "Vermont", "state_code": "VT", "phone": "+1 802-524-7551", "website": "", "rating": "", "reviews": "", "place_id": "ChIJ7cBZ5bUaykwRUJRGiU1b2ys", "latitude": 44.8057427, "longitude": -73.06903799999999, "subtypes": "Urologist"}, {"name": "Dr. Christopher S. Fukuda, MD", "address": "27 Fisher Pond Rd UNIT 3, St Albans City, VT 05478", "city": "St Albans City", "state": "Vermont", "state_code": "VT", "phone": "+1 802-524-7551", "website": "", "rating": "", "reviews": "", "place_id": "ChIJ7cBZ5bUaykwRbE2GuTNqFnM", "latitude": 44.8057427, "longitude": -73.06903799999999, "subtypes": "Urologist"}, {"name": "Green Mountain Urology: Thibault Cassandra B MD", "address": "27 Fisher Pond Rd UNIT 3, St Albans City, VT 05478", "city": "St Albans City", "state": "Vermont", "state_code": "VT", "phone": "+1 802-524-7551", "website": "", "rating": "", "reviews": "", "place_id": "ChIJ7cBZ5bUaykwR5VJlelimApQ", "latitude": 44.8057427, "longitude": -73.06903799999999, "subtypes": "Urologist"}, {"name": "Central Vermont Urology:Zahm Michael MD", "address": "542 Barre-Montpelier Rd, Barre, VT 05641", "city": "Barre", "state": "Vermont", "state_code": "VT", "phone": "+1 802-476-6060", "website": "", "rating": 5, "reviews": 1, "place_id": "ChIJEaIN5LAHtUwRx1KA14kMl_4", "latitude": 44.2195058, "longitude": -72.54189699999999, "subtypes": "Urologist"}, {"name": "John J. Horan, MD, Urologist", "address": "130 Fisher Rd MOB-A Suite 2-2, Berlin, VT 05602", "city": "Berlin", "state": "Vermont", "state_code": "VT", "phone": "+1 802-371-4820", "website": "https://www.uvmhealth.org/providers/john-j-horan-md", "rating": 5, "reviews": 1, "place_id": "ChIJZZAKNJentUwR9ze5wjdrfEg", "latitude": 44.2214083, "longitude": -72.5604134, "subtypes": "Urologist"}, {"name": "Mountainview Urology", "address": "130 Fisher Rd, Berlin, VT 05602", "city": "Berlin", "state": "Vermont", "state_code": "VT", "phone": "+1 802-371-4875", "website": "", "rating": "", "reviews": "", "place_id": "ChIJPd5Hms4HtUwRbIotPyVAZj8", "latitude": 44.220258, "longitude": -72.560761, "subtypes": "Urologist"}, {"name": "Urology, Gifford Health Center at Berlin- Specialty Clinic", "address": "82 E View Ln, Barre, VT 05641", "city": "Barre", "state": "Vermont", "state_code": "VT", "phone": "+1 802-728-2430", "website": "https://giffordhealthcare.org/%3Fservice%3Durology-urogynecology", "rating": "", "reviews": "", "place_id": "ChIJxTlUcW8HtUwRqRnWDyHink8", "latitude": 44.2052311, "longitude": -72.55850219999999, "subtypes": "Urology clinic"}, {"name": "Daniel D. Sackett, MD, Urologist", "address": "130 Fisher Rd MOB-A Suite 2-2, Berlin, VT 05602", "city": "Berlin", "state": "Vermont", "state_code": "VT", "phone": "+1 802-371-4820", "website": "https://www.uvmhealth.org/providers/daniel-d-sackett-md", "rating": "", "reviews": "", "place_id": "ChIJCzOLc4IHtUwRblac5Tu7kpQ", "latitude": 44.22023739999999, "longitude": -72.56087029999999, "subtypes": "Urologist"}, {"name": "Dr. Armando E. Lopez, MD", "address": "286 Hospital Loop, Berlin, VT 05602", "city": "Berlin", "state": "Vermont", "state_code": "VT", "phone": "+1 802-371-4820", "website": "", "rating": "", "reviews": "", "place_id": "ChIJPd5Hms4HtUwRoYx_Z3JdE3g", "latitude": 44.2210474, "longitude": -72.5626746, "subtypes": "Urologist"}, {"name": "Dreslin John Andrew MD", "address": "130 Fisher Rd, Berlin, VT 05602", "city": "Berlin", "state": "Vermont", "state_code": "VT", "phone": "+1 802-371-4820", "website": "https://giffordhealthcare.org/%3Fservice%3Durology-urogynecology", "rating": "", "reviews": "", "place_id": "ChIJPd5Hms4HtUwRM28Xwwlr5HY", "latitude": 44.220258, "longitude": -72.560761, "subtypes": "Urologist"}, {"name": "Dr. Anne Viselli", "address": "82 E View Ln, Barre, VT 05641", "city": "Barre", "state": "Vermont", "state_code": "VT", "phone": "+1 802-229-2325", "website": "https://giffordhealthcare.org/provider/anne-viselli-md/", "rating": 1, "reviews": 1, "place_id": "ChIJq6r61UcGtUwRvEzCgisMoN4", "latitude": 44.2052311, "longitude": -72.55850219999999, "subtypes": "Urologist"}, {"name": "Andrew C. Mahoney, MD, Urologist", "address": "111 Colchester Avenue Main Campus, East Pavilion, Level 5, Burlington, VT 05401", "city": "Burlington", "state": "Vermont", "state_code": "VT", "phone": "+1 802-847-2884", "website": "https://www.uvmhealth.org/providers/andrew-c-mahoney-md", "rating": "", "reviews": "", "place_id": "ChIJg5xTR0N6ykwRk10V_kTuTmE", "latitude": 44.4797518, "longitude": -73.19393099999999, "subtypes": "Urologist"}, {"name": "Madeline Dubois, DNP, FNP, Pediatric Urology Nurse Practitioner", "address": "East Pavilion, 111 Colchester Ave 4th Floor, Burlington, VT 05401", "city": "Burlington", "state": "Vermont", "state_code": "VT", "phone": "+1 802-847-2100", "website": "https://www.uvmhealth.org/providers/madeline-dubois-dnp-fnp", "rating": "", "reviews": "", "place_id": "ChIJ126ttcF7ykwRe0EEFBvM11U", "latitude": 44.4790656, "longitude": -73.1945466, "subtypes": "Pediatric urologist"}, {"name": "Margaret Naughter, PA-C, Physician Assistant", "address": "111 Colchester Avenue Main Campus, East Pavilion, Level 5, Burlington, VT 05401", "city": "Burlington", "state": "Vermont", "state_code": "VT", "phone": "+1 802-847-2884", "website": "https://www.uvmhealth.org/providers/margaret-naughter-pa-c", "rating": "", "reviews": "", "place_id": "ChIJEYrkGM57ykwROvzKzPMdc0M", "latitude": 44.4791499, "longitude": -73.1946203, "subtypes": "Urologist"}, {"name": "Sarah Rosemary A. Zimmermann, APRN", "address": "792 College Pkwy Suite 302, Colchester, VT 05446", "city": "Colchester", "state": "Vermont", "state_code": "VT", "phone": "+1 802-847-6400", "website": "", "rating": "", "reviews": "", "place_id": "ChIJwQucAahwykwR1fxUuyh6d74", "latitude": 44.4967782, "longitude": -73.1570354, "subtypes": "Urologist"}, {"name": "Eric R. Sargent, MD", "address": "Main Campus, East Pavilion, 111 Colchester Ave, Burlington, VT 05401", "city": "Burlington", "state": "Vermont", "state_code": "VT", "phone": "+1 802-847-2884", "website": "", "rating": "", "reviews": "", "place_id": "ChIJg9x5OkN6ykwRV1ttgZPr_iw", "latitude": 44.479658, "longitude": -73.194118, "subtypes": "Urologist"}, {"name": "Grace Urological", "address": "191 Clark Ave # 1, Brattleboro, VT 05301", "city": "Brattleboro", "state": "Vermont", "state_code": "VT", "phone": "+1 802-257-4265", "website": "https://weence.com/medical/doctors/brattleboro/grace-urological/", "rating": "", "reviews": "", "place_id": "ChIJj6S7ajQa4YkRX3L3UjlRFfA", "latitude": 42.84174, "longitude": -72.56343, "subtypes": "Urologist"}, {"name": "Ramiro Madden-Fuentes", "address": "25 Ridgewood Rd, Springfield, VT 05156", "city": "Springfield", "state": "Vermont", "state_code": "VT", "phone": "+1 802-886-3556", "website": "https://springfieldhospital.org/urology/", "rating": "", "reviews": "", "place_id": "ChIJRbdzsLe54YkRLj4ZLuq4RP0", "latitude": 43.29802979999999, "longitude": -72.4947088, "subtypes": "Urologist"}, {"name": "Dr. Andrew S. Nisbet, MD", "address": "1315 Hospital Dr, St Johnsbury, VT 05819", "city": "St Johnsbury", "state": "Vermont", "state_code": "VT", "phone": "+1 802-748-7382", "website": "", "rating": "", "reviews": "", "place_id": "ChIJEXTqjHVItEwREhbbfYMGsJM", "latitude": 44.4458391, "longitude": -72.0095602, "subtypes": "Urologist"}, {"name": "Dr. Anthony Donaldson", "address": "140 Hospital Dr #100, Bennington, VT 05201", "city": "Bennington", "state": "Vermont", "state_code": "VT", "phone": "+1 802-447-6253", "website": "https://svhealthcare.org/services/urology", "rating": 5, "reviews": 1, "place_id": "ChIJVVUlgEGW4IkRkEwtcHHhElo", "latitude": 42.8732401, "longitude": -73.2086629, "subtypes": "Urologist"}, {"name": "Monument Urology", "address": "140 Hospital Dr # 100, Bennington, VT 05201", "city": "Bennington", "state": "Vermont", "state_code": "VT", "phone": "+1 802-447-6253", "website": "https://weence.com/medical/doctors/bennington/monument-urology/", "rating": "", "reviews": "", "place_id": "ChIJ-9EbK0KW4IkR3tuIPsmOAnw", "latitude": 42.873515, "longitude": -73.208591, "subtypes": "Urology clinic"}, {"name": "Dr. Arthur F. Turton, MD", "address": "77 Hospital Dr #214, Bennington, VT 05201", "city": "Bennington", "state": "Vermont", "state_code": "VT", "phone": "+1 413-662-2486", "website": "http://svhealthcare.org/", "rating": "", "reviews": "", "place_id": "ChIJ-9EbK0KW4IkRzJEa3Zw0E74", "latitude": 42.8739183, "longitude": -73.20430089999999, "subtypes": "Urologist"}, {"name": "Springfield Urology", "address": "25 Ridgewood Rd Level D, Springfield, VT 05156", "city": "Springfield", "state": "Vermont", "state_code": "VT", "phone": "+1 802-886-3556", "website": "https://springfieldhospital.org/urology/", "rating": 3.4, "reviews": 5, "place_id": "ChIJwd_st7e54YkRHAoHheV_mn8", "latitude": 43.2983036, "longitude": -72.49493439999999, "subtypes": "Urologist"}]