[{"name": "Cody Ray Christensen", "address": "1180 College Dr, Rock Springs, WY 82901", "city": "Rock Springs", "state": "Wyoming", "state_code": "WY", "phone": "+1 307-362-4200", "website": "http://www.sweetwatermemorial.com/", "rating": 4.3, "reviews": 6, "place_id": "ChIJf94nyeFgWocROoVkxtDoiyw", "latitude": 41.5841857, "longitude": -109.2360691, "subtypes": "Urologist"}, {"name": "Memorial Hospital-Sweetwater: Hansen Donald MD", "address": "1200 College Dr, Rock Springs, WY 82901", "city": "Rock Springs", "state": "Wyoming", "state_code": "WY", "phone": "+1 307-362-3711", "website": "https://www.sweetwatermemorial.com/", "rating": "", "reviews": "", "place_id": "ChIJCXB7mhhhWocRqNxWkAe_JXs", "latitude": 41.5847604, "longitude": -109.2354543, "subtypes": "Urologist"}, {"name": "Dr. Stephen Holst", "address": "340 W Dow St STE 2, Sheridan, WY 82801", "city": "Sheridan", "state": "Wyoming", "state_code": "WY", "phone": "+1 307-655-7454", "website": "http://www.bighornurology.com/", "rating": 4.3, "reviews": 7, "place_id": "ChIJ2V6RF8D6NVMRKxa4jFV-GOo", "latitude": 44.802805, "longitude": -106.960719, "subtypes": "Urologist"}, {"name": "Wyoming Urology PC", "address": "2300 Gasser Rd, Riverton, WY 82501", "city": "Riverton", "state": "Wyoming", "state_code": "WY", "phone": "+1 307-332-2271", "website": "", "rating": "", "reviews": "", "place_id": "ChIJDfWt21DdWIcRDhwP-luLgU8", "latitude": 43.0377219, "longitude": -108.4207372, "subtypes": "Urologist"}, {"name": "Urology Clinic Pc", "address": "2710 E Harney St, Laramie, WY 82072", "city": "Laramie", "state": "Wyoming", "state_code": "WY", "phone": "+1 307-745-3097", "website": "", "rating": "", "reviews": "", "place_id": "ChIJNQ7w1HGQaIcRQiMhLg99kIM", "latitude": 41.3203317, "longitude": -105.562089, "subtypes": "Urologist"}, {"name": "Pierce H Lyle MD", "address": "2710 E Harney St, Laramie, WY 82072", "city": "Laramie", "state": "Wyoming", "state_code": "WY", "phone": "+1 307-745-3097", "website": "", "rating": 5, "reviews": 1, "place_id": "ChIJNQ7w1HGQaIcRlqecK004ukk", "latitude": 41.3202546, "longitude": -105.5620865, "subtypes": "Urologist"}, {"name": "H. Lyle Pierce, MD", "address": "3116 E Willett Dr, Laramie, WY 82072", "city": "Laramie", "state": "Wyoming", "state_code": "WY", "phone": "+1 307-755-4540", "website": "https://www.ivinsonhospital.org/womens-health", "rating": "", "reviews": "", "place_id": "ChIJl7fpzFaRaIcRI92nyt-fAdc", "latitude": 41.3129718, "longitude": -105.555838, "subtypes": "Urologist"}, {"name": "Dr. H L. Pierce, MD", "address": "204 McCollum St #102, Laramie, WY 82070", "city": "Laramie", "state": "Wyoming", "state_code": "WY", "phone": "+1 307-745-3097", "website": "", "rating": "", "reviews": "", "place_id": "ChIJW9a6kV2QaIcR4EZHQ8MBd_k", "latitude": 41.3107311, "longitude": -105.55537, "subtypes": "Urologist"}, {"name": "Attila T. Barabas, MD", "address": "501 South Burma Avenue, Gillette, WY 82716", "city": "Gillette", "state": "Wyoming", "state_code": "WY", "phone": "+1 307-688-3636", "website": "http://www.cchwyo.org/urology", "rating": 5, "reviews": 9, "place_id": "ChIJf11nE0CUNFMRQZEMdqoL-HU", "latitude": 44.2900385, "longitude": -105.5167581, "subtypes": "Urologist"}, {"name": "Central Wyoming Urological Associates PC\u2014Gillette Office", "address": "3100 W Lakeway Rd STE 1, Gillette, WY 82718", "city": "Gillette", "state": "Wyoming", "state_code": "WY", "phone": "+1 307-577-8600", "website": "https://wyomingurology.com/our-office/gillette-office/", "rating": "", "reviews": "", "place_id": "ChIJY6vRHoeVNFMRVQS48sQ6UlQ", "latitude": 44.27375989999999, "longitude": -105.5451122, "subtypes": "Urology clinic"}, {"name": "Campbell County Medical Group Urology", "address": "501 South Burma Avenue, Gillette, WY 82716", "city": "Gillette", "state": "Wyoming", "state_code": "WY", "phone": "+1 307-688-3636", "website": "https://www.cchwyo.org/services/urology/", "rating": "", "reviews": "", "place_id": "ChIJw_ABMjWVNFMRXoEKvI0bIfk", "latitude": 44.2898945, "longitude": -105.5182972, "subtypes": "Urologist"}, {"name": "Cheyenne Urological PC", "address": "2301 House Ave #502, Cheyenne, WY 82001", "city": "Cheyenne", "state": "Wyoming", "state_code": "WY", "phone": "+1 307-635-4131", "website": "http://www.cheyenneurological.com/", "rating": 2.5, "reviews": 28, "place_id": "ChIJPVYvWuk6b4cRnoIap9q8Cqo", "latitude": 41.1404647, "longitude": -104.8158957, "subtypes": "Urology clinic"}, {"name": "Jon F. Suleskey, DO", "address": "2301 House Ave #502, Cheyenne, WY 82001", "city": "Cheyenne", "state": "Wyoming", "state_code": "WY", "phone": "+1 307-635-4131", "website": "https://cheyenneurological.com/suleskey.php", "rating": 5, "reviews": 3, "place_id": "ChIJBc40I1s7b4cRyXJ9qzYcnnk", "latitude": 41.1403913, "longitude": -104.8158123, "subtypes": "Urologist"}, {"name": "Central Wyoming Urological Associates PC", "address": "1416 E A St Ste 101, Casper, WY 82601", "city": "Casper", "state": "Wyoming", "state_code": "WY", "phone": "+1 307-577-8600", "website": "https://wyomingurology.com/", "rating": 3.2, "reviews": 45, "place_id": "ChIJw7R_FYS8YIcR_aR_ZM5RJf0", "latitude": 42.8517006, "longitude": -106.3063181, "subtypes": "Urologist"}, {"name": "Central WY Urological Associates: Haden James B MD", "address": "1416 E A St Ste 101, Casper, WY 82601", "city": "Casper", "state": "Wyoming", "state_code": "WY", "phone": "+1 307-577-8600", "website": "", "rating": "", "reviews": "", "place_id": "ChIJw7R_FYS8YIcRD28kKcwUMXY", "latitude": 42.8516328, "longitude": -106.3062684, "subtypes": "Urologist"}, {"name": "Henry P. Gottsch, M.D.", "address": "1416 E A St Ste 101, Casper, WY 82601", "city": "Casper", "state": "Wyoming", "state_code": "WY", "phone": "+1 307-577-8600", "website": "https://wyomingurology.com/about-us/our-providers/henry-p-gottsch-md/", "rating": 3, "reviews": 4, "place_id": "ChIJP7N_FYS8YIcRgI7Celdfy_k", "latitude": 42.8517009, "longitude": -106.3063179, "subtypes": "Urologist"}, {"name": "J. Paul Jones, MD", "address": "1416 E A St, Casper, WY 82601", "city": "Casper", "state": "Wyoming", "state_code": "WY", "phone": "+1 307-577-8600", "website": "https://wyomingurology.com/about-us/our-providers/j-paul-jones-md/", "rating": "", "reviews": "", "place_id": "ChIJw7R_FYS8YIcRo_fjoAgKfXk", "latitude": 42.8517119, "longitude": -106.3063409, "subtypes": "Urologist"}, {"name": "Yellowstone Urology", "address": "2900 E 12th St #503E, Casper, WY 82609", "city": "Casper", "state": "Wyoming", "state_code": "WY", "phone": "+1 307-237-5400", "website": "", "rating": "", "reviews": "", "place_id": "ChIJ5SOQNoW7YIcR26PSz6_UCgA", "latitude": 42.8390928, "longitude": -106.2892163, "subtypes": "Urology clinic"}, {"name": "Uinta Medical Group: Urology", "address": "150 Arrowhead Dr Suite 1, Evanston, WY 82930", "city": "Evanston", "state": "Wyoming", "state_code": "WY", "phone": "+1 307-789-0524", "website": "https://uintamedicalgroup.com/services/urology/", "rating": 5, "reviews": 1, "place_id": "ChIJO3rcj854UYcRatf6VKhLwyE", "latitude": 41.2428562, "longitude": -110.9888093, "subtypes": "Urology clinic"}, {"name": "Justin Parkinson, MD", "address": "150 Arrowhead Dr Suite 1, Evanston, WY 82930", "city": "Evanston", "state": "Wyoming", "state_code": "WY", "phone": "+1 307-789-0524", "website": "https://uintamedicalgroup.com/providers/urology-providers/justin-parkinson-md/", "rating": 5, "reviews": 2, "place_id": "ChIJO3rcj854UYcRxVBKtd3pUzk", "latitude": 41.2428562, "longitude": -110.9888093, "subtypes": "Urologist"}, {"name": "Matthew Phillip Rutman, MD", "address": "201 14th St Suite B100, Wheatland, WY 82201", "city": "Wheatland", "state": "Wyoming", "state_code": "WY", "phone": "+1 307-322-3861", "website": "https://doctors.bannerhealth.com/provider/Matthew%2BRutman/4342453%3Futm_source%3Dgmb%26utm_medium%3Dlisting%26utm_campaign%3Ddoc_onlinescheduling%26y_source%3D1_MjAzNTc1NzM2OS03MTUtbG9jYXRpb24ud2Vic2l0ZQ%253D%253D", "rating": "", "reviews": "", "place_id": "ChIJt8tF7CcPZYcRxJEvtTQGsks", "latitude": 42.04990799999999, "longitude": -104.9606981, "subtypes": "Urologist"}, {"name": "Dr. Michael C. Mcmanus, MD", "address": "1035 Rose Ln Suite D, Riverton, WY 82501", "city": "Riverton", "state": "Wyoming", "state_code": "WY", "phone": "+1 307-856-9971", "website": "", "rating": "", "reviews": "", "place_id": "ChIJtawXo1DdWIcRcRlF4ut1CGQ", "latitude": 43.0360445, "longitude": -108.4204299, "subtypes": "Urologist"}, {"name": "St. John's Health Urology", "address": "555 E Broadway Ave Suite 229, Jackson, WY 83001", "city": "Jackson", "state": "Wyoming", "state_code": "WY", "phone": "+1 307-739-7690", "website": "https://www.stjohns.health/locations/urology/%3Futm_source%3Dgbp%26utm_medium%3Dorganic%26utm_campaign%3Dloclisting-listing%26utm_content%3DSJHUROLOGY%26y_source%3D1_MTI0NTkzMjEtNzE1LWxvY2F0aW9uLndlYnNpdGU%253D", "rating": 1, "reviews": 1, "place_id": "ChIJR72NZkUaU1MRwRV6n_vVprM", "latitude": 43.480639, "longitude": -110.7511932, "subtypes": "Urology clinic"}, {"name": "Ted O. Morgan, Jr., MD", "address": "555 E Broadway Ave Suite 229, Jackson, WY 83001", "city": "Jackson", "state": "Wyoming", "state_code": "WY", "phone": "+1 307-739-7690", "website": "https://www.stjohns.health/find-a-provider/ted-o-morgan-jr-md/%3Fy_source%3D1_MTI0NTkyODMtNzE1LWxvY2F0aW9uLndlYnNpdGU%253D", "rating": 2.5, "reviews": 6, "place_id": "ChIJrfFPVUkbU1MRTWESVAX8RT0", "latitude": 43.4806037, "longitude": -110.7512022, "subtypes": "Urologist"}, {"name": "Dr. Lisa J. Finkelstein, DO", "address": "557 E Broadway Ave, Jackson, WY 83001", "city": "Jackson", "state": "Wyoming", "state_code": "WY", "phone": "+1 307-739-7690", "website": "", "rating": 2.9, "reviews": 7, "place_id": "ChIJEYZzZ0UaU1MRAugq_yJEXEE", "latitude": 43.4806037, "longitude": -110.7512022, "subtypes": "Urologist"}, {"name": "Blake Johnson, MD", "address": "555 E Broadway Ave Suite 229, Jackson, WY 83001", "city": "Jackson", "state": "Wyoming", "state_code": "WY", "phone": "", "website": "https://www.stjohns.health/find-a-provider/g-blake-johnson-md/", "rating": "", "reviews": "", "place_id": "ChIJVYehrc8bU1MRkJBCh16l9To", "latitude": 43.4806037, "longitude": -110.7512022, "subtypes": "Urologist"}, {"name": "Urology Associates Med Group", "address": "555 E Broadway Ave, Jackson, WY 83001", "city": "Jackson", "state": "Wyoming", "state_code": "WY", "phone": "+1 307-733-7460", "website": "", "rating": 3.7, "reviews": 3, "place_id": "ChIJlQnQg0UaU1MRyMdOnv7IE_s", "latitude": 43.480434, "longitude": -110.7512414, "subtypes": "Urologist"}, {"name": "Suburban Urology Network", "address": "557 E Broadway Ave, Jackson, WY 83001", "city": "Jackson", "state": "Wyoming", "state_code": "WY", "phone": "+1 307-734-1525", "website": "http://www.tetonhospital.org/practitioner/lisa-finkelstein-do", "rating": "", "reviews": "", "place_id": "ChIJEYZzZ0UaU1MRAxt92fiKYP0", "latitude": 43.4808, "longitude": -110.751, "subtypes": "Urology clinic"}, {"name": "Dr. Phillip Lowe, MD", "address": "625 E Broadway Ave, Jackson, WY 83001", "city": "Jackson", "state": "Wyoming", "state_code": "WY", "phone": "+1 307-733-7460", "website": "https://www.tetonhospital.org/practitioner/phillip-lowe-md", "rating": 5, "reviews": 1, "place_id": "ChIJlQnQg0UaU1MRHhvU2OEsAe8", "latitude": 43.4806781, "longitude": -110.7496446, "subtypes": "Urologist"}, {"name": "Justin Parkinson", "address": "555 E Broadway Ave Suite 207, Jackson, WY 83001", "city": "Jackson", "state": "Wyoming", "state_code": "WY", "phone": "+1 307-733-7460", "website": "", "rating": "", "reviews": "", "place_id": "ChIJT0uVb0UaU1MRkzaSUv9tVkw", "latitude": 43.4803479, "longitude": -110.7510028, "subtypes": "Urologist"}, {"name": "Central Wyoming Urological Associates", "address": "201 14th St Ste B100, Wheatland, WY 82201", "city": "Wheatland", "state": "Wyoming", "state_code": "WY", "phone": "+1 307-577-8600", "website": "https://wyomingurology.com/our-office/wheatland-office/", "rating": "", "reviews": "", "place_id": "ChIJJ2AKHSrXZYcRDR8qfFmZed8", "latitude": 42.04990799999999, "longitude": -104.9606981, "subtypes": "Urology clinic"}, {"name": "John F. Bryant, MD", "address": "2301 House Ave #502, Cheyenne, WY 82001", "city": "Cheyenne", "state": "Wyoming", "state_code": "WY", "phone": "+1 307-635-4131", "website": "", "rating": 5, "reviews": 1, "place_id": "ChIJVxQHGfs7b4cRyiO_F0mBNJo", "latitude": 41.1403913, "longitude": -104.8158123, "subtypes": "Urologist"}, {"name": "Central Wyoming Urological Associates\u2014Buffalo Office", "address": "497 W Lott St, Buffalo, WY 82834", "city": "Buffalo", "state": "Wyoming", "state_code": "WY", "phone": "+1 307-577-8600", "website": "https://wyomingurology.com/", "rating": "", "reviews": "", "place_id": "ChIJtzR9mkR5NVMRh9wArY-umEk", "latitude": 44.3503498, "longitude": -106.7063996, "subtypes": "Urology clinic"}, {"name": "Sweetwater Urology", "address": "1208 Hilltop Dr # 204, Rock Springs, WY 82901", "city": "Rock Springs", "state": "Wyoming", "state_code": "WY", "phone": "+1 307-362-4200", "website": "https://www.sweetwatermemorial.com/locations/urology-clinic-of-sweetwater-memorial/", "rating": 5, "reviews": 1, "place_id": "ChIJV8pWxPxgWocRmRKa3eRLBxY", "latitude": 41.584641, "longitude": -109.2321829, "subtypes": "Urology clinic"}, {"name": "Central Wyoming Urological Associates PC\u2014Douglas Office", "address": "700 Center St, Douglas, WY 82633", "city": "Douglas", "state": "Wyoming", "state_code": "WY", "phone": "+1 307-577-8600", "website": "https://wyomingurology.com/", "rating": "", "reviews": "", "place_id": "ChIJlZHUiN5LYYcRj2yqsJyJpZU", "latitude": 42.7597815, "longitude": -105.3786817, "subtypes": "Urology clinic"}]